NMEA,$GNGGA,161927.000,4124.0612,N,00209.4631,E,1,16,1.08,55.9,M,51.3,M,,*45,1777306767000
NMEA,$GNGSA,A,3,03,17,19,,,,,,,,,,1.33,1.08,0.78,1*0B,1777306767000
NMEA,$GNGSA,A,3,72,87,86,88,,,,,,,,,1.33,1.08,0.78,2*01,1777306767000
NMEA,$GNGSA,A,3,05,36,34,,,,,,,,,,1.33,1.08,0.78,3*03,1777306767000
NMEA,$GNGSA,A,3,20,30,12,11,29,35,,,,,,,1.33,1.08,0.78,4*0C,1777306767000
NMEA,$GNGSA,A,3,,,,,,,,,,,,,1.33,1.08,0.78,5*02,1777306767000
NMEA,$GPGSV,3,1,12,03,71,008,17.9,01,60,104,,04,53,179,,17,50,277,19.0,1*61,1777306767000
NMEA,$GPGSV,3,2,12,02,31,123,,19,30,309,25.4,09,24,203,,31,18,085,,1*72,1777306767000
NMEA,$GPGSV,3,3,12,28,14,056,,06,12,305,,22,05,259,,43,,,,1*54,1777306767000
NMEA,$GLGSV,3,1,9,65,62,226,,72,59,031,19.0,88,55,328,26.0,87,52,128,18.9,1*51,1777306767000
NMEA,$GLGSV,3,2,9,86,13,136,13.3,66,12,217,,71,08,035,,80,02,359,,1*5D,1777306767000
NMEA,$GLGSV,3,3,9,81,02,322,,1*79,1777306767000
NMEA,$GAGSV,3,1,12,36,67,078,14.1,09,55,078,,34,50,313,15.4,05,46,172,15.3,7*62,1777306767000
NMEA,$GAGSV,3,2,12,06,36,053,,11,20,107,,04,14,039,,30,13,275,,7*7A,1777306767000
NMEA,$GAGSV,3,3,12,27,06,321,,02,04,226,,03,03,201,,15,02,297,,7*7A,1777306767000
NMEA,$GBGSV,4,1,14,20,88,005,35.4,29,76,225,19.6,12,69,232,18.5,11,62,163,15.4,1*71,1777306767000
NMEA,$GBGSV,4,2,14,57,51,065,,19,40,230,,30,33,151,12.9,35,31,311,15.6,1*74,1777306767000
NMEA,$GBGSV,4,3,14,32,29,048,,05,19,111,,07,13,048,,10,13,057,,1*76,1777306767000
NMEA,$GBGSV,4,4,14,02,02,097,,60,02,097,,1*77,1777306767000
NMEA,$GNRMC,161927.000,A,4124.0612,N,00209.4631,E,0.000,225.20,270426,,,A,V*3F,1777306767000
NMEA,$GNVTG,225.20,T,,M,0.000,N,0.000,K,A*24,1777306767000
NMEA,$GNACCURACY,2.0,179.9,4.6,15.4*22,1777306767000
NMEA,$PMTKAGC,161927.000,2426,2354,5663,5673,0,0,0,6,116,0*7C,1777306767000
NMEA,$PMTKTSX1,1491564,12186.119,31.412,31.463,6dc80000,1.227945,1.218612,-1.154595,-0.327304,3.509599,1.235,2.0*69,1777306767000
NMEA,$PMTKERT,952992359,1491564,952992268,0000*78,1777306767000
NMEA,$PMTKMPE1,1265.4,0.943,41.4010304,2.1577298,107.09,-0.00,-0.00,0.00,0.00,0.00,-134.80,0.00,3,6,0,1*4B,1777306767000
NMEA,$PMTKMPE2,UDR_v6.2.0_2021_04_13,PDR_v6.2.0_2021_04_13*6D,1777306767000
NMEA,$PMTKLCPOS1,20260427161927.000,41.401021,2.157718,107.2,3,41.401030,2.157730,107.1,0*45,1777306767000
NMEA,$PMTKLCPOS2,20260427161927.000,41.401021,2.157718,107.2,1,2416,145185.001,18*5C,1777306767000
NMEA,$GNGGA,161928.000,4124.0617,N,00209.4637,E,1,16,1.08,56.0,M,51.3,M,,*43,1777306768000
NMEA,$GNGSA,A,3,03,17,19,,,,,,,,,,1.33,1.08,0.78,1*0B,1777306768000
NMEA,$GNGSA,A,3,72,87,86,88,,,,,,,,,1.33,1.08,0.78,2*01,1777306768000
NMEA,$GNGSA,A,3,05,36,34,,,,,,,,,,1.33,1.08,0.78,3*03,1777306768000
NMEA,$GNGSA,A,3,20,30,12,11,29,35,,,,,,,1.33,1.08,0.78,4*0C,1777306768000
NMEA,$GNGSA,A,3,,,,,,,,,,,,,1.33,1.08,0.78,5*02,1777306768000
NMEA,$GPGSV,3,1,12,03,71,008,18.0,01,60,104,,04,53,179,,17,50,277,19.1,1*66,1777306768000
NMEA,$GPGSV,3,2,12,02,31,123,,19,30,309,25.3,09,24,203,,31,18,085,,1*75,1777306768000
NMEA,$GPGSV,3,3,12,28,14,056,,06,12,305,,22,05,259,,47,,,,1*50,1777306768000
NMEA,$GLGSV,3,1,9,65,62,226,,72,59,031,18.9,88,55,328,26.1,87,52,128,18.8,1*59,1777306768000
NMEA,$GLGSV,3,2,9,86,13,136,17.8,66,12,217,,71,08,035,,80,02,359,,1*52,1777306768000
NMEA,$GLGSV,3,3,9,81,02,322,,1*79,1777306768000
NMEA,$GAGSV,3,1,12,36,67,078,14.1,09,55,078,,34,50,313,15.4,05,46,172,15.2,7*63,1777306768000
NMEA,$GAGSV,3,2,12,06,36,053,,11,20,107,,04,14,039,,30,13,275,,7*7A,1777306768000
NMEA,$GAGSV,3,3,12,27,06,321,,03,04,201,,02,04,226,,15,02,297,,7*7D,1777306768000
NMEA,$GBGSV,4,1,14,20,88,005,35.4,29,76,225,19.5,12,69,232,18.6,11,62,163,15.4,1*71,1777306768000
NMEA,$GBGSV,4,2,14,57,51,065,,19,40,230,,30,33,151,12.3,35,31,311,15.7,1*7F,1777306768000
NMEA,$GBGSV,4,3,14,32,29,048,,05,19,111,,07,13,048,,10,13,057,,1*76,1777306768000
NMEA,$GBGSV,4,4,14,02,02,097,,60,02,097,,1*77,1777306768000
NMEA,$GNRMC,161928.000,A,4124.0617,N,00209.4637,E,0.000,225.20,270426,,,A,V*33,1777306768000
NMEA,$GNVTG,225.20,T,,M,0.000,N,0.000,K,A*24,1777306768000
NMEA,$GNACCURACY,1.9,179.9,3.9,15.0*24,1777306768000
NMEA,$PMTKAGC,161928.000,2199,2447,5583,5637,0,0,0,6,116,0*7A,1777306768000
NMEA,$PMTKTSX1,1492564,12008.751,31.315,31.548,6d8a0000,1.209608,1.200875,0.600196,-0.327304,3.509599,1.217,2.0*4C,1777306768000
NMEA,$PMTKERT,952993363,1492564,952993267,0000*7D,1777306768000
NMEA,$PMTKMPE1,1266.4,0.952,41.4010206,2.1577176,107.18,-0.00,-0.00,0.00,0.00,0.00,-134.80,0.00,3,6,0,1*48,1777306768000
NMEA,$PMTKMPE2,UDR_v6.2.0_2021_04_13,PDR_v6.2.0_2021_04_13*6D,1777306768000
NMEA,$PMTKLCPOS1,20260427161928.000,41.401028,2.157728,107.3,3,41.401021,2.157718,107.2,0*48,1777306768000
NMEA,$PMTKLCPOS2,20260427161928.000,41.401028,2.157728,107.3,1,2416,145186.001,18*5B,1777306768000
NMEA,$GNGGA,161929.000,4124.0617,N,00209.4640,E,1,16,1.08,56.0,M,51.3,M,,*42,1777306769000
NMEA,$GNGSA,A,3,03,17,19,,,,,,,,,,1.33,1.08,0.78,1*0B,1777306769000
NMEA,$GNGSA,A,3,72,87,86,88,,,,,,,,,1.33,1.08,0.78,2*01,1777306769000
NMEA,$GNGSA,A,3,05,36,34,,,,,,,,,,1.33,1.08,0.78,3*03,1777306769000
NMEA,$GNGSA,A,3,20,30,12,11,29,35,,,,,,,1.33,1.08,0.78,4*0C,1777306769000
NMEA,$GNGSA,A,3,,,,,,,,,,,,,1.33,1.08,0.78,5*02,1777306769000
NMEA,$GPGSV,3,1,12,03,71,008,23.1,01,60,104,,04,53,179,,17,50,277,19.1,1*6F,1777306769000
NMEA,$GPGSV,3,2,12,02,31,123,,19,30,309,20.9,09,24,203,,31,18,085,,1*7A,1777306769000
NMEA,$GPGSV,3,3,12,28,14,056,,06,12,305,,22,05,259,,47,,,,1*50,1777306769000
NMEA,$GLGSV,3,1,9,65,62,226,,72,59,031,18.8,88,55,328,26.2,87,52,128,18.8,1*5B,1777306769000
NMEA,$GLGSV,3,2,9,86,13,136,17.8,66,12,217,,71,08,035,,80,02,359,,1*52,1777306769000
NMEA,$GLGSV,3,3,9,81,02,322,,1*79,1777306769000
NMEA,$GAGSV,3,1,12,36,67,078,14.1,09,55,078,,34,50,313,15.4,05,46,172,15.2,7*63,1777306769000
NMEA,$GAGSV,3,2,12,06,36,053,,11,20,107,,04,13,038,,30,13,275,,7*7C,1777306769000
NMEA,$GAGSV,3,3,12,27,06,321,,03,04,201,,02,04,226,,15,02,297,,7*7D,1777306769000
NMEA,$GBGSV,4,1,14,20,88,005,35.5,29,76,225,19.6,12,69,232,18.6,11,62,163,15.5,1*72,1777306769000
NMEA,$GBGSV,4,2,14,57,51,065,,19,40,230,,30,33,151,12.3,35,31,311,15.8,1*70,1777306769000
NMEA,$GBGSV,4,3,14,32,29,048,,05,19,111,,07,13,048,,10,13,057,,1*76,1777306769000
NMEA,$GBGSV,4,4,14,02,02,097,,60,02,097,,1*77,1777306769000
NMEA,$GNRMC,161929.000,A,4124.0617,N,00209.4640,E,0.000,225.20,270426,,,A,V*32,1777306769000
NMEA,$GNVTG,225.20,T,,M,0.000,N,0.000,K,A*24,1777306769000
NMEA,$GNACCURACY,2.2,179.9,1.8,14.7*29,1777306769000
NMEA,$PMTKAGC,161929.000,2330,2272,5557,5539,0,0,0,6,116,0*7E,1777306769000
NMEA,$PMTKTSX1,1493564,12141.676,31.218,31.529,6d980000,1.222254,1.214168,0.646355,-0.327304,3.509599,1.204,2.0*1F,1777306769000
NMEA,$PMTKERT,952994365,1493564,952994267,0000*7A,1777306769000
NMEA,$PMTKMPE1,1267.4,0.946,41.4010280,2.1577283,107.26,-0.00,-0.00,0.00,0.00,0.00,-134.80,0.00,3,6,18,1*7F,1777306769000
NMEA,$PMTKMPE2,UDR_v6.2.0_2021_04_13,PDR_v6.2.0_2021_04_13*6D,1777306769000
NMEA,$PMTKLCPOS1,20260427161929.000,41.401028,2.157733,107.3,3,0.000000,0.000000,0.0,0*7B,1777306769000
NMEA,$PMTKLCPOS2,20260427161929.000,41.401028,2.157733,107.3,1,2416,145187.001,18*51,1777306769000
NMEA,$GNGGA,161930.000,4124.0616,N,00209.4643,E,1,14,1.19,56.1,M,51.3,M,,*4B,1777306770000
NMEA,$GNGSA,A,3,03,17,19,,,,,,,,,,1.42,1.19,0.78,1*0D,1777306770000
NMEA,$GNGSA,A,3,72,87,86,88,,,,,,,,,1.42,1.19,0.78,2*07,1777306770000
NMEA,$GNGSA,A,3,36,34,,,,,,,,,,,1.42,1.19,0.78,3*00,1777306770000
NMEA,$GNGSA,A,3,20,12,11,29,35,,,,,,,,1.42,1.19,0.78,4*09,1777306770000
NMEA,$GNGSA,A,3,,,,,,,,,,,,,1.42,1.19,0.78,5*04,1777306770000
NMEA,$GPGSV,3,1,12,03,71,008,25.1,01,60,104,,04,53,179,,17,50,277,19.1,1*69,1777306770000
NMEA,$GPGSV,3,2,12,02,31,123,,19,30,309,21.0,09,24,203,,31,18,085,,1*72,1777306770000
NMEA,$GPGSV,3,3,12,28,14,056,,06,12,305,,22,05,259,,47,,,,1*50,1777306770000
NMEA,$GLGSV,3,1,9,65,62,226,,72,59,031,18.7,88,55,328,29.4,87,52,128,18.8,1*5D,1777306770000
NMEA,$GLGSV,3,2,9,86,13,136,17.8,66,12,217,,71,08,035,,80,02,359,,1*52,1777306770000
NMEA,$GLGSV,3,3,9,81,02,322,,1*79,1777306770000
NMEA,$GAGSV,3,1,12,36,67,078,17.6,09,55,078,,34,50,313,15.3,05,47,172,,7*79,1777306770000
NMEA,$GAGSV,3,2,12,06,36,053,,11,20,107,,04,13,038,,30,13,275,,7*7C,1777306770000
NMEA,$GAGSV,3,3,12,27,06,321,,03,04,201,,02,04,226,,15,02,297,,7*7D,1777306770000
NMEA,$GBGSV,4,1,14,20,88,005,35.4,29,76,225,19.6,12,69,232,22.4,11,62,163,15.6,1*7B,1777306770000
NMEA,$GBGSV,4,2,14,57,51,065,,19,40,230,,30,33,151,,35,31,311,15.9,1*6F,1777306770000
NMEA,$GBGSV,4,3,14,32,29,048,,05,19,111,,07,13,048,,10,13,057,,1*76,1777306770000
NMEA,$GBGSV,4,4,14,02,02,097,,60,02,097,,1*77,1777306770000
NMEA,$GNRMC,161930.000,A,4124.0616,N,00209.4643,E,0.000,225.20,270426,,,A,V*38,1777306770000
NMEA,$GNVTG,225.20,T,,M,0.000,N,0.000,K,A*24,1777306770000
NMEA,$GNACCURACY,2.3,179.9,1.7,14.7*27,1777306770000
NMEA,$PMTKAGC,161930.000,3034,3158,6015,6169,0,0,0,6,116,0*78,1777306770000
NMEA,$PMTKTSX1,1494564,12266.029,31.218,31.485,6db80000,1.233636,1.226603,1.053695,-0.327304,3.509599,1.208,2.0*43,1777306770000
NMEA,$PMTKERT,952995365,1494564,952995267,0000*7D,1777306770000
NMEA,$PMTKMPE1,1268.4,0.958,41.4010281,2.1577335,107.29,-0.00,-0.00,0.00,0.00,0.00,-134.80,0.00,3,6,18,1*7D,1777306770000
NMEA,$PMTKMPE2,UDR_v6.2.0_2021_04_13,PDR_v6.2.0_2021_04_13*6D,1777306770000
NMEA,$PMTKLCPOS1,20260427161930.000,41.401027,2.157738,107.4,3,0.000000,0.000000,0.0,0*70,1777306770000
NMEA,$PMTKLCPOS2,20260427161930.000,41.401027,2.157738,107.4,1,2416,145188.001,18*55,1777306770000
NMEA,$GNGGA,161931.000,4124.0616,N,00209.4645,E,1,15,1.16,56.0,M,51.3,M,,*43,1777306771000
NMEA,$GNGSA,A,3,03,17,19,01,,,,,,,,,1.40,1.16,0.78,1*01,1777306771000
NMEA,$GNGSA,A,3,72,87,86,88,,,,,,,,,1.40,1.16,0.78,2*0A,1777306771000
NMEA,$GNGSA,A,3,36,34,,,,,,,,,,,1.40,1.16,0.78,3*0D,1777306771000
NMEA,$GNGSA,A,3,20,12,11,29,35,,,,,,,,1.40,1.16,0.78,4*04,1777306771000
NMEA,$GNGSA,A,3,,,,,,,,,,,,,1.40,1.16,0.78,5*09,1777306771000
NMEA,$GPGSV,3,1,12,03,71,008,26.4,01,60,104,20.8,04,53,179,,17,50,277,14.7,1*70,1777306771000
NMEA,$GPGSV,3,2,12,02,31,123,,19,30,309,21.0,09,24,203,,31,18,085,,1*72,1777306771000
NMEA,$GPGSV,3,3,12,28,14,056,,06,12,305,,22,05,259,,47,,,,1*50,1777306771000
NMEA,$GLGSV,3,1,9,65,62,226,,72,59,031,18.6,88,55,328,22.6,87,52,128,18.8,1*55,1777306771000
NMEA,$GLGSV,3,2,9,86,13,136,17.8,66,12,217,,71,08,035,,80,02,359,,1*52,1777306771000
NMEA,$GLGSV,3,3,9,81,02,322,,1*79,1777306771000
NMEA,$GAGSV,3,1,12,36,67,078,17.7,09,55,078,,34,50,313,15.2,05,47,172,,7*79,1777306771000
NMEA,$GAGSV,3,2,12,06,35,052,,11,20,107,,04,13,038,,30,13,275,,7*7E,1777306771000
NMEA,$GAGSV,3,3,12,27,06,321,,03,04,201,,02,04,226,,15,02,297,,7*7D,1777306771000
NMEA,$GBGSV,4,1,14,20,88,005,35.5,29,76,225,19.6,12,69,232,22.4,11,62,163,15.6,1*7A,1777306771000
NMEA,$GBGSV,4,2,14,57,51,065,,19,40,230,,30,33,151,,35,31,311,16.0,1*65,1777306771000
NMEA,$GBGSV,4,3,14,32,29,048,,05,19,111,,07,13,048,,10,13,057,,1*76,1777306771000
NMEA,$GBGSV,4,4,14,02,02,097,,60,02,097,,1*77,1777306771000
NMEA,$GNRMC,161931.000,A,4124.0616,N,00209.4645,E,0.000,225.20,270426,,,A,V*3F,1777306771000
NMEA,$GNVTG,225.20,T,,M,0.000,N,0.000,K,A*24,1777306771000
NMEA,$GNACCURACY,2.3,179.9,1.7,15.7*26,1777306771000
NMEA,$PMTKAGC,161931.000,2592,2769,5599,5473,0,0,0,6,116,0*7B,1777306771000
NMEA,$PMTKTSX1,1495564,12384.670,31.218,31.443,6dd60000,1.245650,1.238467,-0.149792,-0.327304,3.509599,1.226,2.0*65,1777306771000
NMEA,$PMTKERT,952996361,1495564,952996266,0000*79,1777306771000
NMEA,$PMTKMPE1,1269.4,0.951,41.4010274,2.1577380,107.38,-0.00,-0.00,0.00,0.00,0.00,-134.80,0.00,4,6,18,1*76,1777306771000
NMEA,$PMTKMPE2,UDR_v6.2.0_2021_04_13,PDR_v6.2.0_2021_04_13*6D,1777306771000
NMEA,$PMTKLCPOS1,20260427161931.000,41.401026,2.157741,107.3,3,0.000000,0.000000,0.0,0*79,1777306771000
NMEA,$PMTKLCPOS2,20260427161931.000,41.401026,2.157741,107.3,1,2416,145189.001,18*5D,1777306771000
NMEA,$GNGGA,161932.000,4124.0616,N,00209.4645,E,1,16,1.06,56.0,M,51.3,M,,*42,1777306772000
NMEA,$GNGSA,A,3,03,17,04,19,01,,,,,,,,1.32,1.06,0.78,1*01,1777306772000
NMEA,$GNGSA,A,3,72,87,86,88,,,,,,,,,1.32,1.06,0.78,2*0E,1777306772000
NMEA,$GNGSA,A,3,36,34,,,,,,,,,,,1.32,1.06,0.78,3*09,1777306772000
NMEA,$GNGSA,A,3,20,12,11,29,35,,,,,,,,1.32,1.06,0.78,4*00,1777306772000
NMEA,$GNGSA,A,3,,,,,,,,,,,,,1.32,1.06,0.78,5*0D,1777306772000
NMEA,$GPGSV,3,1,12,03,71,008,27.0,01,60,104,20.4,04,53,179,19.2,17,50,277,14.7,1*6D,1777306772000
NMEA,$GPGSV,3,2,12,02,31,123,,19,30,309,20.9,09,24,203,,31,18,085,,1*7A,1777306772000
NMEA,$GPGSV,3,3,12,28,14,056,,06,12,305,,22,05,259,,47,,,,1*50,1777306772000
NMEA,$GLGSV,3,1,9,65,62,226,,72,59,031,18.5,88,55,328,26.5,87,52,128,18.8,1*51,1777306772000
NMEA,$GLGSV,3,2,9,86,13,136,17.9,66,12,217,,71,08,035,,80,02,359,,1*53,1777306772000
NMEA,$GLGSV,3,3,9,81,02,322,,1*79,1777306772000
NMEA,$GAGSV,3,1,12,36,67,078,17.7,09,55,078,,34,50,313,15.1,05,47,172,,7*7A,1777306772000
NMEA,$GAGSV,3,2,12,06,35,052,,11,20,107,,04,13,038,,30,13,275,,7*7E,1777306772000
NMEA,$GAGSV,3,3,12,27,06,321,,03,04,201,,02,04,226,,15,02,297,,7*7D,1777306772000
NMEA,$GBGSV,4,1,14,20,88,005,35.6,29,76,225,19.6,12,69,232,22.5,11,62,163,18.6,1*75,1777306772000
NMEA,$GBGSV,4,2,14,57,51,065,,19,40,230,,30,33,151,,35,31,311,15.9,1*6F,1777306772000
NMEA,$GBGSV,4,3,14,32,29,048,,05,19,111,,07,13,048,,10,13,057,,1*76,1777306772000
NMEA,$GBGSV,4,4,14,02,02,097,,60,02,097,,1*77,1777306772000
NMEA,$GNRMC,161932.000,A,4124.0616,N,00209.4645,E,0.000,225.20,270426,,,A,V*3C,1777306772000
NMEA,$GNVTG,225.20,T,,M,0.000,N,0.000,K,A*24,1777306772000
NMEA,$GNACCURACY,2.3,179.9,1.6,15.9*29,1777306772000
NMEA,$PMTKAGC,161932.000,2091,2177,5420,5622,0,0,0,6,116,0*72,1777306772000
NMEA,$PMTKTSX1,1496564,12473.533,31.121,31.413,6dec0000,1.255134,1.247353,-0.598271,-0.327304,3.509599,1.226,2.0*39,1777306772000
NMEA,$PMTKERT,952997364,1496564,952997267,0000*7E,1777306772000
NMEA,$PMTKMPE1,1270.4,0.945,41.4010261,2.1577411,107.31,-0.00,-0.00,0.00,0.00,0.00,-134.80,0.00,4,6,18,1*79,1777306772000
NMEA,$PMTKMPE2,UDR_v6.2.0_2021_04_13,PDR_v6.2.0_2021_04_13*6D,1777306772000
NMEA,$PMTKLCPOS1,20260427161932.000,41.401027,2.157742,107.3,3,0.000000,0.000000,0.0,0*78,1777306772000
NMEA,$PMTKLCPOS2,20260427161932.000,41.401027,2.157742,107.3,1,2416,145190.001,18*54,1777306772000
NMEA,$GNGGA,161933.000,4124.0616,N,00209.4645,E,1,17,1.03,56.0,M,51.3,M,,*47,1777306773000
NMEA,$GNGSA,A,3,03,17,04,19,01,,,,,,,,1.29,1.03,0.77,1*01,1777306773000
NMEA,$GNGSA,A,3,72,87,86,88,,,,,,,,,1.29,1.03,0.77,2*0E,1777306773000
NMEA,$GNGSA,A,3,36,34,,,,,,,,,,,1.29,1.03,0.77,3*09,1777306773000
NMEA,$GNGSA,A,3,20,30,12,11,29,35,,,,,,,1.29,1.03,0.77,4*03,1777306773000
NMEA,$GNGSA,A,3,,,,,,,,,,,,,1.29,1.03,0.77,5*0D,1777306773000
NMEA,$GPGSV,3,1,12,03,71,008,26.7,01,60,104,19.2,04,53,179,18.0,17,50,277,18.2,1*6D,1777306773000
NMEA,$GPGSV,3,2,12,02,31,123,,19,30,309,20.9,09,24,203,,31,18,085,,1*7A,1777306773000
NMEA,$GPGSV,3,3,12,28,14,056,,06,12,305,,22,05,259,,47,,,,1*50,1777306773000
NMEA,$GLGSV,3,1,9,65,62,226,,72,59,031,18.5,88,55,328,26.9,87,52,128,18.8,1*5D,1777306773000
NMEA,$GLGSV,3,2,9,86,13,136,18.0,66,12,217,,71,08,035,,80,02,359,,1*55,1777306773000
NMEA,$GLGSV,3,3,9,81,02,322,,1*79,1777306773000
NMEA,$GAGSV,3,1,12,36,67,078,17.8,09,55,078,,34,50,313,15.0,05,47,172,,7*74,1777306773000
NMEA,$GAGSV,3,2,12,06,35,052,,11,20,107,,04,13,038,,30,13,275,,7*7E,1777306773000
NMEA,$GAGSV,3,3,12,27,06,321,,03,04,201,,02,04,226,,15,02,297,,7*7D,1777306773000
NMEA,$GBGSV,4,1,14,20,88,005,35.6,29,76,225,19.6,12,69,232,22.5,11,62,163,18.6,1*75,1777306773000
NMEA,$GBGSV,4,2,14,57,51,065,,19,40,230,,30,33,151,14.3,35,31,311,15.9,1*77,1777306773000
NMEA,$GBGSV,4,3,14,32,29,048,,05,19,111,,07,13,048,,10,13,057,,1*76,1777306773000
NMEA,$GBGSV,4,4,14,02,02,097,,60,02,097,,1*77,1777306773000
NMEA,$GNRMC,161933.000,A,4124.0616,N,00209.4645,E,0.000,225.20,270426,,,A,V*3D,1777306773000
NMEA,$GNVTG,225.20,T,,M,0.000,N,0.000,K,A*24,1777306773000
NMEA,$GNACCURACY,1.9,179.9,2.7,15.7*2C,1777306773000
NMEA,$PMTKAGC,161933.000,2247,2177,5668,5465,0,0,0,6,116,0*75,1777306773000
NMEA,$PMTKTSX1,1497564,12581.476,31.121,31.377,6e060000,1.267781,1.258148,-1.851961,-0.327304,3.509599,1.244,2.0*38,1777306773000
NMEA,$PMTKERT,952998377,1497564,952998271,0000*7A,1777306773000
NMEA,$PMTKMPE1,1271.4,0.956,41.4010267,2.1577421,107.25,-0.00,-0.00,0.00,0.00,0.00,-134.80,0.00,4,6,0,1*43,1777306773000
NMEA,$PMTKMPE2,UDR_v6.2.0_2021_04_13,PDR_v6.2.0_2021_04_13*6D,1777306773000
NMEA,$PMTKLCPOS1,20260427161933.000,41.401026,2.157741,107.2,3,41.401027,2.157742,107.2,0*4B,1777306773000
NMEA,$PMTKLCPOS2,20260427161933.000,41.401026,2.157741,107.2,1,2416,145191.001,18*57,1777306773000
NMEA,$GNGGA,161934.000,4124.0616,N,00209.4645,E,1,17,1.03,56.0,M,51.3,M,,*40,1777306774000
NMEA,$GNGSA,A,3,03,17,04,19,01,,,,,,,,1.29,1.03,0.77,1*01,1777306774000
NMEA,$GNGSA,A,3,72,87,86,88,,,,,,,,,1.29,1.03,0.77,2*0E,1777306774000
NMEA,$GNGSA,A,3,36,34,,,,,,,,,,,1.29,1.03,0.77,3*09,1777306774000
NMEA,$GNGSA,A,3,20,30,12,11,29,35,,,,,,,1.29,1.03,0.77,4*03,1777306774000
NMEA,$GNGSA,A,3,,,,,,,,,,,,,1.29,1.03,0.77,5*0D,1777306774000
NMEA,$GPGSV,3,1,12,03,71,008,25.8,01,60,104,19.0,04,53,179,17.8,17,50,277,18.2,1*64,1777306774000
NMEA,$GPGSV,3,2,12,49,42,175,,02,31,123,,19,30,309,20.9,09,24,203,,1*74,1777306774000
NMEA,$GPGSV,3,3,12,31,18,085,,28,14,056,,06,12,305,,22,05,259,,1*65,1777306774000
NMEA,$GLGSV,3,1,9,65,62,226,,72,59,031,18.5,88,55,328,26.0,87,52,128,18.8,1*54,1777306774000
NMEA,$GLGSV,3,2,9,86,13,136,18.0,66,12,217,,71,08,035,,80,02,359,,1*55,1777306774000
NMEA,$GLGSV,3,3,9,81,02,322,,1*79,1777306774000
NMEA,$GAGSV,3,1,12,36,67,078,17.9,09,55,076,,34,50,313,14.9,05,47,172,,7*73,1777306774000
NMEA,$GAGSV,3,2,12,06,35,052,,11,20,107,,04,13,038,,30,13,275,,7*7E,1777306774000
NMEA,$GAGSV,3,3,12,27,06,321,,03,04,201,,02,04,226,,15,02,297,,7*7D,1777306774000
NMEA,$GBGSV,4,1,14,20,88,005,35.6,29,76,225,19.5,12,69,232,22.6,11,62,163,18.6,1*75,1777306774000
NMEA,$GBGSV,4,2,14,57,51,065,,19,40,230,,30,33,151,14.3,35,31,311,15.8,1*76,1777306774000
NMEA,$GBGSV,4,3,14,32,29,048,,05,19,111,,07,13,048,,10,13,057,,1*76,1777306774000
NMEA,$GBGSV,4,4,14,02,02,097,,60,02,097,,1*77,1777306774000
NMEA,$GNRMC,161934.000,A,4124.0616,N,00209.4645,E,0.000,225.20,270426,,,A,V*3A,1777306774000
NMEA,$GNVTG,225.20,T,,M,0.000,N,0.000,K,A*24,1777306774000
NMEA,$GNACCURACY,1.8,179.9,2.9,15.7*23,1777306774000
NMEA,$PMTKAGC,161934.000,2600,2894,5379,5684,0,0,0,6,116,0*79,1777306774000
NMEA,$PMTKTSX1,1498564,12634.870,31.154,31.352,6e180000,1.273471,1.263487,-0.351411,-0.327304,3.509599,1.257,2.0*3F,1777306774000
NMEA,$PMTKERT,952999363,1498564,952999267,0000*77,1777306774000
NMEA,$PMTKMPE1,1272.4,0.947,41.4010264,2.1577413,107.25,-0.00,-0.00,0.00,0.00,0.00,-134.80,0.00,4,6,0,1*42,1777306774000
NMEA,$PMTKMPE2,UDR_v6.2.0_2021_04_13,PDR_v6.2.0_2021_04_13*6D,1777306774000
NMEA,$PMTKLCPOS1,20260427161934.000,41.401026,2.157743,107.2,3,41.401026,2.157741,107.2,0*4C,1777306774000
NMEA,$PMTKLCPOS2,20260427161934.000,41.401026,2.157741,107.2,1,2416,145192.001,18*53,1777306774000
NMEA,$GNGGA,161935.000,4124.0616,N,00209.4645,E,1,16,1.04,56.0,M,51.3,M,,*47,1777306775000
NMEA,$GNGSA,A,3,03,17,04,19,01,,,,,,,,1.30,1.04,0.77,1*0E,1777306775000
NMEA,$GNGSA,A,3,72,87,86,88,,,,,,,,,1.30,1.04,0.77,2*01,1777306775000
NMEA,$GNGSA,A,3,36,,,,,,,,,,,,1.30,1.04,0.77,3*01,1777306775000
NMEA,$GNGSA,A,3,20,30,12,11,29,35,,,,,,,1.30,1.04,0.77,4*0C,1777306775000
NMEA,$GNGSA,A,3,,,,,,,,,,,,,1.30,1.04,0.77,5*02,1777306775000
NMEA,$GPGSV,3,1,12,03,71,008,26.6,01,60,104,19.5,04,53,179,17.8,17,50,277,18.2,1*6C,1777306775000
NMEA,$GPGSV,3,2,12,49,42,175,,02,31,123,,19,30,309,20.9,09,24,203,,1*74,1777306775000
NMEA,$GPGSV,3,3,12,31,18,085,,28,14,056,,06,12,305,,22,05,259,,1*65,1777306775000
NMEA,$GLGSV,3,1,9,65,62,226,,72,59,031,18.5,88,55,328,27.0,87,52,128,18.8,1*55,1777306775000
NMEA,$GLGSV,3,2,9,86,13,136,17.9,66,12,217,,71,08,035,,80,02,359,,1*53,1777306775000
NMEA,$GLGSV,3,3,9,81,02,322,,1*79,1777306775000
NMEA,$GAGSV,3,1,12,36,67,078,17.9,09,55,076,,34,50,313,,05,47,172,,7*61,1777306775000
NMEA,$GAGSV,3,2,12,06,35,052,,11,20,107,,04,13,038,,30,13,275,,7*7E,1777306775000
NMEA,$GAGSV,3,3,12,27,06,321,,03,04,201,,02,04,226,,15,02,297,,7*7D,1777306775000
NMEA,$GBGSV,4,1,14,20,88,005,35.6,29,76,225,19.4,12,69,232,22.7,11,62,163,18.6,1*75,1777306775000
NMEA,$GBGSV,4,2,14,57,51,065,,19,40,230,,30,33,151,14.3,35,31,311,15.7,1*79,1777306775000
NMEA,$GBGSV,4,3,14,32,29,048,,05,19,111,,07,13,048,,10,13,057,,1*76,1777306775000
NMEA,$GBGSV,4,4,14,02,02,097,,60,02,097,,1*77,1777306775000
NMEA,$GNRMC,161935.000,A,4124.0616,N,00209.4645,E,0.000,225.20,270426,,,A,V*3B,1777306775000
NMEA,$GNVTG,225.20,T,,M,0.000,N,0.000,K,A*24,1777306775000
NMEA,$GNACCURACY,1.8,179.9,2.8,15.9*2C,1777306775000
NMEA,$PMTKAGC,161935.000,2399,2292,5420,5498,0,0,0,6,116,0*75,1777306775000
NMEA,$PMTKTSX1,1499564,12698.027,31.024,31.333,6e260000,1.280427,1.269803,-0.639684,-0.327304,3.509599,1.257,2.0*3E,1777306775000
NMEA,$PMTKERT,953000364,1499564,953000266,0000*70,1777306775000
NMEA,$PMTKMPE1,1273.4,0.944,41.4010260,2.1577428,107.23,-0.00,-0.00,0.00,0.00,0.00,-134.80,0.00,4,6,0,1*4A,1777306775000
NMEA,$PMTKMPE2,UDR_v6.2.0_2021_04_13,PDR_v6.2.0_2021_04_13*6D,1777306775000
NMEA,$PMTKLCPOS1,20260427161935.000,41.401025,2.157746,107.2,3,41.401026,2.157743,107.2,0*49,1777306775000
NMEA,$PMTKLCPOS2,20260427161935.000,41.401026,2.157741,107.2,1,2416,145193.001,18*53,1777306775000
NMEA,$GNGGA,161936.000,4124.0616,N,00209.4645,E,1,16,1.04,56.0,M,51.3,M,,*44,1777306776000
NMEA,$GNGSA,A,3,03,17,04,19,01,,,,,,,,1.30,1.04,0.77,1*0E,1777306776000
NMEA,$GNGSA,A,3,72,87,86,88,,,,,,,,,1.30,1.04,0.77,2*01,1777306776000
NMEA,$GNGSA,A,3,36,,,,,,,,,,,,1.30,1.04,0.77,3*01,1777306776000
NMEA,$GNGSA,A,3,20,30,12,11,29,35,,,,,,,1.30,1.04,0.77,4*0C,1777306776000
NMEA,$GNGSA,A,3,,,,,,,,,,,,,1.30,1.04,0.77,5*02,1777306776000
NMEA,$GPGSV,3,1,12,03,71,008,27.3,01,60,104,19.5,04,53,179,17.8,17,50,277,18.1,1*6B,1777306776000
NMEA,$GPGSV,3,2,12,49,42,175,,02,31,123,,19,30,309,20.9,09,24,203,,1*74,1777306776000
NMEA,$GPGSV,3,3,12,31,18,085,,28,14,056,,06,12,305,,22,05,259,,1*65,1777306776000
NMEA,$GLGSV,3,1,9,65,62,226,,72,59,031,18.4,88,55,328,25.0,87,52,128,18.8,1*56,1777306776000
NMEA,$GLGSV,3,2,9,86,13,136,17.9,66,12,217,,71,08,035,,80,02,359,,1*53,1777306776000
NMEA,$GLGSV,3,3,9,81,02,322,,1*79,1777306776000
NMEA,$GAGSV,3,1,12,36,67,078,18.0,09,55,076,,34,50,313,,05,47,172,,7*67,1777306776000
NMEA,$GAGSV,3,2,12,06,35,052,,11,19,108,,04,13,038,,30,13,275,,7*7B,1777306776000
NMEA,$GAGSV,3,3,12,27,06,321,,03,04,201,,02,04,226,,15,02,297,,7*7D,1777306776000
NMEA,$GBGSV,4,1,14,20,88,005,35.6,29,76,225,16.6,12,69,232,22.7,11,62,163,18.6,1*78,1777306776000
NMEA,$GBGSV,4,2,14,57,51,065,,19,40,230,,30,33,151,14.3,35,31,311,15.6,1*78,1777306776000
NMEA,$GBGSV,4,3,14,32,29,048,,05,19,111,,07,13,048,,10,13,057,,1*76,1777306776000
NMEA,$GBGSV,4,4,14,02,02,097,,60,02,097,,1*77,1777306776000
NMEA,$GNRMC,161936.000,A,4124.0616,N,00209.4645,E,0.000,225.20,270426,,,A,V*38,1777306776000
NMEA,$GNVTG,225.20,T,,M,0.000,N,0.000,K,A*24,1777306776000
NMEA,$GNACCURACY,1.8,179.9,2.8,16.0*26,1777306776000
NMEA,$PMTKAGC,161936.000,2200,2220,5490,5644,0,0,0,6,116,0*76,1777306776000
NMEA,$PMTKTSX1,1500564,12766.841,31.057,31.308,6e380000,1.286750,1.276684,0.558321,-0.327304,3.509599,1.266,2.0*1F,1777306776000
NMEA,$PMTKERT,953001367,1500564,953001268,0000*7C,1777306776000
NMEA,$PMTKMPE1,1274.4,0.956,41.4010252,2.1577461,107.24,-0.00,-0.00,0.00,0.00,0.00,-134.80,0.00,4,6,0,1*45,1777306776000
NMEA,$PMTKMPE2,UDR_v6.2.0_2021_04_13,PDR_v6.2.0_2021_04_13*6D,1777306776000
NMEA,$PMTKLCPOS1,20260427161936.000,41.401024,2.157749,107.4,3,41.401025,2.157746,107.2,0*44,1777306776000
NMEA,$PMTKLCPOS2,20260427161936.000,41.401026,2.157741,107.2,1,2416,145194.001,18*57,1777306776000
NMEA,$GNGGA,161937.000,4124.0616,N,00209.4645,E,1,16,1.04,56.0,M,51.3,M,,*45,1777306777000
NMEA,$GNGSA,A,3,03,17,04,19,01,,,,,,,,1.30,1.04,0.77,1*0E,1777306777000
NMEA,$GNGSA,A,3,72,87,86,88,,,,,,,,,1.30,1.04,0.77,2*01,1777306777000
NMEA,$GNGSA,A,3,36,,,,,,,,,,,,1.30,1.04,0.77,3*01,1777306777000
NMEA,$GNGSA,A,3,20,30,12,11,29,35,,,,,,,1.30,1.04,0.77,4*0C,1777306777000
NMEA,$GNGSA,A,3,,,,,,,,,,,,,1.30,1.04,0.77,5*02,1777306777000
NMEA,$GPGSV,3,1,12,03,71,008,25.7,01,60,104,19.5,04,53,179,17.8,17,50,277,18.0,1*6C,1777306777000
NMEA,$GPGSV,3,2,12,49,42,175,,02,31,123,,19,30,309,20.8,09,24,203,,1*75,1777306777000
NMEA,$GPGSV,3,3,12,31,18,085,,28,14,056,,06,12,305,,22,05,259,,1*65,1777306777000
NMEA,$GLGSV,3,1,9,65,62,226,,72,59,031,18.4,88,55,328,24.6,87,52,128,18.7,1*5E,1777306777000
NMEA,$GLGSV,3,2,9,86,13,136,17.8,66,12,217,,71,08,035,,80,02,359,,1*52,1777306777000
NMEA,$GLGSV,3,3,9,81,02,322,,1*79,1777306777000
NMEA,$GAGSV,3,1,12,36,67,078,18.1,09,55,076,,34,50,313,,05,47,172,,7*66,1777306777000
NMEA,$GAGSV,3,2,12,06,35,052,,11,19,108,,04,13,038,,30,13,275,,7*7B,1777306777000
NMEA,$GAGSV,3,3,12,27,06,321,,03,04,201,,02,04,226,,15,02,297,,7*7D,1777306777000
NMEA,$GBGSV,4,1,14,20,88,005,35.7,29,76,225,16.6,12,69,232,22.8,11,62,163,18.6,1*76,1777306777000
NMEA,$GBGSV,4,2,14,57,51,065,,19,40,230,,30,33,151,14.3,35,31,311,15.6,1*78,1777306777000
NMEA,$GBGSV,4,3,14,32,29,048,,05,19,111,,07,13,048,,10,13,057,,1*76,1777306777000
NMEA,$GBGSV,4,4,14,02,02,097,,60,02,097,,1*77,1777306777000
NMEA,$GNRMC,161937.000,A,4124.0616,N,00209.4645,E,0.000,225.20,270426,,,A,V*39,1777306777000
NMEA,$GNVTG,225.20,T,,M,0.000,N,0.000,K,A*24,1777306777000
NMEA,$GNACCURACY,1.8,179.9,2.8,16.3*25,1777306777000
NMEA,$PMTKAGC,161937.000,2353,2331,5468,5543,0,0,0,6,116,0*72,1777306777000
NMEA,$PMTKTSX1,1501564,12710.729,31.186,31.311,6e360000,1.281691,1.271073,-0.552696,-0.327304,3.509599,1.275,2.0*3B,1777306777000
NMEA,$PMTKERT,953002352,1501564,953002265,0000*76,1777306777000
NMEA,$PMTKMPE1,1275.4,0.947,41.4010239,2.1577487,107.36,-0.00,-0.00,0.00,0.00,0.00,-134.80,0.00,4,6,0,1*42,1777306777000
NMEA,$PMTKMPE2,UDR_v6.2.0_2021_04_13,PDR_v6.2.0_2021_04_13*6D,1777306777000
NMEA,$PMTKLCPOS1,20260427161937.000,41.401024,2.157752,107.3,3,41.401024,2.157749,107.4,0*40,1777306777000
NMEA,$PMTKLCPOS2,20260427161937.000,41.401026,2.157741,107.2,1,2416,145195.001,18*57,1777306777000
NMEA,$GNGGA,161938.000,4124.0616,N,00209.4645,E,1,16,1.04,56.0,M,51.3,M,,*4A,1777306778000
NMEA,$GNGSA,A,3,03,17,04,19,01,,,,,,,,1.30,1.04,0.77,1*0E,1777306778000
NMEA,$GNGSA,A,3,72,87,86,88,,,,,,,,,1.30,1.04,0.77,2*01,1777306778000
NMEA,$GNGSA,A,3,36,,,,,,,,,,,,1.30,1.04,0.77,3*01,1777306778000
NMEA,$GNGSA,A,3,20,30,12,11,29,35,,,,,,,1.30,1.04,0.77,4*0C,1777306778000
NMEA,$GNGSA,A,3,,,,,,,,,,,,,1.30,1.04,0.77,5*02,1777306778000
NMEA,$GPGSV,3,1,12,03,71,008,23.8,01,60,104,22.7,04,53,179,17.8,17,50,277,13.5,1*61,1777306778000
NMEA,$GPGSV,3,2,12,49,42,175,,02,31,123,,19,30,309,20.7,09,24,203,,1*7A,1777306778000
NMEA,$GPGSV,3,3,12,31,18,085,,28,14,056,,06,12,305,,22,05,259,,1*65,1777306778000
NMEA,$GLGSV,3,1,9,65,62,226,,72,59,031,18.4,88,55,328,29.8,87,52,128,18.8,1*52,1777306778000
NMEA,$GLGSV,3,2,9,86,13,136,17.9,66,12,217,,71,08,035,,80,02,359,,1*53,1777306778000
NMEA,$GLGSV,3,3,9,81,02,322,,1*79,1777306778000
NMEA,$GAGSV,3,1,12,36,67,078,18.2,09,55,076,,34,50,313,,05,47,172,,7*65,1777306778000
NMEA,$GAGSV,3,2,12,06,35,052,,11,19,108,,04,13,038,,30,13,275,,7*7B,1777306778000
NMEA,$GAGSV,3,3,12,27,06,321,,03,04,201,,02,04,226,,15,02,297,,7*7D,1777306778000
NMEA,$GBGSV,4,1,14,20,88,005,35.5,29,76,225,16.6,12,69,232,22.8,11,62,163,18.6,1*74,1777306778000
NMEA,$GBGSV,4,2,14,57,51,065,,19,40,230,,30,33,151,12.1,35,31,311,15.5,1*7F,1777306778000
NMEA,$GBGSV,4,3,14,32,29,048,,05,19,111,,07,13,048,,10,13,057,,1*76,1777306778000
NMEA,$GBGSV,4,4,14,02,02,097,,60,02,097,,1*77,1777306778000
NMEA,$GNRMC,161938.000,A,4124.0616,N,00209.4645,E,0.000,225.20,270426,,,A,V*36,1777306778000
NMEA,$GNVTG,225.20,T,,M,0.000,N,0.000,K,A*24,1777306778000
NMEA,$GNACCURACY,1.8,179.9,3.1,15.8*25,1777306778000
NMEA,$PMTKAGC,161938.000,2248,2173,5406,5612,0,0,0,6,116,0*7D,1777306778000
NMEA,$PMTKTSX1,1502564,12532.829,31.186,31.374,6e080000,1.263987,1.253283,-0.085394,-0.327304,3.509599,1.275,2.0*3A,1777306778000
NMEA,$PMTKERT,953003354,1502564,953003264,0000*72,1777306778000
NMEA,$PMTKMPE1,1276.4,0.942,41.4010237,2.1577516,107.26,-0.00,-0.00,0.00,0.00,0.00,-134.80,0.00,4,6,0,1*42,1777306778000
NMEA,$PMTKMPE2,UDR_v6.2.0_2021_04_13,PDR_v6.2.0_2021_04_13*6D,1777306778000
NMEA,$PMTKLCPOS1,20260427161938.000,41.401024,2.157754,107.3,3,41.401024,2.157752,107.3,0*44,1777306778000
NMEA,$PMTKLCPOS2,20260427161938.000,41.401026,2.157741,107.2,1,2416,145196.001,18*5B,1777306778000
NMEA,$GNGGA,161939.000,4124.0616,N,00209.4645,E,1,16,1.04,56.0,M,51.3,M,,*4B,1777306779000
NMEA,$GNGSA,A,3,03,17,04,19,01,,,,,,,,1.30,1.04,0.77,1*0E,1777306779000
NMEA,$GNGSA,A,3,72,87,86,88,,,,,,,,,1.30,1.04,0.77,2*01,1777306779000
NMEA,$GNGSA,A,3,36,,,,,,,,,,,,1.30,1.04,0.77,3*01,1777306779000
NMEA,$GNGSA,A,3,20,30,12,11,29,35,,,,,,,1.30,1.04,0.77,4*0C,1777306779000
NMEA,$GNGSA,A,3,,,,,,,,,,,,,1.30,1.04,0.77,5*02,1777306779000
NMEA,$GPGSV,3,1,12,03,71,008,23.8,01,60,104,20.0,04,53,179,17.8,17,50,277,13.5,1*64,1777306779000
NMEA,$GPGSV,3,2,12,49,42,175,,02,31,123,,19,30,309,20.7,09,24,203,,1*7A,1777306779000
NMEA,$GPGSV,3,3,12,31,18,085,,28,14,056,,06,12,305,,22,05,259,,1*65,1777306779000
NMEA,$GLGSV,3,1,9,65,62,226,,72,59,031,18.4,88,55,328,31.2,87,52,128,18.8,1*51,1777306779000
NMEA,$GLGSV,3,2,9,86,13,136,18.0,66,12,217,,71,08,035,,80,02,359,,1*55,1777306779000
NMEA,$GLGSV,3,3,9,81,02,322,,1*79,1777306779000
NMEA,$GAGSV,3,1,12,36,67,078,18.1,09,55,076,,34,50,313,,05,47,172,,7*66,1777306779000
NMEA,$GAGSV,3,2,12,06,35,052,,11,19,108,,04,13,038,,30,13,275,,7*7B,1777306779000
NMEA,$GAGSV,3,3,12,27,06,321,,03,04,201,,02,04,226,,15,02,297,,7*7D,1777306779000
NMEA,$GBGSV,4,1,14,20,88,005,35.5,29,76,225,16.6,12,69,232,22.6,11,62,163,18.7,1*7B,1777306779000
NMEA,$GBGSV,4,2,14,57,51,065,,19,40,230,,30,33,151,12.1,35,31,311,20.0,1*7C,1777306779000
NMEA,$GBGSV,4,3,14,32,29,048,,05,19,111,,07,13,048,,10,13,057,,1*76,1777306779000
NMEA,$GBGSV,4,4,14,02,02,097,,60,02,097,,1*77,1777306779000
NMEA,$GNRMC,161939.000,A,4124.0616,N,00209.4645,E,0.000,225.20,270426,,,A,V*37,1777306779000
NMEA,$GNVTG,225.20,T,,M,0.000,N,0.000,K,A*24,1777306779000
NMEA,$GNACCURACY,1.8,179.9,2.9,15.1*25,1777306779000
NMEA,$PMTKAGC,161939.000,2670,2843,5699,5494,0,0,0,6,116,0*71,1777306779000
NMEA,$PMTKTSX1,1503564,12570.441,31.121,31.374,6e080000,1.266516,1.257044,1.232023,-0.327304,3.509599,1.244,2.0*11,1777306779000
NMEA,$PMTKERT,953004350,1503564,953004266,0000*75,1777306779000
NMEA,$PMTKMPE1,1277.4,0.957,41.4010236,2.1577536,107.33,-0.00,-0.00,0.00,0.00,0.00,-134.80,0.00,4,6,0,1*40,1777306779000
NMEA,$PMTKMPE2,UDR_v6.2.0_2021_04_13,PDR_v6.2.0_2021_04_13*6D,1777306779000
NMEA,$PMTKLCPOS1,20260427161939.000,41.401022,2.157754,107.4,3,41.401024,2.157754,107.3,0*42,1777306779000
NMEA,$PMTKLCPOS2,20260427161939.000,41.401026,2.157741,107.2,1,2416,145197.001,18*5B,1777306779000
NMEA,$GNGGA,161940.000,4124.0616,N,00209.4645,E,1,16,1.04,56.0,M,51.3,M,,*45,1777306780000
NMEA,$GNGSA,A,3,03,17,04,19,01,,,,,,,,1.30,1.04,0.77,1*0E,1777306780000
NMEA,$GNGSA,A,3,72,87,86,88,,,,,,,,,1.30,1.04,0.77,2*01,1777306780000
NMEA,$GNGSA,A,3,36,,,,,,,,,,,,1.30,1.04,0.77,3*01,1777306780000
NMEA,$GNGSA,A,3,20,30,12,11,29,35,,,,,,,1.30,1.04,0.77,4*0C,1777306780000
NMEA,$GNGSA,A,3,,,,,,,,,,,,,1.30,1.04,0.77,5*02,1777306780000
NMEA,$GPGSV,3,1,12,03,71,008,23.7,01,60,104,20.1,04,53,179,17.8,17,50,277,13.5,1*6A,1777306780000
NMEA,$GPGSV,3,2,12,49,42,175,,02,31,123,,19,30,309,20.7,09,24,203,,1*7A,1777306780000
NMEA,$GPGSV,3,3,12,31,18,085,,28,14,056,,06,12,305,,22,05,259,,1*65,1777306780000
NMEA,$GLGSV,3,1,9,65,62,226,,72,59,031,18.3,88,55,328,27.0,87,52,128,18.8,1*53,1777306780000
NMEA,$GLGSV,3,2,9,86,13,136,21.5,66,12,217,,71,08,035,,80,02,359,,1*5A,1777306780000
NMEA,$GLGSV,3,3,9,81,02,322,,1*79,1777306780000
NMEA,$GAGSV,3,1,12,36,67,078,18.2,09,55,076,,34,50,313,,05,47,172,,7*65,1777306780000
NMEA,$GAGSV,3,2,12,06,35,052,,11,19,108,,04,13,038,,30,13,275,,7*7B,1777306780000
NMEA,$GAGSV,3,3,12,27,06,321,,03,04,201,,02,04,226,,15,03,298,,7*73,1777306780000
NMEA,$GBGSV,4,1,14,20,88,005,35.4,29,76,225,16.5,12,69,232,22.7,11,62,163,18.7,1*78,1777306780000
NMEA,$GBGSV,4,2,14,57,51,065,,19,40,230,,30,33,151,12.1,35,31,311,20.0,1*7C,1777306780000
NMEA,$GBGSV,4,3,14,32,29,048,,05,19,111,,07,13,048,,10,13,057,,1*76,1777306780000
NMEA,$GBGSV,4,4,14,02,02,097,,60,02,097,,1*77,1777306780000
NMEA,$GNRMC,161940.000,A,4124.0616,N,00209.4645,E,0.000,225.20,270426,,,A,V*39,1777306780000
NMEA,$GNVTG,225.20,T,,M,0.000,N,0.000,K,A*24,1777306780000
NMEA,$GNACCURACY,1.8,179.9,2.8,14.9*2D,1777306780000
NMEA,$PMTKAGC,161940.000,2382,2251,5560,5541,0,0,0,6,116,0*72,1777306780000
NMEA,$PMTKTSX1,1504564,12654.102,31.121,31.349,6e1a0000,1.274104,1.265410,0.778366,-0.327304,3.509599,1.244,2.0*4F,1777306780000
NMEA,$PMTKERT,953005356,1504564,953005266,0000*74,1777306780000
NMEA,$PMTKMPE1,1278.4,0.948,41.4010224,2.1577540,107.43,-0.00,-0.00,0.00,0.00,0.00,-134.80,0.00,4,6,0,1*44,1777306780000
NMEA,$PMTKMPE2,UDR_v6.2.0_2021_04_13,PDR_v6.2.0_2021_04_13*6D,1777306780000
NMEA,$PMTKLCPOS1,20260427161940.000,41.401021,2.157756,107.4,3,41.401022,2.157754,107.4,0*4C,1777306780000
NMEA,$PMTKLCPOS2,20260427161940.000,41.401026,2.157741,107.2,1,2416,145198.001,18*5A,1777306780000
NMEA,$GNGGA,161941.000,4124.0616,N,00209.4645,E,1,15,1.07,56.0,M,51.3,M,,*44,1777306781000
NMEA,$GNGSA,A,3,03,17,04,19,01,,,,,,,,1.33,1.07,0.78,1*01,1777306781000
NMEA,$GNGSA,A,3,72,87,86,88,,,,,,,,,1.33,1.07,0.78,2*0E,1777306781000
NMEA,$GNGSA,A,3,36,,,,,,,,,,,,1.33,1.07,0.78,3*0E,1777306781000
NMEA,$GNGSA,A,3,20,12,11,29,35,,,,,,,,1.33,1.07,0.78,4*00,1777306781000
NMEA,$GNGSA,A,3,,,,,,,,,,,,,1.33,1.07,0.78,5*0D,1777306781000
NMEA,$GPGSV,3,1,12,03,71,008,23.7,01,60,104,22.7,04,53,179,17.9,17,50,277,16.5,1*6A,1777306781000
NMEA,$GPGSV,3,2,12,49,42,175,,02,31,123,,19,30,309,20.7,09,24,203,,1*7A,1777306781000
NMEA,$GPGSV,3,3,12,31,18,085,,28,14,056,,06,12,305,,22,05,259,,1*65,1777306781000
NMEA,$GLGSV,3,1,9,65,62,226,,72,59,031,18.3,88,55,328,29.3,87,52,128,18.8,1*5E,1777306781000
NMEA,$GLGSV,3,2,9,86,13,136,21.5,66,12,217,,71,08,035,,80,02,359,,1*5A,1777306781000
NMEA,$GLGSV,3,3,9,81,02,322,,1*79,1777306781000
NMEA,$GAGSV,3,1,12,36,67,078,18.3,09,55,076,,34,50,313,,05,47,172,,7*64,1777306781000
NMEA,$GAGSV,3,2,12,06,35,052,,11,19,108,,04,13,038,,30,13,275,,7*7B,1777306781000
NMEA,$GAGSV,3,3,12,27,06,321,,03,04,201,,02,04,226,,15,03,298,,7*73,1777306781000
NMEA,$GBGSV,4,1,14,20,88,005,35.4,29,76,225,16.4,12,69,232,22.7,11,62,163,18.7,1*79,1777306781000
NMEA,$GBGSV,4,2,14,57,51,065,,19,40,230,,30,33,151,,35,31,311,20.0,1*60,1777306781000
NMEA,$GBGSV,4,3,14,32,29,048,,05,19,111,,07,13,048,,10,13,057,,1*76,1777306781000
NMEA,$GBGSV,4,4,14,02,02,097,,60,02,097,,1*77,1777306781000
NMEA,$GNRMC,161941.000,A,4124.0616,N,00209.4645,E,0.000,225.20,270426,,,A,V*38,1777306781000
NMEA,$GNVTG,225.20,T,,M,0.000,N,0.000,K,A*24,1777306781000
NMEA,$GNACCURACY,1.8,179.9,2.8,15.0*25,1777306781000
NMEA,$PMTKAGC,161941.000,3011,2816,5972,6010,0,0,0,6,116,0*7F,1777306781000
NMEA,$PMTKTSX1,1505564,12716.855,31.089,31.327,6e2a0000,1.281059,1.271685,-0.680147,-0.327304,3.509599,1.266,2.0*68,1777306781000
NMEA,$PMTKERT,953006344,1505564,953006267,0000*77,1777306781000
NMEA,$PMTKMPE1,1279.4,0.942,41.4010210,2.1577557,107.35,-0.00,-0.00,0.00,0.00,0.00,-134.80,0.00,4,6,0,1*4F,1777306781000
NMEA,$PMTKMPE2,UDR_v6.2.0_2021_04_13,PDR_v6.2.0_2021_04_13*6D,1777306781000
NMEA,$PMTKLCPOS1,20260427161941.000,41.401020,2.157755,107.2,3,41.401021,2.157756,107.3,0*4F,1777306781000
NMEA,$PMTKLCPOS2,20260427161941.000,41.401026,2.157741,107.2,1,2416,145199.001,18*5A,1777306781000
NMEA,$GNGGA,161942.000,4124.0616,N,00209.4645,E,1,15,1.07,56.0,M,51.3,M,,*47,1777306782000
NMEA,$GNGSA,A,3,03,17,04,19,01,,,,,,,,1.33,1.07,0.78,1*01,1777306782000
NMEA,$GNGSA,A,3,72,87,86,88,,,,,,,,,1.33,1.07,0.78,2*0E,1777306782000
NMEA,$GNGSA,A,3,36,,,,,,,,,,,,1.33,1.07,0.78,3*0E,1777306782000
NMEA,$GNGSA,A,3,20,12,11,29,35,,,,,,,,1.33,1.07,0.78,4*00,1777306782000
NMEA,$GNGSA,A,3,,,,,,,,,,,,,1.33,1.07,0.78,5*0D,1777306782000
NMEA,$GPGSV,3,1,12,03,71,008,23.7,01,60,104,22.6,04,53,179,18.0,17,50,277,16.5,1*6D,1777306782000
NMEA,$GPGSV,3,2,12,49,42,175,,02,31,123,,19,30,309,20.6,09,24,203,,1*7B,1777306782000
NMEA,$GPGSV,3,3,12,31,18,085,,28,14,056,,06,12,305,,22,05,259,,1*65,1777306782000
NMEA,$GLGSV,3,1,9,65,62,226,,72,59,031,18.2,88,55,328,27.1,87,52,128,18.8,1*53,1777306782000
NMEA,$GLGSV,3,2,9,86,13,136,21.4,66,12,217,,71,08,035,,80,02,359,,1*5B,1777306782000
NMEA,$GLGSV,3,3,9,81,02,322,,1*79,1777306782000
NMEA,$GAGSV,3,1,12,36,67,078,18.3,09,55,076,,34,50,313,,05,47,172,,7*64,1777306782000
NMEA,$GAGSV,3,2,12,06,35,052,,11,19,108,,04,13,038,,30,13,275,,7*7B,1777306782000
NMEA,$GAGSV,3,3,12,27,06,321,,03,04,201,,02,04,226,,15,03,298,,7*73,1777306782000
NMEA,$GBGSV,4,1,14,20,88,005,31.8,29,76,225,16.3,12,69,232,22.6,11,62,163,18.7,1*77,1777306782000
NMEA,$GBGSV,4,2,14,57,51,065,,19,40,230,,30,33,151,,35,31,311,20.0,1*60,1777306782000
NMEA,$GBGSV,4,3,14,32,29,048,,05,19,111,,07,13,048,,10,13,057,,1*76,1777306782000
NMEA,$GBGSV,4,4,14,02,02,097,,60,02,097,,1*77,1777306782000
NMEA,$GNRMC,161942.000,A,4124.0616,N,00209.4645,E,0.000,225.20,270426,,,A,V*3B,1777306782000
NMEA,$GNVTG,225.20,T,,M,0.000,N,0.000,K,A*24,1777306782000
NMEA,$GNACCURACY,1.7,179.9,2.7,15.3*26,1777306782000
NMEA,$PMTKAGC,161942.000,2193,2251,5422,5619,0,0,0,6,116,0*7B,1777306782000
NMEA,$PMTKTSX1,1506564,12750.283,31.121,31.313,6e340000,1.284853,1.275028,-0.451060,-0.327304,3.509599,1.266,2.0*30,1777306782000
NMEA,$PMTKERT,953007350,1506564,953007266,0000*70,1777306782000
NMEA,$PMTKMPE1,1280.4,0.952,41.4010196,2.1577550,107.20,-0.00,-0.00,0.00,0.00,0.00,-134.80,0.00,4,6,0,1*46,1777306782000
NMEA,$PMTKMPE2,UDR_v6.2.0_2021_04_13,PDR_v6.2.0_2021_04_13*6D,1777306782000
NMEA,$PMTKLCPOS1,20260427161942.000,41.401020,2.157754,107.2,3,41.401020,2.157755,107.2,0*4E,1777306782000
NMEA,$PMTKLCPOS2,20260427161942.000,41.401026,2.157741,107.2,1,2416,145200.001,18*5A,1777306782000
NMEA,$GNGGA,161943.000,4124.0616,N,00209.4645,E,1,16,1.04,56.0,M,51.3,M,,*46,1777306783000
NMEA,$GNGSA,A,3,03,17,04,19,01,,,,,,,,1.30,1.04,0.77,1*0E,1777306783000
NMEA,$GNGSA,A,3,72,87,86,88,,,,,,,,,1.30,1.04,0.77,2*01,1777306783000
NMEA,$GNGSA,A,3,36,,,,,,,,,,,,1.30,1.04,0.77,3*01,1777306783000
NMEA,$GNGSA,A,3,20,30,12,11,29,35,,,,,,,1.30,1.04,0.77,4*0C,1777306783000
NMEA,$GNGSA,A,3,,,,,,,,,,,,,1.30,1.04,0.77,5*02,1777306783000
NMEA,$GPGSV,3,1,12,03,71,008,23.6,01,60,104,22.5,04,53,179,17.9,17,50,277,13.0,1*69,1777306783000
NMEA,$GPGSV,3,2,12,36,37,149,,02,31,123,,19,30,309,17.6,09,24,203,,1*7A,1777306783000
NMEA,$GPGSV,3,3,12,31,18,085,,28,14,056,,06,12,305,,22,05,259,,1*65,1777306783000
NMEA,$GLGSV,3,1,9,65,62,226,,72,59,031,18.1,88,55,328,27.4,87,52,128,18.8,1*55,1777306783000
NMEA,$GLGSV,3,2,9,86,13,136,21.4,66,12,217,,71,08,035,,80,02,359,,1*5B,1777306783000
NMEA,$GLGSV,3,3,9,81,02,322,,1*79,1777306783000
NMEA,$GAGSV,3,1,12,36,67,078,18.3,09,55,076,,34,50,313,,05,47,172,,7*64,1777306783000
NMEA,$GAGSV,3,2,12,06,35,052,,11,19,108,,04,13,038,,30,13,275,,7*7B,1777306783000
NMEA,$GAGSV,3,3,12,27,06,321,,03,04,201,,02,04,226,,15,03,298,,7*73,1777306783000
NMEA,$GBGSV,4,1,14,20,88,005,31.8,29,76,225,16.2,12,69,232,22.5,11,62,163,18.7,1*75,1777306783000
NMEA,$GBGSV,4,2,14,57,51,065,,19,40,230,,30,33,151,13.8,35,31,311,20.0,1*74,1777306783000
NMEA,$GBGSV,4,3,14,32,29,048,,05,19,111,,07,13,048,,10,13,057,,1*76,1777306783000
NMEA,$GBGSV,4,4,14,02,02,097,,60,02,097,,1*77,1777306783000
NMEA,$GNRMC,161943.000,A,4124.0616,N,00209.4645,E,0.000,225.20,270426,,,A,V*3A,1777306783000
NMEA,$GNVTG,225.20,T,,M,0.000,N,0.000,K,A*24,1777306783000
NMEA,$GNACCURACY,1.7,179.9,2.7,15.3*26,1777306783000
NMEA,$PMTKAGC,161943.000,2206,2031,5586,5654,0,0,0,6,116,0*77,1777306783000
NMEA,$PMTKTSX1,1507564,12776.291,31.251,31.305,6e3a0000,1.287382,1.277629,0.071562,-0.327304,3.509599,1.271,2.0*4B,1777306783000
NMEA,$PMTKERT,953008370,1507564,953008271,0000*75,1777306783000
NMEA,$PMTKMPE1,1281.4,0.945,41.4010198,2.1577541,107.22,-0.00,-0.00,0.00,0.00,0.00,-134.80,0.00,4,6,0,1*4D,1777306783000
NMEA,$PMTKMPE2,UDR_v6.2.0_2021_04_13,PDR_v6.2.0_2021_04_13*6D,1777306783000
NMEA,$PMTKLCPOS1,20260427161943.000,41.401020,2.157751,107.3,3,41.401020,2.157754,107.2,0*4A,1777306783000
NMEA,$PMTKLCPOS2,20260427161943.000,41.401026,2.157741,107.2,1,2416,145201.001,18*5A,1777306783000
NMEA,$GNGGA,161944.000,4124.0616,N,00209.4645,E,1,17,1.00,56.0,M,51.3,M,,*44,1777306784000
NMEA,$GNGSA,A,3,03,17,04,19,01,,,,,,,,1.26,1.00,0.77,1*0D,1777306784000
NMEA,$GNGSA,A,3,72,87,86,88,,,,,,,,,1.26,1.00,0.77,2*02,1777306784000
NMEA,$GNGSA,A,3,05,36,,,,,,,,,,,1.26,1.00,0.77,3*07,1777306784000
NMEA,$GNGSA,A,3,20,30,12,11,29,35,,,,,,,1.26,1.00,0.77,4*0F,1777306784000
NMEA,$GNGSA,A,3,,,,,,,,,,,,,1.26,1.00,0.77,5*01,1777306784000
NMEA,$GPGSV,3,1,12,03,71,008,23.6,01,60,104,20.0,04,53,179,17.9,17,50,277,13.0,1*6E,1777306784000
NMEA,$GPGSV,3,2,12,36,37,149,,02,31,123,,19,30,309,17.6,09,24,203,,1*7A,1777306784000
NMEA,$GPGSV,3,3,12,31,18,085,,28,14,056,,06,12,305,,22,05,259,,1*65,1777306784000
NMEA,$GLGSV,3,1,9,65,62,226,,72,59,031,18.1,88,55,328,26.3,87,52,128,18.8,1*53,1777306784000
NMEA,$GLGSV,3,2,9,86,13,136,21.4,66,12,217,,71,08,035,,80,02,359,,1*5B,1777306784000
NMEA,$GLGSV,3,3,9,81,02,322,,1*79,1777306784000
NMEA,$GAGSV,3,1,12,36,67,078,18.2,09,55,076,,34,50,313,,05,47,172,12.2,7*7A,1777306784000
NMEA,$GAGSV,3,2,12,06,35,052,,11,19,108,,04,13,038,,30,13,275,,7*7B,1777306784000
NMEA,$GAGSV,3,3,12,27,06,321,,03,04,201,,02,04,226,,15,03,298,,7*73,1777306784000
NMEA,$GBGSV,4,1,14,20,88,005,31.8,29,76,225,16.2,12,69,232,17.9,11,62,163,18.7,1*7F,1777306784000
NMEA,$GBGSV,4,2,14,57,51,065,,19,40,230,,30,33,151,13.8,35,31,311,19.9,1*77,1777306784000
NMEA,$GBGSV,4,3,14,32,29,048,,05,19,111,,07,13,048,,10,13,057,,1*76,1777306784000
NMEA,$GBGSV,4,4,14,02,02,097,,60,02,097,,1*77,1777306784000
NMEA,$GNRMC,161944.000,A,4124.0616,N,00209.4645,E,0.000,225.20,270426,,,A,V*3D,1777306784000
NMEA,$GNVTG,225.20,T,,M,0.000,N,0.000,K,A*24,1777306784000
NMEA,$GNACCURACY,1.8,179.9,2.9,15.4*20,1777306784000
NMEA,$PMTKAGC,161944.000,2152,2243,5408,5548,0,0,0,6,116,0*7C,1777306784000
NMEA,$PMTKTSX1,1508564,12767.951,31.154,31.305,6e3a0000,1.287382,1.276795,-0.833938,-0.327304,3.509599,1.275,2.0*66,1777306784000
NMEA,$PMTKERT,953009369,1508564,953009267,0000*75,1777306784000
NMEA,$PMTKMPE1,1282.4,0.954,41.4010198,2.1577512,107.28,-0.00,-0.00,0.00,0.00,0.00,-134.80,0.00,4,6,0,1*42,1777306784000
NMEA,$PMTKMPE2,UDR_v6.2.0_2021_04_13,PDR_v6.2.0_2021_04_13*6D,1777306784000
NMEA,$PMTKLCPOS1,20260427161944.000,41.401020,2.157749,107.2,3,41.401020,2.157751,107.3,0*41,1777306784000
NMEA,$PMTKLCPOS2,20260427161944.000,41.401026,2.157741,107.2,1,2416,145202.001,18*5E,1777306784000
NMEA,$GNGGA,161945.000,4124.0616,N,00209.4645,E,1,17,1.00,56.0,M,51.3,M,,*45,1777306785000
NMEA,$GNGSA,A,3,03,17,04,19,01,,,,,,,,1.26,1.00,0.77,1*0D,1777306785000
NMEA,$GNGSA,A,3,72,87,86,88,,,,,,,,,1.26,1.00,0.77,2*02,1777306785000
NMEA,$GNGSA,A,3,05,36,,,,,,,,,,,1.26,1.00,0.77,3*07,1777306785000
NMEA,$GNGSA,A,3,20,30,12,11,29,35,,,,,,,1.26,1.00,0.77,4*0F,1777306785000
NMEA,$GNGSA,A,3,,,,,,,,,,,,,1.26,1.00,0.77,5*01,1777306785000
NMEA,$GPGSV,3,1,12,03,71,008,23.6,01,60,104,20.0,04,53,179,17.9,17,50,277,13.0,1*6E,1777306785000
NMEA,$GPGSV,3,2,12,36,37,149,,02,31,123,,19,30,309,17.6,09,24,203,,1*7A,1777306785000
NMEA,$GPGSV,3,3,12,31,18,085,,28,14,056,,06,12,305,,22,05,259,,1*65,1777306785000
NMEA,$GLGSV,3,1,9,65,62,226,,72,59,031,18.1,88,55,328,24.2,87,52,128,18.7,1*5F,1777306785000
NMEA,$GLGSV,3,2,9,86,13,136,21.3,66,12,217,,71,08,035,,80,02,359,,1*5C,1777306785000
NMEA,$GLGSV,3,3,9,81,02,322,,1*79,1777306785000
NMEA,$GAGSV,3,1,12,36,67,078,18.2,09,55,076,,34,50,313,,05,47,172,12.2,7*7A,1777306785000
NMEA,$GAGSV,3,2,12,06,35,052,,11,19,108,,04,13,038,,30,13,275,,7*7B,1777306785000
NMEA,$GAGSV,3,3,12,27,06,321,,03,04,201,,02,04,226,,15,03,298,,7*73,1777306785000
NMEA,$GBGSV,4,1,14,20,88,005,31.8,29,76,225,10.9,12,69,232,17.9,11,62,163,18.6,1*73,1777306785000
NMEA,$GBGSV,4,2,14,57,51,065,,19,40,230,,30,33,151,13.8,35,31,311,19.9,1*77,1777306785000
NMEA,$GBGSV,4,3,14,32,29,048,,05,19,111,,07,13,048,,10,13,057,,1*76,1777306785000
NMEA,$GBGSV,4,4,14,02,02,097,,60,02,097,,1*77,1777306785000
NMEA,$GNRMC,161945.000,A,4124.0616,N,00209.4645,E,0.000,225.20,270426,,,A,V*3C,1777306785000
NMEA,$GNVTG,225.20,T,,M,0.000,N,0.000,K,A*24,1777306785000
NMEA,$GNACCURACY,2.0,179.9,1.7,15.4*26,1777306785000
NMEA,$PMTKAGC,161945.000,2692,2733,5605,5569,0,0,0,6,116,0*78,1777306785000
NMEA,$PMTKTSX1,1509564,12745.545,31.089,31.308,6e380000,1.284853,1.274555,0.288641,-0.327304,3.509599,1.280,2.0*1F,1777306785000
NMEA,$PMTKERT,953010364,1509564,953010268,0000*76,1777306785000
NMEA,$PMTKMPE1,1283.4,0.951,41.4010200,2.1577492,107.21,-0.00,-0.00,0.00,0.00,0.00,-134.80,0.00,4,6,18,1*7D,1777306785000
NMEA,$PMTKMPE2,UDR_v6.2.0_2021_04_13,PDR_v6.2.0_2021_04_13*6D,1777306785000
NMEA,$PMTKLCPOS1,20260427161945.000,41.401019,2.157749,107.3,3,0.000000,0.000000,0.0,0*7E,1777306785000
NMEA,$PMTKLCPOS2,20260427161945.000,41.401026,2.157741,107.2,1,2416,145203.001,18*5E,1777306785000
NMEA,$GNGGA,161946.000,4124.0616,N,00209.4645,E,1,17,1.00,56.0,M,51.3,M,,*46,1777306786000
NMEA,$GNGSA,A,3,03,17,04,19,01,,,,,,,,1.26,1.00,0.77,1*0D,1777306786000
NMEA,$GNGSA,A,3,72,87,86,88,,,,,,,,,1.26,1.00,0.77,2*02,1777306786000
NMEA,$GNGSA,A,3,05,36,,,,,,,,,,,1.26,1.00,0.77,3*07,1777306786000
NMEA,$GNGSA,A,3,20,30,12,11,29,35,,,,,,,1.26,1.00,0.77,4*0F,1777306786000
NMEA,$GNGSA,A,3,,,,,,,,,,,,,1.26,1.00,0.77,5*01,1777306786000
NMEA,$GPGSV,3,1,12,03,71,008,23.6,01,60,104,20.0,04,53,179,18.0,17,50,277,12.8,1*61,1777306786000
NMEA,$GPGSV,3,2,12,36,37,149,,02,31,123,,19,30,309,17.6,09,24,203,,1*7A,1777306786000
NMEA,$GPGSV,3,3,12,31,18,085,,28,14,056,,06,12,305,,22,05,259,,1*65,1777306786000
NMEA,$GLGSV,3,1,9,65,62,226,,72,59,031,18.0,88,55,328,26.1,87,52,128,18.7,1*5F,1777306786000
NMEA,$GLGSV,3,2,9,86,13,136,21.3,66,12,217,,71,08,035,,80,02,359,,1*5C,1777306786000
NMEA,$GLGSV,3,3,9,81,02,322,,1*79,1777306786000
NMEA,$GAGSV,3,1,12,36,67,078,18.1,09,55,076,,34,50,313,,05,47,172,12.2,7*79,1777306786000
NMEA,$GAGSV,3,2,12,06,35,052,,11,19,108,,04,13,038,,30,13,275,,7*7B,1777306786000
NMEA,$GAGSV,3,3,12,27,06,321,,03,04,201,,02,04,226,,15,03,298,,7*73,1777306786000
NMEA,$GBGSV,4,1,14,20,88,005,31.8,29,76,225,10.9,12,69,232,17.9,11,62,163,18.6,1*73,1777306786000
NMEA,$GBGSV,4,2,14,57,51,065,,19,40,230,,30,33,151,13.9,35,31,311,19.8,1*77,1777306786000
NMEA,$GBGSV,4,3,14,32,29,048,,05,19,111,,07,13,048,,10,13,057,,1*76,1777306786000
NMEA,$GBGSV,4,4,14,02,02,097,,60,02,097,,1*77,1777306786000
NMEA,$GNRMC,161946.000,A,4124.0616,N,00209.4645,E,0.000,225.20,270426,,,A,V*3F,1777306786000
NMEA,$GNVTG,225.20,T,,M,0.000,N,0.000,K,A*24,1777306786000
NMEA,$GNACCURACY,2.1,179.9,1.7,15.4*27,1777306786000
NMEA,$PMTKAGC,161946.000,2729,2596,5497,5567,0,0,0,6,116,0*70,1777306786000
NMEA,$PMTKTSX1,1510564,12822.863,30.992,31.291,6e440000,1.293073,1.282286,-0.488195,-0.327304,3.509599,1.280,2.0*31,1777306786000
NMEA,$PMTKERT,953011362,1510564,953011267,0000*77,1777306786000
NMEA,$PMTKMPE1,1284.4,0.943,41.4010185,2.1577495,107.31,-0.00,-0.00,0.00,0.00,0.00,-134.80,0.00,4,6,18,1*71,1777306786000
NMEA,$PMTKMPE2,UDR_v6.2.0_2021_04_13,PDR_v6.2.0_2021_04_13*6D,1777306786000
NMEA,$PMTKLCPOS1,20260427161946.000,41.401016,2.157750,107.2,3,0.000000,0.000000,0.0,0*7B,1777306786000
NMEA,$PMTKLCPOS2,20260427161946.000,41.401026,2.157741,107.2,1,2416,145204.001,18*5A,1777306786000
NMEA,$GNGGA,161947.000,4124.0616,N,00209.4645,E,1,17,1.00,56.0,M,51.3,M,,*47,1777306787000
NMEA,$GNGSA,A,3,03,17,04,19,01,,,,,,,,1.26,1.00,0.77,1*0D,1777306787000
NMEA,$GNGSA,A,3,72,87,86,88,,,,,,,,,1.26,1.00,0.77,2*02,1777306787000
NMEA,$GNGSA,A,3,05,36,,,,,,,,,,,1.26,1.00,0.77,3*07,1777306787000
NMEA,$GNGSA,A,3,20,30,12,11,29,35,,,,,,,1.26,1.00,0.77,4*0F,1777306787000
NMEA,$GNGSA,A,3,,,,,,,,,,,,,1.26,1.00,0.77,5*01,1777306787000
NMEA,$GPGSV,3,1,12,03,71,008,23.6,01,60,104,20.0,04,53,179,18.0,17,50,277,12.8,1*61,1777306787000
NMEA,$GPGSV,3,2,12,36,37,149,,02,31,123,,19,30,309,17.7,09,24,203,,1*7B,1777306787000
NMEA,$GPGSV,3,3,12,31,18,085,,28,14,056,,06,12,305,,22,05,259,,1*65,1777306787000
NMEA,$GLGSV,3,1,9,65,62,226,,72,59,031,17.9,88,55,328,24.9,87,52,128,18.6,1*52,1777306787000
NMEA,$GLGSV,3,2,9,86,13,136,21.3,66,12,217,,71,08,035,,80,02,359,,1*5C,1777306787000
NMEA,$GLGSV,3,3,9,81,02,322,,1*79,1777306787000
NMEA,$GAGSV,3,1,12,36,67,078,18.0,09,55,076,,34,50,313,,05,47,172,12.2,7*78,1777306787000
NMEA,$GAGSV,3,2,12,06,35,052,,11,19,108,,04,13,038,,30,13,275,,7*7B,1777306787000
NMEA,$GAGSV,3,3,12,27,06,321,,03,04,201,,02,04,226,,15,03,298,,7*73,1777306787000
NMEA,$GBGSV,4,1,14,20,88,005,31.8,29,76,225,10.9,12,69,232,18.0,11,62,163,18.6,1*75,1777306787000
NMEA,$GBGSV,4,2,14,57,51,065,,19,40,230,,30,33,151,14.0,35,31,311,19.7,1*76,1777306787000
NMEA,$GBGSV,4,3,14,32,29,048,,05,19,111,,07,13,048,,10,13,057,,1*76,1777306787000
NMEA,$GBGSV,4,4,14,02,02,097,,60,02,097,,1*77,1777306787000
NMEA,$GNRMC,161947.000,A,4124.0616,N,00209.4645,E,0.000,225.20,270426,,,A,V*3E,1777306787000
NMEA,$GNVTG,225.20,T,,M,0.000,N,0.000,K,A*24,1777306787000
NMEA,$GNACCURACY,2.2,179.9,1.6,15.5*24,1777306787000
NMEA,$PMTKAGC,161947.000,2554,2660,5727,5625,0,0,0,6,116,0*7E,1777306787000
NMEA,$PMTKTSX1,1511564,12881.840,31.057,31.266,6e560000,1.299396,1.288184,-0.425442,-0.327304,3.509599,1.284,2.0*37,1777306787000
NMEA,$PMTKERT,953012337,1511564,953012262,0000*73,1777306787000
NMEA,$PMTKMPE1,1285.4,0.957,41.4010160,2.1577503,107.25,-0.00,-0.00,0.00,0.00,0.00,-134.80,0.00,4,6,18,1*75,1777306787000
NMEA,$PMTKMPE2,UDR_v6.2.0_2021_04_13,PDR_v6.2.0_2021_04_13*6D,1777306787000
NMEA,$PMTKLCPOS1,20260427161947.000,41.401014,2.157751,107.2,3,0.000000,0.000000,0.0,0*79,1777306787000
NMEA,$PMTKLCPOS2,20260427161947.000,41.401026,2.157741,107.2,1,2416,145205.001,18*5A,1777306787000
NMEA,$GNGGA,161948.000,4124.0616,N,00209.4645,E,1,17,1.00,56.0,M,51.3,M,,*48,1777306788000
NMEA,$GNGSA,A,3,03,17,04,19,01,,,,,,,,1.26,1.00,0.77,1*0D,1777306788000
NMEA,$GNGSA,A,3,72,87,86,88,,,,,,,,,1.26,1.00,0.77,2*02,1777306788000
NMEA,$GNGSA,A,3,05,36,,,,,,,,,,,1.26,1.00,0.77,3*07,1777306788000
NMEA,$GNGSA,A,3,20,30,12,11,29,35,,,,,,,1.26,1.00,0.77,4*0F,1777306788000
NMEA,$GNGSA,A,3,,,,,,,,,,,,,1.26,1.00,0.77,5*01,1777306788000
NMEA,$GPGSV,3,1,12,03,71,008,23.6,01,60,104,20.1,04,53,179,18.1,17,50,277,12.8,1*61,1777306788000
NMEA,$GPGSV,3,2,12,36,37,149,,02,31,123,,19,30,309,17.7,09,24,203,,1*7B,1777306788000
NMEA,$GPGSV,3,3,12,31,18,085,,28,14,056,,06,12,305,,22,05,259,,1*65,1777306788000
NMEA,$GLGSV,3,1,9,65,62,226,,72,59,031,17.9,88,55,328,25.6,87,52,128,18.5,1*5F,1777306788000
NMEA,$GLGSV,3,2,9,86,13,136,21.3,66,12,217,,71,08,035,,80,02,359,,1*5C,1777306788000
NMEA,$GLGSV,3,3,9,81,02,322,,1*79,1777306788000
NMEA,$GAGSV,3,1,12,36,67,078,17.9,09,55,076,,34,50,313,,05,47,172,12.2,7*7E,1777306788000
NMEA,$GAGSV,3,2,12,06,35,052,,11,19,108,,04,13,038,,30,13,275,,7*7B,1777306788000
NMEA,$GAGSV,3,3,12,27,06,321,,03,04,201,,02,04,226,,15,03,298,,7*73,1777306788000
NMEA,$GBGSV,4,1,14,20,88,005,31.7,29,76,225,15.9,12,69,232,17.9,11,62,163,18.6,1*79,1777306788000
NMEA,$GBGSV,4,2,14,57,51,065,,19,40,230,,30,33,151,13.9,35,31,311,19.6,1*79,1777306788000
NMEA,$GBGSV,4,3,14,32,29,048,,05,19,111,,07,13,048,,10,13,057,,1*76,1777306788000
NMEA,$GBGSV,4,4,14,02,02,097,,60,02,097,,1*77,1777306788000
NMEA,$GNRMC,161948.000,A,4124.0616,N,00209.4645,E,0.000,225.20,270426,,,A,V*31,1777306788000
NMEA,$GNVTG,225.20,T,,M,0.000,N,0.000,K,A*24,1777306788000
NMEA,$GNACCURACY,2.2,179.9,1.6,15.6*27,1777306788000
NMEA,$PMTKAGC,161948.000,2291,2407,5837,5531,0,0,0,6,116,0*74,1777306788000
NMEA,$PMTKTSX1,1512564,12785.758,31.218,31.288,6e460000,1.289911,1.278576,-0.123523,-0.327304,3.509599,1.284,2.0*36,1777306788000
NMEA,$PMTKERT,953013355,1512564,953013266,0000*70,1777306788000
NMEA,$PMTKMPE1,1286.4,0.953,41.4010143,2.1577507,107.25,-0.00,-0.00,0.00,0.00,0.00,-134.80,0.00,4,6,18,1*77,1777306788000
NMEA,$PMTKMPE2,UDR_v6.2.0_2021_04_13,PDR_v6.2.0_2021_04_13*6D,1777306788000
NMEA,$PMTKLCPOS1,20260427161948.000,41.401014,2.157751,107.3,3,0.000000,0.000000,0.0,0*77,1777306788000
NMEA,$PMTKLCPOS2,20260427161948.000,41.401026,2.157741,107.2,1,2416,145206.001,18*56,1777306788000
NMEA,$GNGGA,161949.000,4124.0616,N,00209.4645,E,1,17,1.00,56.0,M,51.3,M,,*49,1777306789000
NMEA,$GNGSA,A,3,03,17,04,19,01,,,,,,,,1.26,1.00,0.77,1*0D,1777306789000
NMEA,$GNGSA,A,3,72,87,86,88,,,,,,,,,1.26,1.00,0.77,2*02,1777306789000
NMEA,$GNGSA,A,3,05,36,,,,,,,,,,,1.26,1.00,0.77,3*07,1777306789000
NMEA,$GNGSA,A,3,20,30,12,11,29,35,,,,,,,1.26,1.00,0.77,4*0F,1777306789000
NMEA,$GNGSA,A,3,,,,,,,,,,,,,1.26,1.00,0.77,5*01,1777306789000
NMEA,$GPGSV,3,1,12,03,71,008,23.5,01,60,104,20.1,04,53,179,18.1,17,50,277,14.2,1*6E,1777306789000
NMEA,$GPGSV,3,2,12,36,37,149,,02,31,123,,19,30,309,17.7,09,24,203,,1*7B,1777306789000
NMEA,$GPGSV,3,3,12,31,18,085,,28,14,056,,06,12,305,,22,05,259,,1*65,1777306789000
NMEA,$GLGSV,3,1,9,65,62,226,,72,59,031,17.8,88,55,328,25.1,87,52,128,18.4,1*58,1777306789000
NMEA,$GLGSV,3,2,9,86,13,136,21.3,66,12,217,,71,08,035,,80,02,359,,1*5C,1777306789000
NMEA,$GLGSV,3,3,9,81,02,322,,1*79,1777306789000
NMEA,$GAGSV,3,1,12,36,67,078,17.9,09,55,076,,34,50,313,,05,47,172,12.2,7*7E,1777306789000
NMEA,$GAGSV,3,2,12,06,35,052,,11,19,108,,04,13,038,,30,13,275,,7*7B,1777306789000
NMEA,$GAGSV,3,3,12,27,06,321,,03,04,201,,02,04,226,,15,03,298,,7*73,1777306789000
NMEA,$GBGSV,4,1,14,20,88,005,31.7,29,76,225,15.9,12,69,232,17.9,11,62,163,18.6,1*79,1777306789000
NMEA,$GBGSV,4,2,14,57,51,065,,19,40,230,,30,33,151,13.9,35,31,311,19.6,1*79,1777306789000
NMEA,$GBGSV,4,3,14,32,29,048,,05,19,111,,07,13,048,,10,13,057,,1*76,1777306789000
NMEA,$GBGSV,4,4,14,02,02,097,,60,02,097,,1*77,1777306789000
NMEA,$GNRMC,161949.000,A,4124.0616,N,00209.4645,E,0.000,225.20,270426,,,A,V*30,1777306789000
NMEA,$GNVTG,225.20,T,,M,0.000,N,0.000,K,A*24,1777306789000
NMEA,$GNACCURACY,2.3,179.9,1.7,15.5*24,1777306789000
NMEA,$PMTKAGC,161949.000,2172,2292,5599,5566,0,0,0,6,116,0*7A,1777306789000
NMEA,$PMTKTSX1,1513564,12656.568,31.283,31.330,6e280000,1.277265,1.265657,-0.272826,-0.327304,3.509599,1.280,2.0*3F,1777306789000
NMEA,$PMTKERT,953014336,1513564,953014262,0000*70,1777306789000
NMEA,$PMTKMPE1,1287.4,0.942,41.4010137,2.1577507,107.26,-0.00,-0.00,0.00,0.00,0.00,-134.80,0.00,4,6,18,1*76,1777306789000
NMEA,$PMTKMPE2,UDR_v6.2.0_2021_04_13,PDR_v6.2.0_2021_04_13*6D,1777306789000
NMEA,$PMTKLCPOS1,20260427161949.000,41.401012,2.157751,107.2,3,0.000000,0.000000,0.0,0*71,1777306789000
NMEA,$PMTKLCPOS2,20260427161949.000,41.401026,2.157741,107.2,1,2416,145207.001,18*56,1777306789000
NMEA,$GNGGA,161950.000,4124.0616,N,00209.4645,E,1,17,1.00,56.0,M,51.3,M,,*41,1777306790000
NMEA,$GNGSA,A,3,03,17,04,19,01,,,,,,,,1.26,1.00,0.77,1*0D,1777306790000
NMEA,$GNGSA,A,3,72,87,86,88,,,,,,,,,1.26,1.00,0.77,2*02,1777306790000
NMEA,$GNGSA,A,3,05,36,,,,,,,,,,,1.26,1.00,0.77,3*07,1777306790000
NMEA,$GNGSA,A,3,20,30,12,11,29,35,,,,,,,1.26,1.00,0.77,4*0F,1777306790000
NMEA,$GNGSA,A,3,,,,,,,,,,,,,1.26,1.00,0.77,5*01,1777306790000
NMEA,$GPGSV,3,1,12,03,71,008,23.5,01,60,104,20.1,04,53,179,18.0,17,50,277,14.2,1*6F,1777306790000
NMEA,$GPGSV,3,2,12,36,37,149,,02,31,123,,19,30,309,17.7,09,24,203,,1*7B,1777306790000
NMEA,$GPGSV,3,3,12,31,18,085,,28,14,056,,06,12,305,,22,05,259,,1*65,1777306790000
NMEA,$GLGSV,3,1,9,65,62,226,,72,59,031,17.8,88,55,328,26.1,87,52,128,18.3,1*5C,1777306790000
NMEA,$GLGSV,3,2,9,86,13,136,21.2,66,12,217,,71,08,035,,80,02,359,,1*5D,1777306790000
NMEA,$GLGSV,3,3,9,81,02,322,,1*79,1777306790000
NMEA,$GAGSV,3,1,12,36,67,078,17.9,09,55,076,,34,50,313,,05,47,172,12.2,7*7E,1777306790000
NMEA,$GAGSV,3,2,12,06,35,052,,11,19,108,,04,13,038,,30,13,275,,7*7B,1777306790000
NMEA,$GAGSV,3,3,12,27,06,321,,03,04,201,,02,04,226,,15,03,298,,7*73,1777306790000
NMEA,$GBGSV,4,1,14,20,88,005,31.7,29,76,225,15.9,12,69,232,18.0,11,62,163,18.6,1*7F,1777306790000
NMEA,$GBGSV,4,2,14,57,51,065,,19,40,230,,30,33,151,13.9,35,31,311,19.6,1*79,1777306790000
NMEA,$GBGSV,4,3,14,32,29,048,,05,19,111,,07,13,048,,10,13,057,,1*76,1777306790000
NMEA,$GBGSV,4,4,14,02,02,097,,60,02,097,,1*77,1777306790000
NMEA,$GNRMC,161950.000,A,4124.0616,N,00209.4645,E,0.000,225.20,270426,,,A,V*38,1777306790000
NMEA,$GNVTG,225.20,T,,M,0.000,N,0.000,K,A*24,1777306790000
NMEA,$GNACCURACY,2.3,179.9,1.7,15.6*27,1777306790000
NMEA,$PMTKAGC,161950.000,2175,2174,5622,5702,0,0,0,6,116,0*7D,1777306790000
NMEA,$PMTKTSX1,1514564,12571.627,31.283,31.360,6e120000,1.268413,1.257163,0.358249,-0.327304,3.509599,1.280,2.0*15,1777306790000
NMEA,$PMTKERT,953015363,1514564,953015266,0000*73,1777306790000
NMEA,$PMTKMPE1,1288.4,0.959,41.4010124,2.1577514,107.25,-0.00,-0.00,0.00,0.00,0.00,-134.80,0.00,4,6,18,1*70,1777306790000
NMEA,$PMTKMPE2,UDR_v6.2.0_2021_04_13,PDR_v6.2.0_2021_04_13*6D,1777306790000
NMEA,$PMTKLCPOS1,20260427161950.000,41.401012,2.157754,107.3,3,0.000000,0.000000,0.0,0*7D,1777306790000
NMEA,$PMTKLCPOS2,20260427161950.000,41.401026,2.157741,107.2,1,2416,145208.001,18*51,1777306790000
NMEA,$GNGGA,161951.000,4124.0616,N,00209.4645,E,1,17,1.00,56.0,M,51.3,M,,*40,1777306791000
NMEA,$GNGSA,A,3,03,17,04,19,01,,,,,,,,1.26,1.00,0.77,1*0D,1777306791000
NMEA,$GNGSA,A,3,72,87,86,88,,,,,,,,,1.26,1.00,0.77,2*02,1777306791000
NMEA,$GNGSA,A,3,05,36,,,,,,,,,,,1.26,1.00,0.77,3*07,1777306791000
NMEA,$GNGSA,A,3,20,30,12,11,29,35,,,,,,,1.26,1.00,0.77,4*0F,1777306791000
NMEA,$GNGSA,A,3,,,,,,,,,,,,,1.26,1.00,0.77,5*01,1777306791000
NMEA,$GPGSV,3,1,12,03,71,008,23.6,01,60,104,20.1,04,53,179,18.0,17,50,277,17.6,1*6B,1777306791000
NMEA,$GPGSV,3,2,12,36,37,149,,02,31,123,,19,30,309,17.8,09,24,203,,1*74,1777306791000
NMEA,$GPGSV,3,3,12,31,18,085,,28,14,056,,06,12,305,,22,05,259,,1*65,1777306791000
NMEA,$GLGSV,3,1,9,65,62,226,,72,59,031,17.8,88,55,328,26.1,87,52,128,18.3,1*5C,1777306791000
NMEA,$GLGSV,3,2,9,86,13,136,21.2,66,12,217,,71,08,035,,80,02,359,,1*5D,1777306791000
NMEA,$GLGSV,3,3,9,81,02,322,,1*79,1777306791000
NMEA,$GAGSV,3,1,12,36,67,078,17.8,09,55,076,,34,50,313,,05,47,172,12.3,7*7E,1777306791000
NMEA,$GAGSV,3,2,12,06,35,052,,11,19,108,,04,13,038,,30,13,275,,7*7B,1777306791000
NMEA,$GAGSV,3,3,12,27,06,321,,03,04,201,,02,04,226,,15,03,298,,7*73,1777306791000
NMEA,$GBGSV,4,1,14,20,88,005,31.7,29,76,225,15.9,12,69,232,18.0,11,62,163,18.7,1*7E,1777306791000
NMEA,$GBGSV,4,2,14,57,51,065,,19,40,230,,30,33,151,13.9,35,31,311,19.7,1*78,1777306791000
NMEA,$GBGSV,4,3,14,32,29,048,,05,19,111,,07,13,048,,10,13,057,,1*76,1777306791000
NMEA,$GBGSV,4,4,14,02,02,097,,60,02,097,,1*77,1777306791000
NMEA,$GNRMC,161951.000,A,4124.0616,N,00209.4645,E,0.000,225.20,270426,,,A,V*39,1777306791000
NMEA,$GNVTG,225.20,T,,M,0.000,N,0.000,K,A*24,1777306791000
NMEA,$GNACCURACY,2.3,179.9,1.6,15.2*22,1777306791000
NMEA,$PMTKAGC,161951.000,2954,2739,5661,5672,0,0,0,6,116,0*79,1777306791000
NMEA,$PMTKTSX1,1515564,12520.087,31.315,31.380,6e040000,1.262722,1.252009,0.536769,-0.327304,3.509599,1.257,2.0*1B,1777306791000
NMEA,$PMTKERT,953016371,1515564,953016271,0000*77,1777306791000
NMEA,$PMTKMPE1,1289.4,0.949,41.4010121,2.1577537,107.28,-0.00,-0.00,0.00,0.00,0.00,-134.80,0.00,4,6,18,1*79,1777306791000
NMEA,$PMTKMPE2,UDR_v6.2.0_2021_04_13,PDR_v6.2.0_2021_04_13*6D,1777306791000
NMEA,$PMTKLCPOS1,20260427161951.000,41.401011,2.157755,107.3,3,0.000000,0.000000,0.0,0*7E,1777306791000
NMEA,$PMTKLCPOS2,20260427161951.000,41.401026,2.157741,107.2,1,2416,145209.001,18*51,1777306791000
NMEA,$GNGGA,161952.000,4124.0616,N,00209.4645,E,1,17,1.00,56.0,M,51.3,M,,*43,1777306792000
NMEA,$GNGSA,A,3,03,17,04,19,01,,,,,,,,1.26,1.00,0.77,1*0D,1777306792000
NMEA,$GNGSA,A,3,72,87,86,88,,,,,,,,,1.26,1.00,0.77,2*02,1777306792000
NMEA,$GNGSA,A,3,05,36,,,,,,,,,,,1.26,1.00,0.77,3*07,1777306792000
NMEA,$GNGSA,A,3,20,30,12,11,29,35,,,,,,,1.26,1.00,0.77,4*0F,1777306792000
NMEA,$GNGSA,A,3,,,,,,,,,,,,,1.26,1.00,0.77,5*01,1777306792000
