$GPGGA,163222.00,,,,,1,06,1.65,,M,0.0,M,0.0,0000*55
$GPGSV,2,1,6,1,55,111,20.8,2,26,127,14.4,3,67,023,24.7,4,60,177,22.2*46
$GPGSV,2,2,6,17,50,267,16.1,19,34,304,18.2*4A
$GPRMC,163222.00,A,,,,,,,270426,,,A*66
$GPGGA,163223.00,4124.064465,N,00209.466067,E,1,06,1.65,135.18,M,0.0,M,0.0,0000*77
$GPGSV,2,1,6,1,55,111,20.8,2,26,127,14.4,3,67,023,24.7,4,60,177,24.5*47
$GPGSV,2,2,6,17,50,267,16.1,19,34,304,18.2*4A
$GPRMC,163223.00,A,4124.064465,N,00209.466067,E,001.3,158.5,270426,,,A*5F
$GPGGA,163224.00,4124.062889,N,00209.461014,E,1,06,1.65,136.51,M,0.0,M,0.0,0000*75
$GPGSV,2,1,6,1,55,111,20.8,2,26,127,14.0,3,67,023,24.6,4,60,177,25.0*46
$GPGSV,2,2,6,17,50,267,16.1,19,34,304,13.5*46
$GPRMC,163224.00,A,4124.062889,N,00209.461014,E,005.5,243.0,270426,,,A*5D
$GPGGA,163225.00,4124.062964,N,00209.459674,E,1,06,1.65,142.51,M,0.0,M,0.0,0000*7E
$GPGSV,2,1,6,1,55,111,21.0,2,26,127,14.0,3,67,023,25.7,4,60,177,24.5*4B
$GPGSV,2,2,6,17,50,267,16.0,19,34,304,13.5*47
$GPRMC,163225.00,A,4124.062964,N,00209.459674,E,004.4,254.8,270426,,,A*5B
$GPGGA,163226.00,4124.064015,N,00209.458197,E,1,06,1.65,145.30,M,0.0,M,0.0,0000*7F
$GPGSV,2,1,6,1,55,111,21.1,2,26,127,14.0,3,67,023,25.5,4,60,177,24.2*4F
$GPGSV,2,2,6,17,50,267,15.9,19,34,304,13.5*4D
$GPRMC,163226.00,A,4124.064015,N,00209.458197,E,004.5,277.4,270426,,,A*56
$GPGGA,163227.00,4124.066287,N,00209.455823,E,1,06,1.65,141.72,M,0.0,M,0.0,0000*7C
$GPGSV,2,1,6,1,55,111,21.1,2,26,127,12.6,3,67,023,24.9,4,60,177,24.1*41
$GPGSV,2,2,6,17,50,267,13.2,19,34,304,11.6*41
$GPRMC,163227.00,A,4124.066287,N,00209.455823,E,005.8,297.8,270426,,,A*59
$GPGGA,163228.00,4124.068810,N,00209.452903,E,1,06,1.65,135.49,M,0.0,M,0.0,0000*76
$GPGSV,2,1,6,1,55,111,21.2,2,26,127,12.6,3,67,023,24.4,4,60,177,24.9*47
$GPGSV,2,2,6,17,50,267,13.2,19,34,304,11.6*41
$GPRMC,163228.00,A,4124.068810,N,00209.452903,E,007.4,306.3,270426,,,A*54
$GPGGA,163229.00,4124.071329,N,00209.449317,E,1,06,1.65,123.06,M,0.0,M,0.0,0000*77
$GPGSV,2,1,6,1,55,111,21.3,2,26,127,11.9,3,67,023,24.8,4,60,177,24.8*47
$GPGSV,2,2,6,17,50,267,11.1,19,34,304,12.3*46
$GPRMC,163229.00,A,4124.071329,N,00209.449317,E,008.8,308.3,270426,,,A*54
$GPGGA,163230.00,4124.073971,N,00209.445131,E,1,06,1.65,109.58,M,0.0,M,0.0,0000*73
$GPGSV,2,1,6,1,55,111,21.3,2,26,127,11.9,3,67,023,23.6,4,60,177,23.4*45
$GPGSV,2,2,6,17,50,267,11.1,19,34,304,12.3*46
$GPRMC,163230.00,A,4124.073971,N,00209.445131,E,010.2,308.3,270426,,,A*50
$GPGGA,163231.00,4124.076785,N,00209.441239,E,1,06,1.65,97.60,M,0.0,M,0.0,0000*40
$GPGSV,2,1,6,1,55,111,21.4,2,26,127,11.9,3,67,024,23.6,4,60,177,22.7*47
$GPGSV,2,2,6,17,50,267,11.1,19,34,304,12.3*46
$GPRMC,163231.00,A,4124.076785,N,00209.441239,E,011.1,309.7,270426,,,A*59
$GPGGA,163232.00,4124.079724,N,00209.437202,E,1,06,1.65,84.43,M,0.0,M,0.0,0000*4D
$GPGSV,2,1,6,1,55,111,21.5,2,26,127,14.2,3,67,024,23.6,4,60,177,22.7*48
$GPGSV,2,2,6,17,50,267,13.7,19,34,304,11.0*42
$GPRMC,163232.00,A,4124.079724,N,00209.437202,E,012.0,310.3,270426,,,A*59
$GPGGA,163233.00,4124.082740,N,00209.433472,E,1,06,1.65,68.96,M,0.0,M,0.0,0000*45
$GPGSV,2,1,6,1,55,111,24.4,2,26,127,14.2,3,67,024,23.5,4,60,177,22.7*4F
$GPGSV,2,2,6,17,50,267,13.7,19,34,304,11.0*42
$GPRMC,163233.00,A,4124.082740,N,00209.433472,E,012.5,312.3,270426,,,A*5C
$GPGGA,163234.00,4124.078782,N,00209.436489,E,1,05,2.02,74.33,M,0.0,M,0.0,0000*4B
$GPGSV,2,1,5,1,55,111,24.3,2,26,127,13.2,3,67,024,23.5,4,60,177,22.7*4C
$GPGSV,2,2,5,17,50,267,12.9*68
$GPRMC,163234.00,A,4124.078782,N,00209.436489,E,006.6,308.8,270426,,,A*57
$GPGGA,163235.00,4124.074753,N,00209.439842,E,1,05,2.02,77.64,M,0.0,M,0.0,0000*4F
$GPGSV,2,1,5,1,55,111,23.6,2,26,127,13.2,3,67,024,23.4,4,60,177,20.0*4A
$GPGSV,2,2,5,17,50,267,12.9*68
$GPRMC,163235.00,A,4124.074753,N,00209.439842,E,002.0,290.4,270426,,,A*5C
$GPGGA,163236.00,4124.070991,N,00209.443336,E,1,05,2.02,79.47,M,0.0,M,0.0,0000*42
$GPGSV,2,1,5,1,55,111,21.7,2,26,127,13.2,3,67,024,23.4,4,60,177,23.2*48
$GPGSV,2,2,5,17,50,267,12.9*68
$GPRMC,163236.00,A,4124.070991,N,00209.443336,E,002.0,160.0,270426,,,A*56
$GPGGA,163237.00,4124.067525,N,00209.444838,E,1,04,3.81,78.82,M,0.0,M,0.0,0000*47
$GPGSV,1,1,4,1,55,111,23.2,2,26,127,12.7,3,67,024,23.4,4,60,177,23.5*4E
$GPRMC,163237.00,A,4124.067525,N,00209.444838,E,003.9,158.9,270426,,,A*5A
$GPGGA,163238.00,4124.064943,N,00209.446683,E,1,04,3.81,77.51,M,0.0,M,0.0,0000*4A
$GPGSV,1,1,4,1,55,111,23.3,2,26,127,12.7,3,67,024,23.5,4,60,177,25.2*4F
$GPRMC,163238.00,A,4124.064943,N,00209.446683,E,005.0,155.1,270426,,,A*5C
$GPGGA,163239.00,4124.063347,N,00209.448389,E,1,04,3.81,74.62,M,0.0,M,0.0,0000*40
$GPGSV,1,1,4,1,55,111,23.2,2,26,127,12.7,3,67,024,23.7,4,60,177,23.4*4C
$GPRMC,163239.00,A,4124.063347,N,00209.448389,E,005.3,151.0,270426,,,A*53
$GPGGA,163240.00,,,,,1,03, Inf,,M,0.0,M,0.0,0000*29
$GPRMC,163240.00,A,,,,,,,270426,,,A*62
$GPGGA,163241.00,,,,,1,03, Inf,,M,0.0,M,0.0,0000*28
$GPRMC,163241.00,A,,,,,,,270426,,,A*63
$GPGGA,163242.00,,,,,1,03, Inf,,M,0.0,M,0.0,0000*2B
$GPRMC,163242.00,A,,,,,,,270426,,,A*60
$GPGGA,163243.00,,,,,1,03, Inf,,M,0.0,M,0.0,0000*2A
$GPRMC,163243.00,A,,,,,,,270426,,,A*61
$GPGGA,163244.00,,,,,1,03, Inf,,M,0.0,M,0.0,0000*2D
$GPRMC,163244.00,A,,,,,,,270426,,,A*66
$GPGGA,163245.00,,,,,1,03, Inf,,M,0.0,M,0.0,0000*2C
$GPRMC,163245.00,A,,,,,,,270426,,,A*67
$GPGGA,163246.00,,,,,1,04, Inf,,M,0.0,M,0.0,0000*28
$GPRMC,163246.00,A,,,,,,,270426,,,A*64
$GPGGA,163247.00,,,,,1,04, Inf,,M,0.0,M,0.0,0000*29
$GPRMC,163247.00,A,,,,,,,270426,,,A*65
$GPGGA,163248.00,,,,,1,04, Inf,,M,0.0,M,0.0,0000*26
$GPRMC,163248.00,A,,,,,,,270426,,,A*6A
$GPGGA,163249.00,,,,,1,03, Inf,,M,0.0,M,0.0,0000*20
$GPRMC,163249.00,A,,,,,,,270426,,,A*6B
$GPGGA,163250.00,,,,,1,03, Inf,,M,0.0,M,0.0,0000*28
$GPRMC,163250.00,A,,,,,,,270426,,,A*63
$GPGGA,163251.00,,,,,1,03, Inf,,M,0.0,M,0.0,0000*29
$GPRMC,163251.00,A,,,,,,,270426,,,A*62
$GPGGA,163252.00,,,,,1,03, Inf,,M,0.0,M,0.0,0000*2A
$GPRMC,163252.00,A,,,,,,,270426,,,A*61
$GPGGA,163253.00,,,,,1,03, Inf,,M,0.0,M,0.0,0000*2B
$GPRMC,163253.00,A,,,,,,,270426,,,A*60
$GPGGA,163254.00,,,,,1,03, Inf,,M,0.0,M,0.0,0000*2C
$GPRMC,163254.00,A,,,,,,,270426,,,A*67
$GPGGA,163255.00,,,,,1,03, Inf,,M,0.0,M,0.0,0000*2D
$GPRMC,163255.00,A,,,,,,,270426,,,A*66
$GPGGA,163256.00,,,,,1,03, Inf,,M,0.0,M,0.0,0000*2E
$GPRMC,163256.00,A,,,,,,,270426,,,A*65
$GPGGA,163257.00,,,,,1,03, Inf,,M,0.0,M,0.0,0000*2F
$GPRMC,163257.00,A,,,,,,,270426,,,A*64
$GPGGA,163258.00,,,,,1,03, Inf,,M,0.0,M,0.0,0000*20
$GPRMC,163258.00,A,,,,,,,270426,,,A*6B
$GPGGA,163259.00,,,,,1,04, Inf,,M,0.0,M,0.0,0000*26
$GPRMC,163259.00,A,,,,,,,270426,,,A*6A
$GPGGA,163300.00,,,,,1,03, Inf,,M,0.0,M,0.0,0000*2C
$GPRMC,163300.00,A,,,,,,,270426,,,A*67
$GPGGA,163301.00,,,,,1,03, Inf,,M,0.0,M,0.0,0000*2D
$GPRMC,163301.00,A,,,,,,,270426,,,A*66
$GPGGA,163302.00,,,,,1,03, Inf,,M,0.0,M,0.0,0000*2E
$GPRMC,163302.00,A,,,,,,,270426,,,A*65
$GPGGA,163303.00,,,,,1,04, Inf,,M,0.0,M,0.0,0000*28
$GPRMC,163303.00,A,,,,,,,270426,,,A*64
$GPGGA,163304.00,,,,,1,03, Inf,,M,0.0,M,0.0,0000*28
$GPRMC,163304.00,A,,,,,,,270426,,,A*63
$GPGGA,163305.00,,,,,1,03, Inf,,M,0.0,M,0.0,0000*29
$GPRMC,163305.00,A,,,,,,,270426,,,A*62
$GPGGA,163306.00,,,,,1,03, Inf,,M,0.0,M,0.0,0000*2A
$GPRMC,163306.00,A,,,,,,,270426,,,A*61
$GPGGA,163307.00,,,,,1,03, Inf,,M,0.0,M,0.0,0000*2B
$GPRMC,163307.00,A,,,,,,,270426,,,A*60
$GPGGA,163308.00,,,,,1,03, Inf,,M,0.0,M,0.0,0000*24
$GPRMC,163308.00,A,,,,,,,270426,,,A*6F
$GPGGA,163309.00,,,,,1,03, Inf,,M,0.0,M,0.0,0000*25
$GPRMC,163309.00,A,,,,,,,270426,,,A*6E
$GPGGA,163310.00,,,,,1,03, Inf,,M,0.0,M,0.0,0000*2D
$GPRMC,163310.00,A,,,,,,,270426,,,A*66
$GPGGA,163311.00,,,,,1,03, Inf,,M,0.0,M,0.0,0000*2C
$GPRMC,163311.00,A,,,,,,,270426,,,A*67
$GPGGA,163312.00,,,,,1,03, Inf,,M,0.0,M,0.0,0000*2F
$GPRMC,163312.00,A,,,,,,,270426,,,A*64
$GPGGA,163313.00,,,,,1,04, Inf,,M,0.0,M,0.0,0000*29
$GPRMC,163313.00,A,,,,,,,270426,,,A*65
$GPGGA,163314.00,,,,,1,04, Inf,,M,0.0,M,0.0,0000*2E
$GPRMC,163314.00,A,,,,,,,270426,,,A*62
$GPGGA,163315.00,,,,,1,04, Inf,,M,0.0,M,0.0,0000*2F
$GPRMC,163315.00,A,,,,,,,270426,,,A*63
$GPGGA,163316.00,,,,,1,04, Inf,,M,0.0,M,0.0,0000*2C
$GPRMC,163316.00,A,,,,,,,270426,,,A*60
$GPGGA,163317.00,,,,,1,04, Inf,,M,0.0,M,0.0,0000*2D
$GPRMC,163317.00,A,,,,,,,270426,,,A*61
$GPGGA,163318.00,,,,,1,04, Inf,,M,0.0,M,0.0,0000*22
$GPRMC,163318.00,A,,,,,,,270426,,,A*6E
$GPGGA,163319.00,,,,,1,04, Inf,,M,0.0,M,0.0,0000*23
$GPRMC,163319.00,A,,,,,,,270426,,,A*6F
$GPGGA,163320.00,,,,,1,04, Inf,,M,0.0,M,0.0,0000*29
$GPRMC,163320.00,A,,,,,,,270426,,,A*65
$GPGGA,163321.00,4124.052708,N,00209.469385,E,1,05,1.96,92.64,M,0.0,M,0.0,0000*41
$GPGSV,2,1,5,1,54,112,20.4,2,26,127,20.3,3,67,024,20.3,4,60,177,19.6*40
$GPGSV,2,2,5,19,34,303,17.8*63
$GPRMC,163321.00,A,4124.052708,N,00209.469385,E,002.0,015.6,270426,,,A*5A
$GPGGA,163322.00,4124.053883,N,00209.470153,E,1,05,1.96,100.44,M,0.0,M,0.0,0000*76
$GPGSV,2,1,5,1,54,112,21.7,2,26,127,20.3,3,67,024,20.9,4,60,177,19.6*48
$GPGSV,2,2,5,19,34,303,17.8*63
$GPRMC,163322.00,A,4124.053883,N,00209.470153,E,002.6,014.2,270426,,,A*56
$GPGGA,163323.00,4124.055254,N,00209.469310,E,1,05,1.96,100.48,M,0.0,M,0.0,0000*70
$GPGSV,2,1,5,1,54,112,22.1,2,26,127,20.3,3,67,024,20.9,4,60,177,19.6*4D
$GPGSV,2,2,5,19,34,303,18.2*66
$GPRMC,163323.00,A,4124.055254,N,00209.469310,E,002.8,350.9,270426,,,A*5A
$GPGGA,163324.00,4124.055315,N,00209.467919,E,1,05,1.96,102.13,M,0.0,M,0.0,0000*72
$GPGSV,2,1,5,1,54,112,21.1,2,26,127,20.3,3,67,024,21.1,4,60,177,19.7*46
$GPGSV,2,2,5,19,34,303,17.7*6C
$GPRMC,163324.00,A,4124.055315,N,00209.467919,E,002.1,307.3,270426,,,A*55
$GPGGA,163325.00,4124.052682,N,00209.463893,E,1,05,1.96,105.61,M,0.0,M,0.0,0000*7A
$GPGSV,2,1,5,1,54,112,19.9,2,26,127,20.4,3,67,024,21.1,4,60,177,19.6*43
$GPGSV,2,2,5,19,34,303,17.7*6C
$GPRMC,163325.00,A,4124.052682,N,00209.463893,E,005.0,247.0,270426,,,A*5F
$GPGGA,163326.00,4124.054103,N,00209.463649,E,1,05,1.96,105.00,M,0.0,M,0.0,0000*7F
$GPGSV,2,1,5,1,54,112,21.3,2,26,127,20.3,3,67,024,21.1,4,60,177,19.5*46
$GPGSV,2,2,5,19,34,303,17.6*6D
$GPRMC,163326.00,A,4124.054103,N,00209.463649,E,003.3,268.7,270426,,,A*52
$GPGGA,163327.00,4124.056628,N,00209.465264,E,1,05,1.96,103.61,M,0.0,M,0.0,0000*7E
$GPGSV,2,1,5,1,54,112,21.3,2,26,127,20.4,3,67,024,21.0,4,60,177,19.5*40
$GPGSV,2,2,5,19,34,303,17.6*6D
$GPRMC,163327.00,A,4124.056628,N,00209.465264,E,002.5,323.9,270426,,,A*55
$GPGGA,163328.00,4124.058861,N,00209.467062,E,1,05,1.96,102.90,M,0.0,M,0.0,0000*75
$GPGSV,2,1,5,1,54,112,20.5,2,26,127,20.4,3,67,024,21.0,4,60,177,19.5*47
$GPGSV,2,2,5,19,34,303,17.6*6D
$GPRMC,163328.00,A,4124.058861,N,00209.467062,E,003.3,000.3,270426,,,A*5E
$GPGGA,163329.00,4124.060117,N,00209.468162,E,1,05,1.96,103.17,M,0.0,M,0.0,0000*77
$GPGSV,2,1,5,1,54,112,22.8,2,26,127,20.4,3,67,024,20.5,4,60,177,19.4*4D
$GPGSV,2,2,5,19,34,303,14.2*6A
$GPRMC,163329.00,A,4124.060117,N,00209.468162,E,003.4,009.3,270426,,,A*5C
$GPGGA,163330.00,4124.059335,N,00209.467264,E,1,05,1.96,105.57,M,0.0,M,0.0,0000*7F
$GPGSV,2,1,5,1,54,112,22.7,2,26,127,20.5,3,67,024,20.4,4,60,177,19.5*43
$GPGSV,2,2,5,19,34,303,14.2*6A
$GPRMC,163330.00,A,4124.059335,N,00209.467264,E,002.1,357.8,270426,,,A*51
$GPGGA,163331.00,4124.058805,N,00209.466782,E,1,05,1.96,107.86,M,0.0,M,0.0,0000*75
$GPGSV,2,1,5,1,54,112,22.7,2,26,127,20.5,3,67,024,20.7,4,60,177,19.5*40
$GPGSV,2,2,5,19,34,303,14.2*6A
$GPRMC,163331.00,A,4124.058805,N,00209.466782,E,001.5,350.2,270426,,,A*5F
$GPGGA,163332.00,4124.061213,N,00209.469292,E,1,05,1.97,106.08,M,0.0,M,0.0,0000*7C
$GPGSV,2,1,5,1,54,112,22.7,2,26,127,20.5,3,67,024,20.7,4,60,177,19.5*40
$GPGSV,2,2,5,19,34,303,14.4*6C
$GPRMC,163332.00,A,4124.061213,N,00209.469292,E,002.9,022.8,270426,,,A*53
$GPGGA,163333.00,4124.062948,N,00209.471012,E,1,05,1.97,104.81,M,0.0,M,0.0,0000*7B
$GPGSV,2,1,5,1,54,112,22.7,2,26,127,20.5,3,67,025,20.8,4,60,177,19.5*4E
$GPGSV,2,2,5,19,34,303,14.4*6C
$GPRMC,163333.00,A,4124.062948,N,00209.471012,E,003.7,028.8,270426,,,A*52
$GPGGA,163334.00,4124.063218,N,00209.470363,E,1,05,1.97,104.48,M,0.0,M,0.0,0000*72
$GPGSV,2,1,5,1,54,112,22.6,2,26,127,20.5,3,67,025,20.8,4,60,177,19.4*4E
$GPGSV,2,2,5,19,34,303,14.4*6C
$GPRMC,163334.00,A,4124.063218,N,00209.470363,E,003.0,020.4,270426,,,A*5D
$GPGGA,163335.00,4124.063131,N,00209.469523,E,1,05,1.97,104.33,M,0.0,M,0.0,0000*7D
$GPGSV,2,1,5,1,54,112,22.6,2,26,127,20.5,3,67,025,20.8,4,60,177,19.3*49
$GPGSV,2,2,5,19,34,303,14.4*6C
$GPRMC,163335.00,A,4124.063131,N,00209.469523,E,002.2,009.1,270426,,,A*53
$GPGGA,163336.00,4124.062996,N,00209.468710,E,1,05,1.97,104.22,M,0.0,M,0.0,0000*79
$GPGSV,2,1,5,1,54,112,21.8,2,26,127,20.6,3,67,025,20.7,4,60,177,19.3*48
$GPGSV,2,2,5,19,34,303,14.4*6C
$GPRMC,163336.00,A,4124.062996,N,00209.468710,E,001.6,352.2,270426,,,A*5E
$GPGGA,163337.00,4124.063193,N,00209.468334,E,1,05,1.97,103.76,M,0.0,M,0.0,0000*70
$GPGSV,2,1,5,1,54,112,22.9,2,26,127,20.6,3,67,025,20.7,4,61,177,19.2*4A
$GPGSV,2,2,5,19,34,303,14.5*6D
$GPRMC,163337.00,A,4124.063193,N,00209.468334,E,001.5,348.0,270426,,,A*5B
$GPGGA,163338.00,4124.062754,N,00209.467444,E,1,05,1.97,103.85,M,0.0,M,0.0,0000*70
$GPGSV,2,1,5,1,54,112,22.2,2,26,127,20.6,3,67,025,20.7,4,61,177,19.2*41
$GPGSV,2,2,5,19,34,303,14.6*6E
$GPRMC,163338.00,A,4124.062754,N,00209.467444,E,001.1,315.1,270426,,,A*5A
$GPGGA,163339.00,4124.062542,N,00209.467203,E,1,05,1.97,103.98,M,0.0,M,0.0,0000*7D
$GPGSV,2,1,5,1,54,112,22.1,2,26,127,20.6,3,67,025,20.8,4,61,177,19.1*4E
$GPGSV,2,2,5,19,34,303,14.6*6E
$GPRMC,163339.00,A,4124.062542,N,00209.467203,E,000.9,307.1,270426,,,A*51
$GPGGA,163340.00,4124.061722,N,00209.466239,E,1,05,1.97,104.44,M,0.0,M,0.0,0000*7A
$GPGSV,2,1,5,1,54,112,22.3,2,26,127,20.7,3,67,025,20.8,4,61,177,19.1*4D
$GPGSV,2,2,5,19,34,303,14.5*6D
$GPRMC,163340.00,A,4124.061722,N,00209.466239,E,001.2,265.0,270426,,,A*5E
$GPGGA,163341.00,4124.061111,N,00209.465077,E,1,05,1.97,104.39,M,0.0,M,0.0,0000*7C
$GPGSV,2,1,5,1,54,112,22.2,2,26,127,20.7,3,67,025,20.8,4,61,177,19.1*4C
$GPGSV,2,2,5,19,34,303,14.5*6D
$GPRMC,163341.00,A,4124.061111,N,00209.465077,E,001.7,253.2,270426,,,A*50
$GPGGA,163342.00,4124.060163,N,00209.464771,E,1,05,1.97,104.99,M,0.0,M,0.0,0000*71
$GPGSV,2,1,5,1,54,112,22.2,2,26,127,20.8,3,67,025,20.8,4,61,177,19.1*43
$GPGSV,2,2,5,19,34,303,12.4*6A
$GPRMC,163342.00,A,4124.060163,N,00209.464771,E,001.9,233.4,270426,,,A*59
$GPGGA,163343.00,4124.060434,N,00209.465108,E,1,05,1.97,104.30,M,0.0,M,0.0,0000*7D
$GPGSV,2,1,5,1,54,112,22.1,2,26,127,20.8,3,67,025,20.8,4,61,177,19.1*40
$GPGSV,2,2,5,19,34,303,12.4*6A
$GPRMC,163343.00,A,4124.060434,N,00209.465108,E,001.4,236.3,270426,,,A*59
$GPGGA,163344.00,4124.060434,N,00209.464207,E,1,05,1.97,102.86,M,0.0,M,0.0,0000*7C
$GPGSV,2,1,5,1,54,112,22.1,2,26,127,20.8,3,67,025,20.8,4,61,177,19.0*41
$GPGSV,2,2,5,19,34,303,14.9*61
$GPRMC,163344.00,A,4124.060434,N,00209.464207,E,001.6,245.3,270426,,,A*55
$GPGGA,163345.00,4124.060454,N,00209.462840,E,1,05,1.97,102.26,M,0.0,M,0.0,0000*7E
$GPGSV,2,1,5,1,54,112,22.0,2,26,127,20.8,3,67,025,20.8,4,61,177,19.0*40
$GPGSV,2,2,5,19,34,303,14.9*61
$GPRMC,163345.00,A,4124.060454,N,00209.462840,E,002.0,254.3,270426,,,A*58
$GPGGA,163346.00,4124.060465,N,00209.461844,E,1,05,1.97,101.32,M,0.0,M,0.0,0000*7E
$GPGSV,2,1,5,1,54,112,21.9,2,26,127,20.9,3,67,025,20.8,4,61,177,19.0*4B
$GPGSV,2,2,5,19,34,303,14.9*61
$GPRMC,163346.00,A,4124.060465,N,00209.461844,E,002.1,259.2,270426,,,A*53
$GPGGA,163347.00,4124.059404,N,00209.460187,E,1,05,1.97,101.70,M,0.0,M,0.0,0000*73
$GPGSV,2,1,5,1,54,112,21.8,2,26,127,20.9,3,67,025,20.7,4,61,177,19.0*45
$GPGSV,2,2,5,19,34,303,13.4*6B
$GPRMC,163347.00,A,4124.059404,N,00209.460187,E,002.7,247.3,270426,,,A*50
$GPGGA,163348.00,4124.061906,N,00209.464738,E,1,06,1.65,100.68,M,0.0,M,0.0,0000*78
$GPGSV,2,1,6,1,54,112,21.8,2,25,127,21.0,3,67,025,20.7,4,61,177,19.1*4C
$GPGSV,2,2,6,17,50,266,16.9,19,34,303,13.4*49
$GPRMC,163348.00,A,4124.061906,N,00209.464738,E,000.9,027.9,270426,,,A*5F
$GPGGA,163349.00,4124.064154,N,00209.467975,E,1,06,1.65,99.62,M,0.0,M,0.0,0000*4C
$GPGSV,2,1,6,1,54,112,21.7,2,25,127,21.0,3,67,025,20.7,4,61,177,19.1*43
$GPGSV,2,2,6,17,50,266,16.9,19,34,303,13.4*49
$GPRMC,163349.00,A,4124.064154,N,00209.467975,E,003.0,044.6,270426,,,A*50
$GPGGA,163350.00,4124.067231,N,00209.470885,E,1,06,1.65,97.51,M,0.0,M,0.0,0000*41
$GPGSV,2,1,6,1,54,112,21.7,2,25,127,21.0,3,67,025,20.7,4,61,177,19.1*43
$GPGSV,2,2,6,17,50,266,16.8,19,34,303,13.1*4D
$GPRMC,163350.00,A,4124.067231,N,00209.470885,E,004.9,040.5,270426,,,A*5A
$GPGGA,163351.00,4124.069798,N,00209.473022,E,1,06,1.65,95.52,M,0.0,M,0.0,0000*4F
$GPGSV,2,1,6,1,54,112,21.8,2,25,127,21.0,3,67,025,20.7,4,61,177,19.0*4D
$GPGSV,2,2,6,17,50,266,16.8,19,34,303,13.1*4D
$GPRMC,163351.00,A,4124.069798,N,00209.473022,E,006.0,037.8,270426,,,A*53
$GPGGA,163352.00,4124.071389,N,00209.474575,E,1,06,1.65,93.84,M,0.0,M,0.0,0000*4C
$GPGSV,2,1,6,1,54,112,21.8,2,25,127,18.1,3,67,025,20.8,4,61,177,13.9*4A
$GPGSV,2,2,6,17,50,266,16.7,19,34,303,14.8*4C
$GPRMC,163352.00,A,4124.071389,N,00209.474575,E,006.1,037.4,270426,,,A*50
$GPGGA,163353.00,4124.072493,N,00209.475795,E,1,06,1.65,92.13,M,0.0,M,0.0,0000*40
$GPGSV,2,1,6,1,54,112,21.8,2,25,127,18.1,3,67,025,20.7,4,61,177,13.9*45
$GPGSV,2,2,6,17,50,266,12.9,19,34,303,18.6*44
$GPRMC,163353.00,A,4124.072493,N,00209.475795,E,005.7,037.5,270426,,,A*57
$GPGGA,163354.00,4124.073051,N,00209.476732,E,1,06,1.65,90.41,M,0.0,M,0.0,0000*47
$GPGSV,2,1,6,1,54,112,21.8,2,25,127,18.2,3,67,025,20.6,4,61,177,13.9*47
$GPGSV,2,2,6,17,50,266,12.9,19,34,303,18.6*44
$GPRMC,163354.00,A,4124.073051,N,00209.476732,E,005.2,039.4,270426,,,A*5F
$GPGGA,163355.00,4124.071636,N,00209.476063,E,1,06,1.65,89.72,M,0.0,M,0.0,0000*48
$GPGSV,2,1,6,1,54,112,21.8,2,25,127,18.2,3,67,025,20.6,4,61,177,17.6*4C
$GPGSV,2,2,6,17,50,266,11.9,19,34,303,18.6*47
$GPRMC,163355.00,A,4124.071636,N,00209.476063,E,003.1,043.4,270426,,,A*50
$GPGGA,163356.00,4124.070552,N,00209.475541,E,1,06,1.65,88.58,M,0.0,M,0.0,0000*44
$GPGSV,2,1,6,1,54,112,21.9,2,25,127,18.1,3,67,025,20.5,4,61,177,20.3*4C
$GPGSV,2,2,6,17,50,266,11.9,19,34,303,18.5*44
$GPRMC,163356.00,A,4124.070552,N,00209.475541,E,001.7,050.3,270426,,,A*54
$GPGGA,163357.00,4124.069796,N,00209.474816,E,1,06,1.65,87.78,M,0.0,M,0.0,0000*44
$GPGSV,2,1,6,1,54,112,21.9,2,25,127,18.0,3,67,025,20.5,4,61,177,17.8*42
$GPGSV,2,2,6,17,50,266,11.9,19,34,303,18.4*45
$GPRMC,163357.00,A,4124.069796,N,00209.474816,E,000.6,051.9,270426,,,A*52
$GPGGA,163358.00,4124.069381,N,00209.473973,E,1,06,1.65,87.82,M,0.0,M,0.0,0000*49
$GPGSV,2,1,6,1,54,112,22.0,2,25,127,13.1,3,67,025,20.5,4,61,177,17.8*42
$GPGSV,2,2,6,17,50,266,16.6,19,34,303,18.3*4A
$GPRMC,163358.00,A,4124.069381,N,00209.473973,E,000.3,,270426,,,A*7C
$GPGGA,163359.00,4124.071151,N,00209.473308,E,1,06,1.65,86.62,M,0.0,M,0.0,0000*47
$GPGSV,2,1,6,1,54,112,22.0,2,25,127,13.1,3,67,025,20.5,4,61,177,17.8*42
$GPGSV,2,2,6,17,50,266,16.6,19,34,303,18.2*4B
$GPRMC,163359.00,A,4124.071151,N,00209.473308,E,001.3,332.1,270426,,,A*51
$GPGGA,163400.00,4124.072586,N,00209.472303,E,1,06,1.65,86.04,M,0.0,M,0.0,0000*4B
$GPGSV,2,1,6,1,54,112,22.1,2,25,127,13.1,3,67,025,20.4,4,61,177,17.8*42
$GPGSV,2,2,6,17,50,266,13.7,19,34,303,18.1*4C
$GPRMC,163400.00,A,4124.072586,N,00209.472303,E,002.2,329.5,270426,,,A*51
$GPGGA,163401.00,4124.072480,N,00209.473674,E,1,05,1.95,83.90,M,0.0,M,0.0,0000*4D
$GPGSV,2,1,5,1,54,112,22.1,3,67,025,20.4,4,61,177,17.8,17,50,266,13.7*77
$GPGSV,2,2,5,19,34,303,14.1*69
$GPRMC,163401.00,A,4124.072480,N,00209.473674,E,001.5,356.5,270426,,,A*5F
$GPGGA,163402.00,4124.072624,N,00209.474732,E,1,05,1.95,81.63,M,0.0,M,0.0,0000*48
$GPGSV,2,1,5,1,54,112,22.0,3,67,025,20.4,4,61,177,17.8,17,50,266,13.7*76
$GPGSV,2,2,5,19,34,303,14.1*69
$GPRMC,163402.00,A,4124.072624,N,00209.474732,E,001.3,019.9,270426,,,A*56
$GPGGA,163403.00,4124.073452,N,00209.470711,E,1,06,1.65,82.07,M,0.0,M,0.0,0000*43
$GPGSV,2,1,6,1,54,112,22.0,2,25,128,13.1,3,67,025,20.1,4,61,177,17.7*46
$GPGSV,2,2,6,17,50,266,13.7,19,34,303,14.1*40
$GPRMC,163403.00,A,4124.073452,N,00209.470711,E,002.5,308.9,270426,,,A*56
$GPGGA,163404.00,4124.074224,N,00209.468286,E,1,06,1.65,82.79,M,0.0,M,0.0,0000*4F
$GPGSV,2,1,6,1,54,112,21.9,2,25,128,13.1,3,67,025,20.0,4,61,177,14.2*4B
$GPGSV,2,2,6,17,50,266,13.8,19,34,303,13.3*4A
$GPRMC,163404.00,A,4124.074224,N,00209.468286,E,003.4,301.1,270426,,,A*52
$GPGGA,163405.00,4124.074510,N,00209.466515,E,1,06,1.65,83.40,M,0.0,M,0.0,0000*46
$GPGSV,2,1,6,1,54,112,21.9,2,25,128,13.1,3,67,025,20.2,4,61,177,14.2*49
$GPGSV,2,2,6,17,50,266,13.8,19,34,303,13.3*4A
$GPRMC,163405.00,A,4124.074510,N,00209.466515,E,003.5,297.2,270426,,,A*5C
$GPGGA,163406.00,4124.073500,N,00209.465282,E,1,06,1.65,85.39,M,0.0,M,0.0,0000*41
$GPGSV,2,1,6,1,54,112,21.8,2,25,128,14.4,3,67,025,19.9,4,61,177,16.8*43
$GPGSV,2,2,6,17,50,266,14.1,19,35,303,14.5*44
$GPRMC,163406.00,A,4124.073500,N,00209.465282,E,003.1,279.8,270426,,,A*5D
$GPGGA,163407.00,4124.072357,N,00209.464506,E,1,06,1.65,86.94,M,0.0,M,0.0,0000*4B
$GPGSV,2,1,6,1,54,112,21.9,2,25,128,14.4,3,67,025,21.3,4,61,177,16.8*43
$GPGSV,2,2,6,17,50,266,14.1,19,35,303,14.5*44
$GPRMC,163407.00,A,4124.072357,N,00209.464506,E,002.8,262.2,270426,,,A*5B
$GPGGA,163408.00,4124.071564,N,00209.463894,E,1,06,1.65,88.33,M,0.0,M,0.0,0000*43
$GPGSV,2,1,6,1,54,112,21.8,2,25,128,14.4,3,67,025,21.2,4,61,177,16.8*43
$GPGSV,2,2,6,17,50,266,13.3,19,35,303,14.5*41
$GPRMC,163408.00,A,4124.071564,N,00209.463894,E,002.6,253.4,270426,,,A*5A
$GPGGA,163409.00,4124.070184,N,00209.463944,E,1,05,1.95,88.06,M,0.0,M,0.0,0000*4F
$GPGSV,2,1,5,1,54,112,21.8,3,67,025,21.2,4,61,177,16.8,17,50,266,13.3*7F
$GPGSV,2,2,5,19,35,303,14.5*6C
$GPRMC,163409.00,A,4124.070184,N,00209.463944,E,002.5,231.5,270426,,,A*5A
$GPGGA,163410.00,4124.068706,N,00209.464123,E,1,05,1.95,87.96,M,0.0,M,0.0,0000*4A
$GPGSV,2,1,5,1,54,112,21.8,3,67,025,21.2,4,61,177,16.9,17,50,266,13.3*7E
$GPGSV,2,2,5,19,35,303,14.5*6C
$GPRMC,163410.00,A,4124.068706,N,00209.464123,E,002.7,212.2,270426,,,A*5D
$GPGGA,163411.00,4124.067664,N,00209.465183,E,1,05,1.95,88.10,M,0.0,M,0.0,0000*4B
$GPGSV,2,1,5,1,54,112,21.8,3,67,025,21.2,4,61,177,17.0,17,50,266,13.4*71
$GPGSV,2,2,5,19,35,303,10.3*6E
$GPRMC,163411.00,A,4124.067664,N,00209.465183,E,002.6,191.2,270426,,,A*54
$GPGGA,163412.00,4124.066564,N,00209.466042,E,1,05,1.95,88.57,M,0.0,M,0.0,0000*46
$GPGSV,2,1,5,1,54,112,21.7,3,67,025,21.2,4,61,177,17.1,17,50,266,13.4*7F
$GPGSV,2,2,5,19,35,303,10.3*6E
$GPRMC,163412.00,A,4124.066564,N,00209.466042,E,002.9,180.0,270426,,,A*57
$GPGGA,163413.00,4124.064494,N,00209.466360,E,1,04,2.41,89.52,M,0.0,M,0.0,0000*47
$GPGSV,1,1,4,1,54,112,21.6,3,67,025,21.2,4,61,177,17.1,19,35,303,10.3*77
$GPRMC,163413.00,A,4124.064494,N,00209.466360,E,003.8,176.1,270426,,,A*51
$GPGGA,163414.00,4124.063167,N,00209.467136,E,1,04,2.41,90.77,M,0.0,M,0.0,0000*41
$GPGSV,1,1,4,1,54,112,21.6,3,67,025,21.2,4,61,177,17.2,19,35,303,12.3*76
$GPRMC,163414.00,A,4124.063167,N,00209.467136,E,003.9,169.6,270426,,,A*50
$GPGGA,163415.00,4124.064381,N,00209.470170,E,1,04,2.41,91.80,M,0.0,M,0.0,0000*40
$GPGSV,1,1,4,1,54,112,21.5,3,67,025,21.2,4,61,177,17.2,19,35,303,12.3*75
$GPRMC,163415.00,A,4124.064381,N,00209.470170,E,003.0,133.5,270426,,,A*5D
$GPGGA,163416.00,4124.064668,N,00209.472619,E,1,04,2.41,93.30,M,0.0,M,0.0,0000*42
$GPGSV,1,1,4,1,54,112,21.5,3,66,025,21.2,4,61,177,17.3,19,35,303,13.3*74
$GPRMC,163416.00,A,4124.064668,N,00209.472619,E,003.3,117.9,270426,,,A*5F
$GPGGA,163417.00,4124.064298,N,00209.474576,E,1,04,2.41,95.00,M,0.0,M,0.0,0000*41
$GPGSV,1,1,4,1,54,112,21.5,3,66,025,21.2,4,61,177,17.4,19,35,303,13.3*73
$GPRMC,163417.00,A,4124.064298,N,00209.474576,E,003.7,116.1,270426,,,A*54
$GPGGA,163418.00,4124.063599,N,00209.475429,E,1,04,2.41,96.99,M,0.0,M,0.0,0000*46
$GPGSV,1,1,4,1,54,112,21.5,3,66,025,21.2,4,61,177,17.5,19,35,303,13.3*72
$GPRMC,163418.00,A,4124.063599,N,00209.475429,E,003.5,118.2,270426,,,A*5F
$GPGGA,163419.00,4124.063385,N,00209.476363,E,1,04,2.41,98.72,M,0.0,M,0.0,0000*4D
$GPGSV,1,1,4,1,54,112,21.5,3,66,025,21.2,4,61,177,17.6,19,35,303,13.3*71
$GPRMC,163419.00,A,4124.063385,N,00209.476363,E,003.3,117.1,270426,,,A*55
$GPGGA,163420.00,4124.062545,N,00209.475692,E,1,04,2.41,100.94,M,0.0,M,0.0,0000*7C
$GPGSV,1,1,4,1,54,112,21.4,3,66,025,21.2,4,61,177,17.6,19,35,303,13.3*70
$GPRMC,163420.00,A,4124.062545,N,00209.475692,E,002.7,132.7,270426,,,A*58
$GPGGA,163421.00,4124.061779,N,00209.474914,E,1,04,2.41,103.18,M,0.0,M,0.0,0000*74
$GPGSV,1,1,4,1,54,112,21.3,3,66,025,21.3,4,61,177,17.7,19,35,303,13.3*77
$GPRMC,163421.00,A,4124.061779,N,00209.474914,E,002.4,147.9,270426,,,A*58
$GPGGA,163422.00,4124.062027,N,00209.475558,E,1,04,2.41,104.83,M,0.0,M,0.0,0000*78
$GPGSV,1,1,4,1,54,112,21.3,3,66,025,21.3,4,61,177,17.8,19,35,303,14.0*7C
$GPRMC,163422.00,A,4124.062027,N,00209.475558,E,001.9,135.4,270426,,,A*57
$GPGGA,163423.00,4124.062289,N,00209.476216,E,1,04,2.41,106.40,M,0.0,M,0.0,0000*7C
$GPGSV,1,1,4,1,54,112,21.2,3,66,025,21.3,4,61,177,17.9,19,35,303,14.0*7C
$GPRMC,163423.00,A,4124.062289,N,00209.476216,E,001.7,121.4,270426,,,A*55
$GPGGA,163424.00,4124.062744,N,00209.476509,E,1,04,2.41,107.60,M,0.0,M,0.0,0000*75
$GPGSV,1,1,4,1,54,112,21.1,3,66,025,21.2,4,61,177,17.9,19,35,303,17.5*78
$GPRMC,163424.00,A,4124.062744,N,00209.476509,E,001.4,108.3,270426,,,A*50
$GPGGA,163425.00,4124.063427,N,00209.475710,E,1,04,2.41,107.98,M,0.0,M,0.0,0000*7D
$GPGSV,1,1,4,1,54,112,21.1,3,66,025,21.2,4,61,177,17.9,19,35,303,16.7*7B
$GPRMC,163425.00,A,4124.063427,N,00209.475710,E,000.7,075.4,270426,,,A*51
$GPGGA,163426.00,4124.061952,N,00209.473149,E,1,04,2.41,109.13,M,0.0,M,0.0,0000*72
$GPGSV,1,1,4,1,54,112,21.0,3,66,025,21.2,4,61,177,17.9,19,35,303,16.7*7A
$GPRMC,163426.00,A,4124.061952,N,00209.473149,E,001.0,214.4,270426,,,A*50
$GPGGA,163427.00,4124.060755,N,00209.470783,E,1,04,2.41,110.33,M,0.0,M,0.0,0000*72
$GPGSV,1,1,4,1,54,112,20.9,3,66,025,21.2,4,61,177,17.9,19,35,303,16.7*72
$GPRMC,163427.00,A,4124.060755,N,00209.470783,E,002.2,227.0,270426,,,A*5F
$GPGGA,163428.00,4124.059720,N,00209.468701,E,1,04,2.41,111.57,M,0.0,M,0.0,0000*75
$GPGSV,1,1,4,1,54,112,20.9,3,66,025,21.2,4,61,177,17.9,19,35,303,16.5*70
$GPRMC,163428.00,A,4124.059720,N,00209.468701,E,003.0,230.1,270426,,,A*5F
$GPGGA,163429.00,4124.059823,N,00209.468234,E,1,04,2.41,112.57,M,0.0,M,0.0,0000*78
$GPGSV,1,1,4,1,54,112,20.9,3,66,025,21.2,4,61,177,17.8,19,35,303,16.4*70
$GPRMC,163429.00,A,4124.059823,N,00209.468234,E,002.6,234.6,270426,,,A*55
$GPGGA,163430.00,4124.059627,N,00209.467595,E,1,04,2.41,113.52,M,0.0,M,0.0,0000*7D
$GPGSV,1,1,4,1,54,112,20.9,3,66,025,21.2,4,61,177,17.8,19,35,303,16.3*77
$GPRMC,163430.00,A,4124.059627,N,00209.467595,E,002.4,237.1,270426,,,A*52
$GPGGA,163431.00,4124.059830,N,00209.467661,E,1,04,2.41,114.44,M,0.0,M,0.0,0000*7C
$GPGSV,1,1,4,1,54,112,20.9,3,66,025,21.2,4,61,177,17.8,19,35,303,14.6*70
$GPRMC,163431.00,A,4124.059830,N,00209.467661,E,001.8,242.0,270426,,,A*5F
$GPGGA,163432.00,4124.060458,N,00209.467367,E,1,04,2.41,115.68,M,0.0,M,0.0,0000*7B
$GPGSV,1,1,4,1,54,112,20.8,3,66,025,21.1,4,61,177,17.8,19,35,303,14.6*72
$GPRMC,163432.00,A,4124.060458,N,00209.467367,E,001.5,261.9,270426,,,A*52
$GPGGA,163433.00,4124.060910,N,00209.467023,E,1,04,2.41,116.82,M,0.0,M,0.0,0000*7F
$GPGSV,1,1,4,1,54,112,20.7,3,66,025,21.0,4,61,177,17.8,19,35,303,12.1*7D
$GPRMC,163433.00,A,4124.060910,N,00209.467023,E,001.4,277.5,270426,,,A*5B
$GPGGA,163434.00,4124.060292,N,00209.466073,E,1,04,2.40,117.93,M,0.0,M,0.0,0000*7D
$GPGSV,1,1,4,1,54,112,20.7,3,66,025,21.0,4,61,177,17.7,19,35,303,12.1*72
$GPRMC,163434.00,A,4124.060292,N,00209.466073,E,001.6,256.2,270426,,,A*5F
$GPGGA,163435.00,4124.059290,N,00209.464670,E,1,04,2.40,119.15,M,0.0,M,0.0,0000*73
$GPGSV,1,1,4,1,54,112,20.8,3,66,025,21.0,4,61,177,17.7,19,35,303,12.1*7D
$GPRMC,163435.00,A,4124.059290,N,00209.464670,E,002.3,241.7,270426,,,A*54
$GPGGA,163436.00,4124.057390,N,00209.461799,E,1,04,2.40,120.49,M,0.0,M,0.0,0000*7F
$GPGSV,1,1,4,1,54,112,20.9,3,66,025,21.0,4,61,177,17.6,19,35,303,12.9*75
$GPRMC,163436.00,A,4124.057390,N,00209.461799,E,003.6,235.1,270426,,,A*5A
$GPGGA,163437.00,4124.056006,N,00209.460169,E,1,04,2.40,121.59,M,0.0,M,0.0,0000*7B
$GPGSV,1,1,4,1,54,112,20.9,3,66,026,21.0,4,61,177,17.5,19,35,303,12.9*75
$GPRMC,163437.00,A,4124.056006,N,00209.460169,E,004.0,229.9,270426,,,A*5A
$GPGGA,163438.00,4124.054925,N,00209.460426,E,1,04,2.40,123.23,M,0.0,M,0.0,0000*7F
$GPGSV,1,1,4,1,54,112,20.9,3,66,026,21.0,4,61,177,17.4,19,35,303,14.4*7F
$GPRMC,163438.00,A,4124.054925,N,00209.460426,E,003.6,220.3,270426,,,A*53
$GPGGA,163439.00,4124.055154,N,00209.461831,E,1,04,2.40,124.58,M,0.0,M,0.0,0000*71
$GPGSV,1,1,4,1,54,112,20.9,3,66,026,20.9,4,61,177,17.4,19,35,303,14.4*77
$GPRMC,163439.00,A,4124.055154,N,00209.461831,E,002.4,212.7,270426,,,A*50
$GPGGA,163440.00,4124.055100,N,00209.462927,E,1,04,2.40,125.64,M,0.0,M,0.0,0000*75
$GPGSV,1,1,4,1,54,112,20.9,3,66,026,20.9,4,61,177,17.3,19,35,303,14.4*70
$GPRMC,163440.00,A,4124.055100,N,00209.462927,E,001.8,196.4,270426,,,A*59
$GPGGA,163441.00,4124.054967,N,00209.464191,E,1,04,2.40,126.70,M,0.0,M,0.0,0000*79
$GPGSV,1,1,4,1,54,113,20.9,3,66,026,20.9,4,61,177,17.3,19,35,303,14.4*71
$GPRMC,163441.00,A,4124.054967,N,00209.464191,E,001.5,171.8,270426,,,A*5B
$GPGGA,163442.00,4124.056167,N,00209.467032,E,1,04,2.40,127.08,M,0.0,M,0.0,0000*75
$GPGSV,1,1,4,1,54,113,21.0,3,66,026,20.8,4,61,177,17.2,19,35,303,14.4*79
$GPRMC,163442.00,A,4124.056167,N,00209.467032,E,001.6,100.0,270426,,,A*54
$GPGGA,163443.00,4124.056979,N,00209.469616,E,1,04,2.40,127.63,M,0.0,M,0.0,0000*70
$GPGSV,1,1,4,1,54,113,21.1,3,66,026,20.8,4,61,177,17.2,19,35,303,14.4*78
$GPRMC,163443.00,A,4124.056979,N,00209.469616,E,002.6,082.2,270426,,,A*56
$GPGGA,163444.00,4124.058423,N,00209.470988,E,1,05,2.15,128.95,M,0.0,M,0.0,0000*7C
$GPGSV,2,1,5,1,54,113,24.4,3,66,026,20.9,4,61,177,14.5,9,31,205,16.6*4D
$GPGSV,2,2,5,19,35,303,14.4*6D
$GPRMC,163444.00,A,4124.058423,N,00209.470988,E,003.0,064.8,270426,,,A*58
$GPGGA,163445.00,4124.058181,N,00209.471874,E,1,05,2.15,129.42,M,0.0,M,0.0,0000*78
$GPGSV,2,1,5,1,54,113,24.3,3,66,026,20.9,4,61,177,14.5,9,31,205,17.2*4F
$GPGSV,2,2,5,19,35,303,14.4*6D
$GPRMC,163445.00,A,4124.058181,N,00209.471874,E,002.8,070.6,270426,,,A*55
$GPGGA,163446.00,4124.057998,N,00209.471900,E,1,05,2.14,130.26,M,0.0,M,0.0,0000*7D
$GPGSV,2,1,5,1,54,113,24.3,3,66,026,20.9,4,61,177,14.5,9,31,205,17.2*4F
$GPGSV,2,2,5,19,35,303,14.1*68
$GPRMC,163446.00,A,4124.057998,N,00209.471900,E,002.2,074.3,270426,,,A*50
$GPGGA,163447.00,4124.056325,N,00209.471311,E,1,05,2.14,130.47,M,0.0,M,0.0,0000*7C
$GPGSV,2,1,5,1,54,113,24.2,3,66,026,20.9,4,61,177,14.6,9,31,205,16.4*4A
$GPGSV,2,2,5,19,35,303,14.1*68
$GPRMC,163447.00,A,4124.056325,N,00209.471311,E,001.6,116.6,270426,,,A*51
$GPGGA,163448.00,4124.055855,N,00209.470401,E,1,05,2.14,130.83,M,0.0,M,0.0,0000*73
$GPGSV,2,1,5,1,54,113,24.0,3,66,026,20.9,4,61,177,14.6,9,31,205,16.5*49
$GPGSV,2,2,5,19,35,303,14.0*69
$GPRMC,163448.00,A,4124.055855,N,00209.470401,E,001.2,144.6,270426,,,A*55
$GPGGA,163449.00,4124.056627,N,00209.470895,E,1,05,2.14,129.94,M,0.0,M,0.0,0000*75
$GPGSV,2,1,5,1,54,113,24.5,3,66,026,20.8,4,61,177,19.6,9,31,205,16.5*40
$GPGSV,2,2,5,19,35,303,14.0*69
$GPRMC,163449.00,A,4124.056627,N,00209.470895,E,000.7,094.8,270426,,,A*5B
$GPGGA,163450.00,4124.057586,N,00209.471659,E,1,05,2.14,128.76,M,0.0,M,0.0,0000*76
$GPGSV,2,1,5,1,54,113,24.5,3,66,026,20.8,4,61,177,19.6,9,31,205,16.5*40
$GPGSV,2,2,5,19,35,303,14.0*69
$GPRMC,163450.00,A,4124.057586,N,00209.471659,E,001.2,050.0,270426,,,A*51
$GPGGA,163451.00,4124.058892,N,00209.472445,E,1,05,2.14,127.08,M,0.0,M,0.0,0000*7A
$GPGSV,2,1,5,1,54,113,23.6,3,66,026,20.7,4,61,177,19.6,9,31,205,16.5*4B
$GPGSV,2,2,5,19,35,303,13.2*6C
$GPRMC,163451.00,A,4124.058892,N,00209.472445,E,002.1,032.0,270426,,,A*5F
$GPGGA,163452.00,4124.060709,N,00209.473879,E,1,05,2.14,124.63,M,0.0,M,0.0,0000*73
$GPGSV,2,1,5,1,54,113,23.6,3,66,026,20.7,4,61,177,19.5,9,31,205,16.4*49
$GPGSV,2,2,5,19,35,303,13.2*6C
$GPRMC,163452.00,A,4124.060709,N,00209.473879,E,003.3,029.5,270426,,,A*54
$GPGGA,163453.00,4124.062877,N,00209.474970,E,1,05,2.14,122.30,M,0.0,M,0.0,0000*79
$GPGSV,2,1,5,1,54,113,24.8,3,66,026,20.7,4,61,177,19.5,9,31,205,16.6*42
$GPGSV,2,2,5,19,35,303,13.2*6C
$GPRMC,163453.00,A,4124.062877,N,00209.474970,E,004.3,024.6,270426,,,A*57
$GPGGA,163454.00,4124.065848,N,00209.475730,E,1,05,2.14,120.60,M,0.0,M,0.0,0000*79
$GPGSV,2,1,5,1,54,113,23.7,3,66,026,20.6,4,61,177,19.5,9,31,205,16.6*4B
$GPGSV,2,2,5,19,35,303,11.3*6F
$GPRMC,163454.00,A,4124.065848,N,00209.475730,E,005.7,018.6,270426,,,A*5A
$GPGGA,163455.00,4124.067424,N,00209.476340,E,1,05,2.14,118.02,M,0.0,M,0.0,0000*73
$GPGSV,2,1,5,1,54,113,24.3,3,66,026,20.6,4,61,177,19.5,9,31,205,16.7*49
$GPGSV,2,2,5,19,35,303,11.3*6F
$GPRMC,163455.00,A,4124.067424,N,00209.476340,E,005.7,018.0,270426,,,A*59
$GPGGA,163456.00,4124.067397,N,00209.474212,E,1,05,2.14,117.20,M,0.0,M,0.0,0000*74
$GPGSV,2,1,5,1,54,113,24.2,3,66,026,20.6,4,61,177,16.6,9,31,205,16.8*4B
$GPGSV,2,2,5,19,35,303,9.6*53
$GPRMC,163456.00,A,4124.067397,N,00209.474212,E,004.3,006.0,270426,,,A*5B
$GPGGA,163457.00,4124.065952,N,00209.469209,E,1,05,2.14,118.56,M,0.0,M,0.0,0000*7C
$GPGSV,2,1,5,1,54,113,22.6,3,66,026,20.5,4,61,177,16.6,9,31,205,16.9*4B
$GPGSV,2,2,5,19,35,303,9.6*53
$GPRMC,163457.00,A,4124.065952,N,00209.469209,E,003.1,320.7,270426,,,A*58
$GPGGA,163458.00,4124.065591,N,00209.466003,E,1,05,2.14,118.39,M,0.0,M,0.0,0000*7E
$GPGSV,2,1,5,1,54,113,23.6,3,66,026,20.5,4,61,177,16.6,9,31,205,16.9*4A
$GPGSV,2,2,5,19,35,302,9.6*52
$GPRMC,163458.00,A,4124.065591,N,00209.466003,E,003.5,299.6,270426,,,A*55
$GPGGA,163459.00,4124.063410,N,00209.466756,E,1,04,2.80,120.08,M,0.0,M,0.0,0000*73
$GPGSV,1,1,4,1,54,113,22.5,3,66,026,20.4,4,61,177,16.7,9,31,205,16.9*4A
$GPRMC,163459.00,A,4124.063410,N,00209.466756,E,002.2,264.8,270426,,,A*57
$GPGGA,163500.00,4124.061505,N,00209.466978,E,1,04,2.80,121.01,M,0.0,M,0.0,0000*73
$GPGSV,1,1,4,1,54,113,22.6,3,66,026,20.3,4,61,177,19.3,9,31,205,17.0*4D
$GPRMC,163500.00,A,4124.061505,N,00209.466978,E,002.3,228.7,270426,,,A*59
$GPGGA,163501.00,4124.059967,N,00209.467684,E,1,04,2.80,121.24,M,0.0,M,0.0,0000*7B
$GPGSV,1,1,4,1,54,113,22.6,3,66,026,20.3,4,61,177,19.2,9,31,205,17.1*4D
$GPRMC,163501.00,A,4124.059967,N,00209.467684,E,002.6,204.8,270426,,,A*52
$GPGGA,163502.00,4124.057823,N,00209.468157,E,1,04,2.80,122.22,M,0.0,M,0.0,0000*74
$GPGSV,1,1,4,1,54,113,22.7,3,66,026,19.6,4,61,177,19.2,9,31,205,17.1*43
$GPRMC,163502.00,A,4124.057823,N,00209.468157,E,003.5,190.9,270426,,,A*55
$GPGGA,163503.00,4124.055795,N,00209.469077,E,1,04,2.80,123.70,M,0.0,M,0.0,0000*71
$GPGSV,1,1,4,1,54,113,22.7,3,66,026,19.6,4,61,177,19.1,9,31,205,17.2*43
$GPRMC,163503.00,A,4124.055795,N,00209.469077,E,004.1,181.7,270426,,,A*5B
$GPGGA,163504.00,4124.056014,N,00209.461164,E,1,05,2.17,125.50,M,0.0,M,0.0,0000*7B
$GPGSV,2,1,5,1,54,113,22.8,3,66,026,18.7,4,61,177,19.1,9,31,205,17.2*4E
$GPGSV,2,2,5,17,50,265,17.5*63
$GPRMC,163504.00,A,4124.056014,N,00209.461164,E,004.8,229.6,270426,,,A*53
$GPGGA,163505.00,4124.056974,N,00209.457065,E,1,05,2.17,126.25,M,0.0,M,0.0,0000*71
$GPGSV,2,1,5,1,54,113,22.8,3,66,026,18.8,4,61,177,19.0,9,31,205,17.2*40
$GPGSV,2,2,5,17,50,265,17.5*63
$GPRMC,163505.00,A,4124.056974,N,00209.457065,E,005.2,247.5,270426,,,A*58
$GPGGA,163506.00,4124.057859,N,00209.458122,E,1,05,2.17,126.15,M,0.0,M,0.0,0000*73
$GPGSV,2,1,5,1,54,113,22.9,3,66,026,18.8,4,61,177,18.9,9,31,205,17.3*48
$GPGSV,2,2,5,17,50,265,14.0*65
$GPRMC,163506.00,A,4124.057859,N,00209.458122,E,003.5,251.2,270426,,,A*58
$GPGGA,163507.00,4124.058714,N,00209.458210,E,1,05,2.16,126.07,M,0.0,M,0.0,0000*7B
$GPGSV,2,1,5,1,54,113,23.0,3,66,026,18.7,4,61,177,18.8,9,31,205,17.3*4E
$GPGSV,2,2,5,17,50,265,17.9*6F
$GPRMC,163507.00,A,4124.058714,N,00209.458210,E,002.5,261.6,270426,,,A*54
$GPGGA,163508.00,4124.059430,N,00209.458517,E,1,05,2.16,125.98,M,0.0,M,0.0,0000*75
$GPGSV,2,1,5,1,54,113,23.0,3,66,026,18.7,4,61,177,18.7,9,31,205,17.3*41
$GPGSV,2,2,5,17,50,265,18.0*69
$GPRMC,163508.00,A,4124.059430,N,00209.458517,E,001.7,275.2,270426,,,A*5F
$GPGGA,163509.00,4124.055207,N,00209.457431,E,1,05,2.16,128.35,M,0.0,M,0.0,0000*7A
$GPGSV,2,1,5,1,54,113,23.1,3,66,026,18.7,4,61,177,18.7,9,31,205,17.4*47
$GPGSV,2,2,5,17,50,265,18.1*68
$GPRMC,163509.00,A,4124.055207,N,00209.457431,E,003.2,216.5,270426,,,A*5F
$GPGGA,163510.00,4124.051419,N,00209.456850,E,1,05,2.16,130.90,M,0.0,M,0.0,0000*73
$GPGSV,2,1,5,1,54,113,23.1,3,66,026,18.7,4,61,177,18.7,9,32,205,17.4*44
$GPGSV,2,2,5,17,50,265,18.2*6B
$GPRMC,163510.00,A,4124.051419,N,00209.456850,E,004.8,201.6,270426,,,A*58
$GPGGA,163511.00,4124.048017,N,00209.457963,E,1,05,2.16,132.87,M,0.0,M,0.0,0000*74
$GPGSV,2,1,5,1,54,113,23.2,3,66,026,18.7,4,61,177,18.7,9,32,205,17.4*47
$GPGSV,2,2,5,17,50,265,18.1*68
$GPRMC,163511.00,A,4124.048017,N,00209.457963,E,005.7,187.8,270426,,,A*56
$GPGGA,163512.00,4124.046784,N,00209.458453,E,1,05,2.16,134.17,M,0.0,M,0.0,0000*7A
$GPGSV,2,1,5,1,54,113,24.4,3,66,026,18.7,4,61,177,18.7,9,32,205,17.4*46
$GPGSV,2,2,5,17,50,265,18.1*68
$GPRMC,163512.00,A,4124.046784,N,00209.458453,E,005.3,183.8,270426,,,A*57
$GPGGA,163513.00,4124.048812,N,00209.460306,E,1,05,2.16,134.03,M,0.0,M,0.0,0000*7C
$GPGSV,2,1,5,1,54,113,23.5,3,66,026,18.6,4,61,177,14.6,9,32,205,17.5*4D
$GPGSV,2,2,5,17,50,265,18.1*68
$GPRMC,163513.00,A,4124.048812,N,00209.460306,E,003.2,165.0,270426,,,A*53
$GPGGA,163514.00,4124.050279,N,00209.461622,E,1,05,2.16,135.16,M,0.0,M,0.0,0000*72
$GPGSV,2,1,5,1,54,113,24.0,3,66,026,18.5,4,61,177,14.6,9,32,205,17.5*4C
$GPGSV,2,2,5,17,50,265,18.1*68
$GPRMC,163514.00,A,4124.050279,N,00209.461622,E,002.2,143.0,270426,,,A*5D
$GPGGA,163515.00,4124.049947,N,00209.463246,E,1,05,2.16,137.68,M,0.0,M,0.0,0000*72
$GPGSV,2,1,5,1,53,113,24.9,3,66,026,18.4,4,61,177,14.6,9,32,205,20.4*46
$GPGSV,2,2,5,17,50,265,18.1*68
$GPRMC,163515.00,A,4124.049947,N,00209.463246,E,002.6,136.2,270426,,,A*52
$GPGGA,163516.00,4124.049969,N,00209.466435,E,1,05,2.16,138.60,M,0.0,M,0.0,0000*7D
$GPGSV,2,1,5,1,53,113,23.4,3,66,026,18.3,4,61,177,12.3,9,32,205,20.3*4F
$GPGSV,2,2,5,17,50,265,18.1*68
$GPRMC,163516.00,A,4124.049969,N,00209.466435,E,003.5,119.2,270426,,,A*55
$GPGGA,163517.00,4124.049595,N,00209.468505,E,1,05,2.16,139.97,M,0.0,M,0.0,0000*76
$GPGSV,2,1,5,1,53,113,23.4,3,66,026,18.2,4,61,177,12.3,9,32,205,20.3*4E
$GPGSV,2,2,5,17,50,265,18.1*68
$GPRMC,163517.00,A,4124.049595,N,00209.468505,E,003.8,116.2,270426,,,A*55
$GPGGA,163518.00,4124.050351,N,00209.470396,E,1,05,2.16,140.23,M,0.0,M,0.0,0000*7B
$GPGSV,2,1,5,1,53,113,23.3,3,66,026,18.2,4,61,177,16.7,9,32,205,20.2*48
$GPGSV,2,2,5,17,50,265,18.1*68
$GPRMC,163518.00,A,4124.050351,N,00209.470396,E,003.8,103.1,270426,,,A*5E
$GPGGA,163519.00,4124.051326,N,00209.472277,E,1,05,2.16,140.15,M,0.0,M,0.0,0000*72
$GPGSV,2,1,5,1,53,113,23.3,3,66,026,18.2,4,61,177,16.7,9,32,205,20.2*48
$GPGSV,2,2,5,17,50,265,18.1*68
$GPRMC,163519.00,A,4124.051326,N,00209.472277,E,004.0,091.0,270426,,,A*56
$GPGGA,163520.00,4124.055003,N,00209.474216,E,1,05,2.16,140.10,M,0.0,M,0.0,0000*7C
$GPGSV,2,1,5,1,53,113,23.3,3,66,026,18.2,4,61,177,16.7,9,32,205,20.1*4B
$GPGSV,2,2,5,17,50,265,18.1*68
$GPRMC,163520.00,A,4124.055003,N,00209.474216,E,004.6,061.8,270426,,,A*5C
$GPGGA,163521.00,4124.059979,N,00209.473009,E,1,04,2.79,139.77,M,0.0,M,0.0,0000*79
$GPGSV,1,1,4,1,53,113,23.3,3,66,026,18.2,4,61,177,16.7,9,32,205,19.9*4B
$GPRMC,163521.00,A,4124.059979,N,00209.473009,E,005.5,028.2,270426,,,A*5B
$GPGGA,163522.00,4124.062671,N,00209.471383,E,1,04,2.79,138.37,M,0.0,M,0.0,0000*73
$GPGSV,1,1,4,1,53,113,23.3,3,66,026,18.1,4,61,177,16.8,9,32,205,15.8*4A
$GPRMC,163522.00,A,4124.062671,N,00209.471383,E,005.7,012.0,270426,,,A*5D
$GPGGA,163523.00,4124.064536,N,00209.469155,E,1,04,2.79,136.90,M,0.0,M,0.0,0000*77
$GPGSV,1,1,4,1,53,113,23.3,3,66,026,18.1,4,61,177,16.9,9,32,205,15.9*4A
$GPRMC,163523.00,A,4124.064536,N,00209.469155,E,005.7,357.7,270426,,,A*5F
$GPGGA,163524.00,4124.065667,N,00209.466769,E,1,04,2.79,135.07,M,0.0,M,0.0,0000*7D
$GPGSV,1,1,4,1,53,113,23.2,3,66,026,18.2,4,61,177,17.1,9,32,205,19.3*47
$GPRMC,163524.00,A,4124.065667,N,00209.466769,E,005.5,345.7,270426,,,A*59
$GPGGA,163525.00,4124.066201,N,00209.465207,E,1,04,2.78,133.88,M,0.0,M,0.0,0000*75
$GPGSV,1,1,4,1,53,113,23.2,3,66,026,18.2,4,61,177,17.2,9,32,205,19.4*43
$GPRMC,163525.00,A,4124.066201,N,00209.465207,E,005.0,338.6,270426,,,A*5F
$GPGGA,163526.00,4124.066460,N,00209.464235,E,1,04,2.78,132.46,M,0.0,M,0.0,0000*74
$GPGSV,1,1,4,1,53,113,23.1,3,66,026,18.3,4,61,177,17.1,9,32,205,19.4*42
$GPRMC,163526.00,A,4124.066460,N,00209.464235,E,004.5,333.7,270426,,,A*53
$GPGGA,163527.00,4124.066591,N,00209.463802,E,1,04,2.78,131.31,M,0.0,M,0.0,0000*70
$GPGSV,1,1,4,1,53,113,23.1,3,66,026,18.2,4,61,177,17.1,9,32,205,18.6*40
$GPRMC,163527.00,A,4124.066591,N,00209.463802,E,003.8,330.6,270426,,,A*5C
$GPGGA,163528.00,4124.066551,N,00209.463638,E,1,04,2.78,130.16,M,0.0,M,0.0,0000*70
$GPGSV,1,1,4,1,53,113,23.1,3,66,026,18.2,4,61,177,17.1,9,32,205,18.6*40
$GPRMC,163528.00,A,4124.066551,N,00209.463638,E,003.1,329.0,270426,,,A*5F
$GPGGA,163529.00,4124.069166,N,00209.464671,E,1,04,2.78,126.11,M,0.0,M,0.0,0000*74
$GPGSV,1,1,4,1,53,113,23.0,3,66,026,18.2,4,61,177,14.3,9,32,205,18.6*40
$GPRMC,163529.00,A,4124.069166,N,00209.464671,E,004.0,346.8,270426,,,A*5C
$GPGGA,163530.00,4124.070552,N,00209.465744,E,1,04,2.78,122.30,M,0.0,M,0.0,0000*76
$GPGSV,1,1,4,1,53,113,23.0,3,66,026,18.3,4,61,177,14.3,9,32,205,18.6*41
$GPRMC,163530.00,A,4124.070552,N,00209.465744,E,003.9,356.4,270426,,,A*5A
$GPGGA,163531.00,4124.070521,N,00209.466017,E,1,04,2.78,119.94,M,0.0,M,0.0,0000*77
$GPGSV,1,1,4,1,53,113,22.9,3,66,026,18.2,4,61,177,17.7,9,32,205,18.6*4F
$GPRMC,163531.00,A,4124.070521,N,00209.466017,E,003.2,359.2,270426,,,A*5F
$GPGGA,163532.00,4124.070312,N,00209.466059,E,1,04,2.78,117.65,M,0.0,M,0.0,0000*78
$GPGSV,1,1,4,1,53,113,19.8,3,66,026,18.1,4,61,177,17.7,9,32,205,18.7*44
$GPRMC,163532.00,A,4124.070312,N,00209.466059,E,002.4,359.7,270426,,,A*52
$GPGGA,163533.00,4124.067439,N,00209.465541,E,1,05,2.11,116.60,M,0.0,M,0.0,0000*74
$GPGSV,2,1,5,1,53,113,19.9,3,66,026,18.0,4,61,177,17.8,9,32,205,18.7*49
$GPGSV,2,2,5,19,35,302,14.3*6B
$GPRMC,163533.00,A,4124.067439,N,00209.465541,E,000.2,,270426,,,A*76
$GPGGA,163534.00,4124.066288,N,00209.465842,E,1,05,2.11,115.18,M,0.0,M,0.0,0000*7C
$GPGSV,2,1,5,1,53,113,19.9,3,66,026,17.9,4,61,177,17.8,9,32,205,18.6*4E
$GPGSV,2,2,5,19,35,302,14.3*6B
$GPRMC,163534.00,A,4124.066288,N,00209.465842,E,000.6,178.7,270426,,,A*51
$GPGGA,163535.00,4124.064848,N,00209.466277,E,1,05,2.11,113.19,M,0.0,M,0.0,0000*71
$GPGSV,2,1,5,1,53,113,20.0,3,66,026,17.8,4,61,177,17.9,9,32,205,18.6*4D
$GPGSV,2,2,5,19,35,302,14.3*6B
$GPRMC,163535.00,A,4124.064848,N,00209.466277,E,001.4,169.7,270426,,,A*58
$GPGGA,163536.00,4124.063660,N,00209.467727,E,1,05,2.11,111.78,M,0.0,M,0.0,0000*75
$GPGSV,2,1,5,1,53,113,20.0,3,66,026,17.7,4,61,176,17.8,9,32,205,18.6*42
$GPGSV,2,2,5,19,35,302,14.4*6C
$GPRMC,163536.00,A,4124.063660,N,00209.467727,E,002.1,153.3,270426,,,A*52
$GPGGA,163537.00,4124.062266,N,00209.468219,E,1,05,2.11,111.18,M,0.0,M,0.0,0000*76
$GPGSV,2,1,5,1,53,113,20.0,3,66,026,17.7,4,62,176,17.9,9,32,205,18.5*43
$GPGSV,2,2,5,19,35,302,14.5*6D
$GPRMC,163537.00,A,4124.062266,N,00209.468219,E,002.7,158.3,270426,,,A*5A
$GPGGA,163538.00,4124.060421,N,00209.469316,E,1,05,2.11,110.19,M,0.0,M,0.0,0000*71
$GPGSV,2,1,5,1,53,113,20.0,3,66,026,14.4,4,62,176,17.9,9,32,205,18.5*43
$GPGSV,2,2,5,19,35,302,17.2*69
$GPRMC,163538.00,A,4124.060421,N,00209.469316,E,003.6,158.3,270426,,,A*5D
$GPGGA,163539.00,4124.060953,N,00209.469402,E,1,05,2.11,108.33,M,0.0,M,0.0,0000*7B
$GPGSV,2,1,5,1,53,113,20.0,3,66,026,14.4,4,62,176,17.9,9,32,205,18.5*43
$GPGSV,2,2,5,19,35,302,17.2*69
$GPRMC,163539.00,A,4124.060953,N,00209.469402,E,002.3,150.6,270426,,,A*5F
$GPGGA,163540.00,4124.061530,N,00209.469145,E,1,05,2.11,106.60,M,0.0,M,0.0,0000*73
$GPGSV,2,1,5,1,53,113,19.9,3,66,026,14.4,4,62,176,17.9,9,32,205,18.5*40
$GPGSV,2,2,5,19,35,302,17.2*69
$GPRMC,163540.00,A,4124.061530,N,00209.469145,E,001.4,145.0,270426,,,A*59
$GPGGA,163541.00,4124.061055,N,00209.470917,E,1,05,2.11,105.27,M,0.0,M,0.0,0000*73
$GPGSV,2,1,5,1,53,113,19.9,3,66,026,14.4,4,62,176,17.8,9,32,205,18.6*42
$GPGSV,2,2,5,19,35,302,14.4*6C
$GPRMC,163541.00,A,4124.061055,N,00209.470917,E,002.0,130.7,270426,,,A*5B
$GPGGA,163542.00,4124.060176,N,00209.472417,E,1,05,2.11,103.66,M,0.0,M,0.0,0000*7D
$GPGSV,2,1,5,1,53,113,19.8,3,66,027,14.4,4,62,176,17.9,9,32,205,18.5*40
$GPGSV,2,2,5,19,35,302,14.4*6C
$GPRMC,163542.00,A,4124.060176,N,00209.472417,E,002.6,132.3,270426,,,A*56
$GPGGA,163543.00,4124.060390,N,00209.473366,E,1,05,2.11,102.13,M,0.0,M,0.0,0000*75
$GPGSV,2,1,5,1,53,113,17.2,3,66,027,17.9,4,62,176,18.0,9,32,205,18.5*4C
$GPGSV,2,2,5,19,35,302,14.2*6A
$GPRMC,163543.00,A,4124.060390,N,00209.473366,E,002.2,120.1,270426,,,A*58
$GPGGA,163544.00,4124.060145,N,00209.472843,E,1,05,2.11,101.93,M,0.0,M,0.0,0000*7E
$GPGSV,2,1,5,1,53,113,17.3,3,66,027,17.9,4,62,176,18.1,9,32,205,18.5*4C
$GPGSV,2,2,5,19,35,302,14.2*6A
$GPRMC,163544.00,A,4124.060145,N,00209.472843,E,001.6,128.5,270426,,,A*53
$GPGGA,163545.00,4124.059928,N,00209.471766,E,1,05,2.11,102.08,M,0.0,M,0.0,0000*7C
$GPGSV,2,1,5,1,53,113,17.3,3,66,027,17.9,4,62,176,18.1,9,32,205,18.4*4D
$GPGSV,2,2,5,19,35,302,14.2*6A
$GPRMC,163545.00,A,4124.059928,N,00209.471766,E,001.1,153.1,270426,,,A*5F
$GPGGA,163546.00,4124.060148,N,00209.470645,E,1,05,2.11,101.39,M,0.0,M,0.0,0000*7B
$GPGSV,2,1,5,1,53,113,17.4,3,66,027,14.9,4,62,176,18.2,9,32,205,18.4*4A
$GPGSV,2,2,5,19,35,302,16.1*6B
$GPRMC,163546.00,A,4124.060148,N,00209.470645,E,000.6,182.8,270426,,,A*5A
$GPGGA,163547.00,4124.059507,N,00209.470016,E,1,05,2.10,99.93,M,0.0,M,0.0,0000*4E
$GPGSV,2,1,5,1,53,113,17.4,3,66,027,14.9,4,62,176,18.2,9,32,205,18.3*4D
$GPGSV,2,2,5,19,35,302,16.1*6B
$GPRMC,163547.00,A,4124.059507,N,00209.470016,E,000.9,198.4,270426,,,A*56
$GPGGA,163548.00,4124.058521,N,00209.470175,E,1,05,2.10,98.56,M,0.0,M,0.0,0000*48
$GPGSV,2,1,5,1,53,113,17.4,3,66,027,14.9,4,62,176,18.3,9,32,205,18.3*4C
$GPGSV,2,2,5,19,35,302,16.1*6B
$GPRMC,163548.00,A,4124.058521,N,00209.470175,E,001.4,185.0,270426,,,A*5C
$GPGGA,163549.00,4124.059111,N,00209.474143,E,1,05,2.10,96.04,M,0.0,M,0.0,0000*47
$GPGSV,2,1,5,1,53,113,17.4,3,66,027,14.9,4,62,176,18.2,9,32,205,15.8*4B
$GPGSV,2,2,5,19,35,302,16.2*68
$GPRMC,163549.00,A,4124.059111,N,00209.474143,E,001.9,109.8,270426,,,A*5B
$GPGGA,163550.00,4124.059033,N,00209.474776,E,1,05,2.10,94.94,M,0.0,M,0.0,0000*45
$GPGSV,2,1,5,1,53,113,17.4,3,66,027,14.8,4,62,176,18.3,9,32,205,15.8*4B
$GPGSV,2,2,5,19,35,302,16.2*68
$GPRMC,163550.00,A,4124.059033,N,00209.474776,E,001.8,108.7,270426,,,A*5D
$GPGGA,163551.00,4124.058035,N,00209.475248,E,1,05,2.10,93.24,M,0.0,M,0.0,0000*46
$GPGSV,2,1,5,1,53,113,17.5,3,66,027,14.8,4,62,176,18.3,9,32,205,15.8*4A
$GPGSV,2,2,5,19,35,302,16.3*69
$GPRMC,163551.00,A,4124.058035,N,00209.475248,E,002.0,127.2,270426,,,A*51
$GPGGA,163552.00,4124.058442,N,00209.475789,E,1,05,2.10,91.24,M,0.0,M,0.0,0000*4B
$GPGSV,2,1,5,1,53,113,17.5,3,66,027,14.8,4,62,176,18.3,9,32,205,15.8*4A
$GPGSV,2,2,5,19,35,302,16.3*69
$GPRMC,163552.00,A,4124.058442,N,00209.475789,E,001.8,119.3,270426,,,A*59
$GPGGA,163553.00,4124.058011,N,00209.475582,E,1,05,2.10,89.57,M,0.0,M,0.0,0000*4C
$GPGSV,2,1,5,1,53,113,17.5,3,66,027,14.8,4,62,176,18.4,9,32,205,15.8*4D
$GPGSV,2,2,5,19,35,302,16.4*6E
$GPRMC,163553.00,A,4124.058011,N,00209.475582,E,001.7,131.0,270426,,,A*55
$GPGGA,163554.00,4124.058628,N,00209.476493,E,1,05,2.10,88.15,M,0.0,M,0.0,0000*42
$GPGSV,2,1,5,1,53,113,17.5,3,66,027,17.5,4,62,176,18.4,9,32,205,15.8*43
$GPGSV,2,2,5,19,35,302,16.5*6F
$GPRMC,163554.00,A,4124.058628,N,00209.476493,E,001.6,102.1,270426,,,A*5C
$GPGGA,163555.00,4124.057213,N,00209.478261,E,1,04,2.77,90.22,M,0.0,M,0.0,0000*48
$GPGSV,1,1,4,1,53,113,14.4,3,66,027,17.5,4,62,176,18.5,9,32,205,14.1*4A
$GPRMC,163555.00,A,4124.057213,N,00209.478261,E,002.7,122.8,270426,,,A*52
$GPGGA,163556.00,4124.055400,N,00209.480769,E,1,04,2.77,93.14,M,0.0,M,0.0,0000*41
$GPGSV,1,1,4,1,53,113,14.4,3,66,027,17.5,4,62,176,18.5,9,32,205,14.1*4A
$GPRMC,163556.00,A,4124.055400,N,00209.480769,E,003.9,128.6,270426,,,A*56
$GPGGA,163557.00,4124.055183,N,00209.478846,E,1,04,2.37,91.77,M,0.0,M,0.0,0000*48
$GPGSV,1,1,4,1,53,113,14.4,3,66,027,17.6,4,62,176,18.7,19,35,302,18.0*76
$GPRMC,163557.00,A,4124.055183,N,00209.478846,E,002.7,141.2,270426,,,A*58
$GPGGA,163558.00,4124.054490,N,00209.477245,E,1,04,2.37,90.27,M,0.0,M,0.0,0000*43
$GPGSV,1,1,4,1,53,113,19.6,3,66,027,17.6,4,62,176,18.8,19,35,302,18.0*76
$GPRMC,163558.00,A,4124.054490,N,00209.477245,E,002.4,164.6,270426,,,A*57
$GPGGA,163559.00,4124.052929,N,00209.474389,E,1,04,2.37,88.92,M,0.0,M,0.0,0000*4E
$GPGSV,1,1,4,1,53,113,19.7,3,66,027,17.6,4,62,176,18.9,19,35,302,18.7*71
$GPRMC,163559.00,A,4124.052929,N,00209.474389,E,003.1,196.2,270426,,,A*50
$GPGGA,163600.00,4124.051983,N,00209.471222,E,1,04,2.37,88.14,M,0.0,M,0.0,0000*49
$GPGSV,1,1,4,1,53,113,19.6,3,66,027,17.6,4,62,176,18.9,19,35,302,18.7*70
$GPRMC,163600.00,A,4124.051983,N,00209.471222,E,003.6,217.7,270426,,,A*51
$GPGGA,163601.00,4124.051369,N,00209.466891,E,1,05,1.94,87.87,M,0.0,M,0.0,0000*4C
$GPGSV,2,1,5,1,53,113,19.5,3,66,027,14.0,4,62,176,18.8,17,50,264,17.5*74
$GPGSV,2,2,5,19,35,302,18.7*63
$GPRMC,163601.00,A,4124.051369,N,00209.466891,E,004.6,235.2,270426,,,A*58
$GPGGA,163602.00,4124.050882,N,00209.464504,E,1,05,1.94,87.70,M,0.0,M,0.0,0000*4B
$GPGSV,2,1,5,1,53,113,19.5,3,66,027,14.0,4,62,176,18.9,17,50,264,17.5*75
$GPGSV,2,2,5,19,35,302,18.6*62
$GPRMC,163602.00,A,4124.050882,N,00209.464504,E,004.8,239.4,270426,,,A*53
$GPGGA,163603.00,4124.050974,N,00209.463284,E,1,05,1.94,87.97,M,0.0,M,0.0,0000*43
$GPGSV,2,1,5,1,53,113,14.5,3,66,027,14.0,4,62,176,18.9,17,50,264,18.6*74
$GPGSV,2,2,5,19,35,302,18.6*62
$GPRMC,163603.00,A,4124.050974,N,00209.463284,E,004.4,243.9,270426,,,A*5E
$GPGGA,163604.00,4124.052914,N,00209.464403,E,1,05,1.94,87.24,M,0.0,M,0.0,0000*46
$GPGSV,2,1,5,1,53,113,18.1,3,66,027,17.5,4,62,176,19.0,17,50,264,18.3*77
$GPGSV,2,2,5,19,35,302,18.4*60
$GPRMC,163604.00,A,4124.052914,N,00209.464403,E,002.4,263.0,270426,,,A*5E
$GPGGA,163605.00,4124.053997,N,00209.463793,E,1,05,1.93,87.35,M,0.0,M,0.0,0000*47
$GPGSV,2,1,5,1,53,113,18.1,3,66,027,17.6,4,62,176,19.0,17,50,264,19.4*72
$GPGSV,2,2,5,19,35,302,18.3*67
$GPRMC,163605.00,A,4124.053997,N,00209.463793,E,001.7,282.1,270426,,,A*56
$GPGGA,163606.00,4124.054963,N,00209.469608,E,1,05,1.93,84.30,M,0.0,M,0.0,0000*47
$GPGSV,2,1,5,1,53,113,13.7,3,66,027,17.6,4,62,176,19.1,17,50,264,19.4*7E
$GPGSV,2,2,5,19,35,302,13.5*6A
$GPRMC,163606.00,A,4124.054963,N,00209.469608,E,002.7,073.0,270426,,,A*5E
$GPGGA,163607.00,,,,,1,04, Inf,,M,0.0,M,0.0,0000*29
$GPRMC,163607.00,A,,,,,,,270426,,,A*65
$GPGGA,163608.00,,,,,1,04, Inf,,M,0.0,M,0.0,0000*26
$GPRMC,163608.00,A,,,,,,,270426,,,A*6A
$GPGGA,163609.00,,,,,1,04, Inf,,M,0.0,M,0.0,0000*27
$GPRMC,163609.00,A,,,,,,,270426,,,A*6B
$GPGGA,163610.00,,,,,1,04, Inf,,M,0.0,M,0.0,0000*2F
$GPRMC,163610.00,A,,,,,,,270426,,,A*63
$GPGGA,163611.00,,,,,1,04, Inf,,M,0.0,M,0.0,0000*2E
$GPRMC,163611.00,A,,,,,,,270426,,,A*62
$GPGGA,163612.00,,,,,1,04, Inf,,M,0.0,M,0.0,0000*2D
$GPRMC,163612.00,A,,,,,,,270426,,,A*61
$GPGGA,163613.00,,,,,1,05, Inf,,M,0.0,M,0.0,0000*2D
$GPRMC,163613.00,A,,,,,,,270426,,,A*60
$GPGGA,163614.00,,,,,1,04, Inf,,M,0.0,M,0.0,0000*2B
$GPRMC,163614.00,A,,,,,,,270426,,,A*67
$GPGGA,163615.00,,,,,1,04, Inf,,M,0.0,M,0.0,0000*2A
$GPRMC,163615.00,A,,,,,,,270426,,,A*66
$GPGGA,163616.00,,,,,1,04, Inf,,M,0.0,M,0.0,0000*29
$GPRMC,163616.00,A,,,,,,,270426,,,A*65
$GPGGA,163617.00,,,,,1,05, Inf,,M,0.0,M,0.0,0000*29
$GPRMC,163617.00,A,,,,,,,270426,,,A*64
$GPGGA,163618.00,,,,,1,05, Inf,,M,0.0,M,0.0,0000*26
$GPRMC,163618.00,A,,,,,,,270426,,,A*6B
$GPGGA,163619.00,,,,,1,05, Inf,,M,0.0,M,0.0,0000*27
$GPRMC,163619.00,A,,,,,,,270426,,,A*6A
$GPGGA,163620.00,,,,,1,05, Inf,,M,0.0,M,0.0,0000*2D
$GPRMC,163620.00,A,,,,,,,270426,,,A*60
$GPGGA,163621.00,,,,,1,05, Inf,,M,0.0,M,0.0,0000*2C
$GPRMC,163621.00,A,,,,,,,270426,,,A*61
$GPGGA,163622.00,,,,,1,05, Inf,,M,0.0,M,0.0,0000*2F
$GPRMC,163622.00,A,,,,,,,270426,,,A*62
$GPGGA,163623.00,,,,,1,05, Inf,,M,0.0,M,0.0,0000*2E
$GPRMC,163623.00,A,,,,,,,270426,,,A*63
$GPGGA,163624.00,,,,,1,05, Inf,,M,0.0,M,0.0,0000*29
$GPRMC,163624.00,A,,,,,,,270426,,,A*64
$GPGGA,163625.00,,,,,1,05, Inf,,M,0.0,M,0.0,0000*28
$GPRMC,163625.00,A,,,,,,,270426,,,A*65
$GPGGA,163626.00,,,,,1,05, Inf,,M,0.0,M,0.0,0000*2B
$GPRMC,163626.00,A,,,,,,,270426,,,A*66
$GPGGA,163627.00,,,,,1,05, Inf,,M,0.0,M,0.0,0000*2A
$GPRMC,163627.00,A,,,,,,,270426,,,A*67
$GPGGA,163628.00,,,,,1,05, Inf,,M,0.0,M,0.0,0000*25
$GPRMC,163628.00,A,,,,,,,270426,,,A*68
$GPGGA,163629.00,,,,,1,05, Inf,,M,0.0,M,0.0,0000*24
$GPRMC,163629.00,A,,,,,,,270426,,,A*69
$GPGGA,163630.00,,,,,1,05, Inf,,M,0.0,M,0.0,0000*2C
$GPRMC,163630.00,A,,,,,,,270426,,,A*61
$GPGGA,163631.00,,,,,1,05, Inf,,M,0.0,M,0.0,0000*2D
$GPRMC,163631.00,A,,,,,,,270426,,,A*60
$GPGGA,163632.00,,,,,1,05, Inf,,M,0.0,M,0.0,0000*2E
$GPRMC,163632.00,A,,,,,,,270426,,,A*63
$GPGGA,163633.00,,,,,1,05, Inf,,M,0.0,M,0.0,0000*2F
$GPRMC,163633.00,A,,,,,,,270426,,,A*62
$GPGGA,163634.00,,,,,1,05, Inf,,M,0.0,M,0.0,0000*28
$GPRMC,163634.00,A,,,,,,,270426,,,A*65
$GPGGA,163635.00,,,,,1,05, Inf,,M,0.0,M,0.0,0000*29
$GPRMC,163635.00,A,,,,,,,270426,,,A*64
$GPGGA,163636.00,,,,,1,04, Inf,,M,0.0,M,0.0,0000*2B
$GPRMC,163636.00,A,,,,,,,270426,,,A*67
$GPGGA,163637.00,,,,,1,04, Inf,,M,0.0,M,0.0,0000*2A
$GPRMC,163637.00,A,,,,,,,270426,,,A*66
$GPGGA,163638.00,,,,,1,04, Inf,,M,0.0,M,0.0,0000*25
$GPRMC,163638.00,A,,,,,,,270426,,,A*69
$GPGGA,163639.00,,,,,1,04, Inf,,M,0.0,M,0.0,0000*24
$GPRMC,163639.00,A,,,,,,,270426,,,A*68
$GPGGA,163640.00,,,,,1,04, Inf,,M,0.0,M,0.0,0000*2A
$GPRMC,163640.00,A,,,,,,,270426,,,A*66
$GPGGA,163641.00,,,,,1,04, Inf,,M,0.0,M,0.0,0000*2B
$GPRMC,163641.00,A,,,,,,,270426,,,A*67
$GPGGA,163642.00,,,,,1,05, Inf,,M,0.0,M,0.0,0000*29
$GPRMC,163642.00,A,,,,,,,270426,,,A*64
$GPGGA,163643.00,,,,,1,05, Inf,,M,0.0,M,0.0,0000*28
$GPRMC,163643.00,A,,,,,,,270426,,,A*65
$GPGGA,163644.00,,,,,1,04, Inf,,M,0.0,M,0.0,0000*2E
$GPRMC,163644.00,A,,,,,,,270426,,,A*62
$GPGGA,163645.00,,,,,1,04, Inf,,M,0.0,M,0.0,0000*2F
$GPRMC,163645.00,A,,,,,,,270426,,,A*63
$GPGGA,163646.00,,,,,1,04, Inf,,M,0.0,M,0.0,0000*2C
$GPRMC,163646.00,A,,,,,,,270426,,,A*60
$GPGGA,163647.00,4124.063078,N,00209.460555,E,1,05,1.78,103.97,M,0.0,M,0.0,0000*71
$GPGSV,2,1,5,1,53,114,19.7,4,62,176,18.4,9,32,205,14.6,17,50,264,14.3*77
$GPGSV,2,2,5,19,35,302,14.5*6D
$GPRMC,163647.00,A,4124.063078,N,00209.460555,E,001.9,041.8,270426,,,A*5A
$GPGGA,163648.00,4124.063054,N,00209.460593,E,1,05,1.78,114.88,M,0.0,M,0.0,0000*72
$GPGSV,2,1,5,1,53,114,19.8,4,62,176,18.4,9,32,205,14.6,17,50,264,14.3*78
$GPGSV,2,2,5,19,35,302,14.6*6E
$GPRMC,163648.00,A,4124.063054,N,00209.460593,E,001.9,019.6,270426,,,A*52
$GPGGA,163649.00,4124.063444,N,00209.460533,E,1,05,1.78,119.36,M,0.0,M,0.0,0000*74
$GPGSV,2,1,5,1,53,114,19.8,4,62,176,18.5,9,32,205,14.6,17,50,264,14.3*79
$GPGSV,2,2,5,19,35,302,14.7*6F
$GPRMC,163649.00,A,4124.063444,N,00209.460533,E,001.6,011.9,270426,,,A*54
$GPGGA,163650.00,,,,,1,04, Inf,,M,0.0,M,0.0,0000*2B
$GPRMC,163650.00,A,,,,,,,270426,,,A*67
$GPGGA,163651.00,,,,,1,04, Inf,,M,0.0,M,0.0,0000*2A
$GPRMC,163651.00,A,,,,,,,270426,,,A*66
$GPGGA,163652.00,,,,,1,04, Inf,,M,0.0,M,0.0,0000*29
$GPRMC,163652.00,A,,,,,,,270426,,,A*65
$GPGGA,163653.00,,,,,1,04, Inf,,M,0.0,M,0.0,0000*28
$GPRMC,163653.00,A,,,,,,,270426,,,A*64
$GPGGA,163654.00,,,,,1,04, Inf,,M,0.0,M,0.0,0000*2F
$GPRMC,163654.00,A,,,,,,,270426,,,A*63
$GPGGA,163655.00,,,,,1,04, Inf,,M,0.0,M,0.0,0000*2E
$GPRMC,163655.00,A,,,,,,,270426,,,A*62
$GPGGA,163656.00,,,,,1,05, Inf,,M,0.0,M,0.0,0000*2C
$GPRMC,163656.00,A,,,,,,,270426,,,A*61
$GPGGA,163657.00,,,,,1,05, Inf,,M,0.0,M,0.0,0000*2D
$GPRMC,163657.00,A,,,,,,,270426,,,A*60
$GPGGA,163658.00,,,,,1,04, Inf,,M,0.0,M,0.0,0000*23
$GPRMC,163658.00,A,,,,,,,270426,,,A*6F
$GPGGA,163659.00,,,,,1,04, Inf,,M,0.0,M,0.0,0000*22
$GPRMC,163659.00,A,,,,,,,270426,,,A*6E
$GPGGA,163700.00,,,,,1,04, Inf,,M,0.0,M,0.0,0000*2F
$GPRMC,163700.00,A,,,,,,,270426,,,A*63
$GPGGA,163701.00,,,,,1,04, Inf,,M,0.0,M,0.0,0000*2E
$GPRMC,163701.00,A,,,,,,,270426,,,A*62
$GPGGA,163702.00,,,,,1,04, Inf,,M,0.0,M,0.0,0000*2D
$GPRMC,163702.00,A,,,,,,,270426,,,A*61
$GPGGA,163703.00,,,,,1,04, Inf,,M,0.0,M,0.0,0000*2C
$GPRMC,163703.00,A,,,,,,,270426,,,A*60
$GPGGA,163704.00,,,,,1,04, Inf,,M,0.0,M,0.0,0000*2B
$GPRMC,163704.00,A,,,,,,,270426,,,A*67
$GPGGA,163705.00,,,,,1,04, Inf,,M,0.0,M,0.0,0000*2A
$GPRMC,163705.00,A,,,,,,,270426,,,A*66
$GPGGA,163706.00,,,,,1,04, Inf,,M,0.0,M,0.0,0000*29
$GPRMC,163706.00,A,,,,,,,270426,,,A*65
$GPGGA,163707.00,,,,,1,04, Inf,,M,0.0,M,0.0,0000*28
$GPRMC,163707.00,A,,,,,,,270426,,,A*64
$GPGGA,163708.00,,,,,1,05, Inf,,M,0.0,M,0.0,0000*26
$GPRMC,163708.00,A,,,,,,,270426,,,A*6B
$GPGGA,163709.00,,,,,1,05, Inf,,M,0.0,M,0.0,0000*27
$GPRMC,163709.00,A,,,,,,,270426,,,A*6A
$GPGGA,163710.00,,,,,1,05, Inf,,M,0.0,M,0.0,0000*2F
$GPRMC,163710.00,A,,,,,,,270426,,,A*62
$GPGGA,163711.00,,,,,1,05, Inf,,M,0.0,M,0.0,0000*2E
$GPRMC,163711.00,A,,,,,,,270426,,,A*63
$GPGGA,163712.00,,,,,1,05, Inf,,M,0.0,M,0.0,0000*2D
$GPRMC,163712.00,A,,,,,,,270426,,,A*60
$GPGGA,163713.00,,,,,1,05, Inf,,M,0.0,M,0.0,0000*2C
$GPRMC,163713.00,A,,,,,,,270426,,,A*61
$GPGGA,163714.00,,,,,1,05, Inf,,M,0.0,M,0.0,0000*2B
$GPRMC,163714.00,A,,,,,,,270426,,,A*66
$GPGGA,163715.00,,,,,1,05, Inf,,M,0.0,M,0.0,0000*2A
$GPRMC,163715.00,A,,,,,,,270426,,,A*67
$GPGGA,163716.00,,,,,1,04, Inf,,M,0.0,M,0.0,0000*28
$GPRMC,163716.00,A,,,,,,,270426,,,A*64
$GPGGA,163717.00,,,,,1,04, Inf,,M,0.0,M,0.0,0000*29
$GPRMC,163717.00,A,,,,,,,270426,,,A*65
$GPGGA,163718.00,,,,,1,04, Inf,,M,0.0,M,0.0,0000*26
$GPRMC,163718.00,A,,,,,,,270426,,,A*6A
$GPGGA,163719.00,,,,,1,04, Inf,,M,0.0,M,0.0,0000*27
$GPRMC,163719.00,A,,,,,,,270426,,,A*6B
$GPGGA,163720.00,,,,,1,04, Inf,,M,0.0,M,0.0,0000*2D
$GPRMC,163720.00,A,,,,,,,270426,,,A*61
