NMEA,$GNGGA,163222.000,4124.0668,N,00209.4721,E,1,18,0.84,52.4,M,51.3,M,,*45,1777307542000
NMEA,$GNGSA,A,3,01,04,02,17,09,19,03,,,,,,1.20,0.84,0.85,1*00,1777307542000
NMEA,$GNGSA,A,3,88,87,,,,,,,,,,,1.20,0.84,0.85,2*0F,1777307542000
NMEA,$GNGSA,A,3,36,34,05,09,,,,,,,,,1.20,0.84,0.85,3*0F,1777307542000
NMEA,$GNGSA,A,3,20,30,29,19,11,,,,,,,,1.20,0.84,0.85,4*04,1777307542000
NMEA,$GNGSA,A,3,,,,,,,,,,,,,1.20,0.84,0.85,5*07,1777307542000
NMEA,$GPGSV,3,1,12,03,67,023,24.7,04,59,177,22.2,01,55,111,20.8,17,50,267,16.1,1*60,1777307542000
NMEA,$GPGSV,3,2,12,19,34,304,18.2,09,30,204,14.1,02,26,127,14.4,31,19,079,,1*74,1777307542000
NMEA,$GPGSV,3,3,12,06,17,308,,28,14,050,,39,13,108,,22,02,254,,1*66,1777307542000
NMEA,$GLGSV,3,1,9,65,68,239,,88,62,328,22.1,72,51,031,,87,45,136,24.3,1*46,1777307542000
NMEA,$GLGSV,3,2,9,66,19,221,,81,09,324,,86,07,140,,71,01,038,,1*4C,1777307542000
NMEA,$GLGSV,3,3,9,80,01,353,,1*7D,1777307542000
NMEA,$GAGSV,3,1,12,36,64,090,18.3,34,55,316,19.5,09,53,068,18.7,05,52,171,22.1,7*73,1777307542000
NMEA,$GAGSV,3,2,12,06,32,049,,11,16,112,,04,10,037,,30,10,270,,7*78,1777307542000
NMEA,$GAGSV,3,3,12,03,08,201,,15,06,301,,27,05,316,,02,01,223,,7*7C,1777307542000
NMEA,$GBGSV,4,1,14,20,82,025,29.7,12,75,243,,29,72,208,25.3,11,56,165,29.5,1*60,1777307542000
NMEA,$GBGSV,4,2,14,19,45,235,16.4,35,35,309,,30,27,153,19.7,32,24,049,,1*75,1777307542000
NMEA,$GBGSV,4,3,14,39,17,055,,07,14,046,,10,14,055,,57,10,150,,1*7B,1777307542000
NMEA,$GBGSV,4,4,14,02,02,097,,60,02,097,,1*77,1777307542000
NMEA,$GNRMC,163222.000,A,4124.0668,N,00209.4721,E,0.000,202.90,270426,,,A,V*30,1777307542000
NMEA,$GNVTG,202.90,T,,M,0.000,N,0.000,K,A*2A,1777307542000
NMEA,$GNACCURACY,2.2,179.9,3.1,31.1*23,1777307542000
NMEA,$PMTKAGC,163222.000,2762,2720,6222,6206,0,0,0,6,110,0*75,1777307542000
NMEA,$PMTKTSX1,2266565,10857.608,31.574,31.949,6c680000,1.108438,1.085761,-1.403016,-0.327304,3.509599,1.044,2.0*34,1777307542000
NMEA,$PMTKERT,953767338,2266565,953767265,0000*7E,1777307542000
NMEA,$PMTKMPE1,0.0,0.000,0.0000000,0.0000000,0.00,0.00,0.00,0.00,0.00,0.00,0.00,0.00,4,5,0,1*6B,1777307542000
NMEA,$PMTKMPE2,UDR_v6.2.0_2021_04_13,PDR_v6.2.0_2021_04_13*6D,1777307542000
NMEA,$PMTKLCPOS1,20260427163222.000,41.401114,2.157869,103.7,3,0.000000,0.000000,0.0,0*77,1777307542000
NMEA,$PMTKLCPOS2,20260427163222.000,41.401114,2.157869,103.7,1,2416,145960.000,18*5D,1777307542000
NMEA,$GNGGA,163223.000,4124.0668,N,00209.4721,E,1,18,0.84,52.4,M,51.3,M,,*44,1777307543000
NMEA,$GNGSA,A,3,01,04,02,17,09,19,03,,,,,,1.20,0.84,0.85,1*00,1777307543000
NMEA,$GNGSA,A,3,88,87,,,,,,,,,,,1.20,0.84,0.85,2*0F,1777307543000
NMEA,$GNGSA,A,3,36,34,05,09,,,,,,,,,1.20,0.84,0.85,3*0F,1777307543000
NMEA,$GNGSA,A,3,20,30,29,19,11,,,,,,,,1.20,0.84,0.85,4*04,1777307543000
NMEA,$GNGSA,A,3,,,,,,,,,,,,,1.20,0.84,0.85,5*07,1777307543000
NMEA,$GPGSV,3,1,12,03,67,023,24.7,04,59,177,24.5,01,55,111,20.8,17,50,267,16.1,1*61,1777307543000
NMEA,$GPGSV,3,2,12,19,34,304,18.2,09,30,204,17.5,02,26,127,14.4,31,19,079,,1*73,1777307543000
NMEA,$GPGSV,3,3,12,06,17,308,,28,14,050,,34,05,096,,22,02,254,,1*6A,1777307543000
NMEA,$GLGSV,3,1,9,65,68,239,,88,62,328,30.2,72,51,031,,87,45,136,24.3,1*46,1777307543000
NMEA,$GLGSV,3,2,9,66,19,221,,81,09,324,,86,07,140,,71,01,038,,1*4C,1777307543000
NMEA,$GLGSV,3,3,9,80,01,353,,1*7D,1777307543000
NMEA,$GAGSV,3,1,12,36,64,090,18.2,34,55,316,20.0,09,53,068,16.0,05,52,171,21.1,7*77,1777307543000
NMEA,$GAGSV,3,2,12,06,32,049,,11,16,112,,04,10,037,,30,10,270,,7*78,1777307543000
NMEA,$GAGSV,3,3,12,03,08,201,,15,06,301,,27,05,316,,02,01,223,,7*7C,1777307543000
NMEA,$GBGSV,4,1,14,20,82,025,34.5,12,75,243,,29,72,208,28.4,11,56,165,29.5,1*64,1777307543000
NMEA,$GBGSV,4,2,14,19,45,235,16.3,35,35,309,,30,27,153,19.7,32,24,049,,1*72,1777307543000
NMEA,$GBGSV,4,3,14,39,17,055,,07,14,046,,10,14,055,,57,10,150,,1*7B,1777307543000
NMEA,$GBGSV,4,4,14,02,02,097,,60,02,097,,1*77,1777307543000
NMEA,$GNRMC,163223.000,A,4124.0668,N,00209.4721,E,0.000,202.90,270426,,,A,V*31,1777307543000
NMEA,$GNVTG,202.90,T,,M,0.000,N,0.000,K,A*2A,1777307543000
NMEA,$GNACCURACY,2.4,179.9,2.5,30.9*29,1777307543000
NMEA,$PMTKAGC,163223.000,2252,2369,5885,5854,0,0,0,6,110,0*71,1777307543000
NMEA,$PMTKTSX1,2267565,10785.892,31.735,31.952,6c660000,1.102116,1.078589,-0.848506,-0.327304,3.509599,1.093,2.0*32,1777307543000
NMEA,$PMTKERT,953768357,2267565,953768267,0000*74,1777307543000
NMEA,$PMTKMPE1,0.0,0.000,0.0000000,0.0000000,0.00,0.00,0.00,0.00,0.00,0.00,0.00,0.00,4,5,0,0*6A,1777307543000
NMEA,$PMTKMPE2,UDR_v6.2.0_2021_04_13,PDR_v6.2.0_2021_04_13*6D,1777307543000
NMEA,$PMTKLCPOS1,20260427163223.000,41.401114,2.157870,103.7,3,0.000000,0.000000,0.0,0*7E,1777307543000
NMEA,$PMTKLCPOS2,20260427163223.000,41.401114,2.157869,103.7,1,2416,145961.000,18*5D,1777307543000
NMEA,$GNGGA,163224.000,4124.0668,N,00209.4721,E,1,19,0.81,52.4,M,51.3,M,,*47,1777307544000
NMEA,$GNGSA,A,3,01,04,02,17,09,19,03,,,,,,1.16,0.81,0.84,1*01,1777307544000
NMEA,$GNGSA,A,3,88,87,,,,,,,,,,,1.16,0.81,0.84,2*0E,1777307544000
NMEA,$GNGSA,A,3,36,34,05,09,,,,,,,,,1.16,0.81,0.84,3*0E,1777307544000
NMEA,$GNGSA,A,3,20,35,30,29,19,11,,,,,,,1.16,0.81,0.84,4*03,1777307544000
NMEA,$GNGSA,A,3,,,,,,,,,,,,,1.16,0.81,0.84,5*06,1777307544000
NMEA,$GPGSV,3,1,12,03,67,023,24.6,04,59,177,25.0,01,55,111,20.8,17,50,267,16.1,1*64,1777307544000
NMEA,$GPGSV,3,2,12,19,34,304,13.5,09,30,204,17.5,02,26,127,14.0,31,19,079,,1*7B,1777307544000
NMEA,$GPGSV,3,3,12,06,17,308,,28,14,050,,34,05,096,,22,02,254,,1*6A,1777307544000
NMEA,$GLGSV,3,1,9,65,68,239,,88,62,328,27.0,72,51,031,,87,45,136,24.0,1*41,1777307544000
NMEA,$GLGSV,3,2,9,66,19,221,,81,09,324,,86,07,140,,71,01,038,,1*4C,1777307544000
NMEA,$GLGSV,3,3,9,80,01,353,,1*7D,1777307544000
NMEA,$GAGSV,3,1,12,36,64,090,18.1,34,55,316,18.6,09,53,068,16.0,05,52,171,19.3,7*70,1777307544000
NMEA,$GAGSV,3,2,12,06,32,049,,11,16,112,,04,10,037,,30,10,270,,7*78,1777307544000
NMEA,$GAGSV,3,3,12,03,08,201,,15,06,301,,27,05,316,,02,01,223,,7*7C,1777307544000
NMEA,$GBGSV,4,1,14,20,82,025,38.6,12,75,243,,29,72,208,28.4,11,56,165,29.5,1*6B,1777307544000
NMEA,$GBGSV,4,2,14,19,45,235,16.2,35,35,309,13.9,30,27,153,19.7,32,24,049,,1*66,1777307544000
NMEA,$GBGSV,4,3,14,39,17,055,,07,14,046,,10,14,055,,57,10,150,,1*7B,1777307544000
NMEA,$GBGSV,4,4,14,02,02,097,,60,02,097,,1*77,1777307544000
NMEA,$GNRMC,163224.000,A,4124.0668,N,00209.4721,E,0.000,202.90,270426,,,A,V*36,1777307544000
NMEA,$GNVTG,202.90,T,,M,0.000,N,0.000,K,A*2A,1777307544000
NMEA,$GNACCURACY,2.6,179.9,2.6,32.5*26,1777307544000
NMEA,$PMTKAGC,163224.000,2209,2289,5881,5861,0,0,0,6,110,0*75,1777307544000
NMEA,$PMTKTSX1,2268565,10922.841,31.606,31.927,6c780000,1.116026,1.092284,-0.215914,-0.327304,3.509599,1.075,2.0*30,1777307544000
NMEA,$PMTKERT,953769362,2268565,953769267,0000*7D,1777307544000
NMEA,$PMTKMPE1,0.0,0.000,0.0000000,0.0000000,0.00,0.00,0.00,0.00,0.00,0.00,0.00,0.00,4,5,0,0*6A,1777307544000
NMEA,$PMTKMPE2,UDR_v6.2.0_2021_04_13,PDR_v6.2.0_2021_04_13*6D,1777307544000
NMEA,$PMTKLCPOS1,20260427163224.000,41.401113,2.157870,103.7,3,0.000000,0.000000,0.0,0*7E,1777307544000
NMEA,$PMTKLCPOS2,20260427163224.000,41.401114,2.157869,103.7,1,2416,145962.000,18*59,1777307544000
NMEA,$GNGGA,163225.000,4124.0668,N,00209.4721,E,1,18,0.82,52.4,M,51.3,M,,*44,1777307545000
NMEA,$GNGSA,A,3,01,04,02,17,09,19,03,,,,,,1.17,0.82,0.84,1*03,1777307545000
NMEA,$GNGSA,A,3,88,87,,,,,,,,,,,1.17,0.82,0.84,2*0C,1777307545000
NMEA,$GNGSA,A,3,36,05,09,,,,,,,,,,1.17,0.82,0.84,3*0B,1777307545000
NMEA,$GNGSA,A,3,20,35,30,29,19,11,,,,,,,1.17,0.82,0.84,4*01,1777307545000
NMEA,$GNGSA,A,3,,,,,,,,,,,,,1.17,0.82,0.84,5*04,1777307545000
NMEA,$GPGSV,3,1,12,03,67,023,25.7,04,59,177,24.5,01,55,111,21.0,17,50,267,16.0,1*68,1777307545000
NMEA,$GPGSV,3,2,12,19,34,304,13.5,09,30,204,12.8,02,26,127,14.0,31,19,079,,1*73,1777307545000
NMEA,$GPGSV,3,3,12,06,17,308,,28,14,050,,34,05,096,,22,02,254,,1*6A,1777307545000
NMEA,$GLGSV,3,1,9,65,68,239,,88,62,328,24.9,72,51,031,,87,45,136,25.1,1*4B,1777307545000
NMEA,$GLGSV,3,2,9,66,19,221,,81,09,324,,86,07,140,,71,01,038,,1*4C,1777307545000
NMEA,$GLGSV,3,3,9,80,01,353,,1*7D,1777307545000
NMEA,$GAGSV,3,1,12,36,64,090,18.0,34,55,316,,09,53,068,15.9,05,52,171,22.1,7*60,1777307545000
NMEA,$GAGSV,3,2,12,06,32,049,,11,16,112,,04,10,037,,30,10,270,,7*78,1777307545000
NMEA,$GAGSV,3,3,12,03,08,201,,15,06,301,,27,05,316,,02,01,223,,7*7C,1777307545000
NMEA,$GBGSV,4,1,14,20,82,025,38.6,12,75,243,,29,72,208,28.4,11,56,165,29.5,1*6B,1777307545000
NMEA,$GBGSV,4,2,14,19,45,235,16.2,35,35,309,13.9,30,27,153,19.7,32,24,049,,1*66,1777307545000
NMEA,$GBGSV,4,3,14,39,17,055,,07,14,046,,10,14,055,,57,10,150,,1*7B,1777307545000
NMEA,$GBGSV,4,4,14,02,02,097,,60,02,097,,1*77,1777307545000
NMEA,$GNRMC,163225.000,A,4124.0668,N,00209.4721,E,0.000,202.90,270426,,,A,V*37,1777307545000
NMEA,$GNVTG,202.90,T,,M,0.000,N,0.000,K,A*2A,1777307545000
NMEA,$GNACCURACY,2.8,129.3,3.1,32.8*2C,1777307545000
NMEA,$PMTKAGC,163225.000,2885,2828,5916,5872,0,0,0,6,110,0*76,1777307545000
NMEA,$PMTKTSX1,2269565,11182.874,31.477,31.850,6cb00000,1.141951,1.118287,0.078594,-0.327304,3.509599,1.093,2.0*4F,1777307545000
NMEA,$PMTKERT,953770358,2269565,953770268,0000*7A,1777307545000
NMEA,$PMTKMPE1,0.0,0.000,0.0000000,0.0000000,0.00,0.00,0.00,0.00,0.00,0.00,0.00,0.00,4,5,0,0*6A,1777307545000
NMEA,$PMTKMPE2,UDR_v6.2.0_2021_04_13,PDR_v6.2.0_2021_04_13*6D,1777307545000
NMEA,$PMTKLCPOS1,20260427163225.000,41.401116,2.157877,103.7,3,0.000000,0.000000,0.0,0*7D,1777307545000
NMEA,$PMTKLCPOS2,20260427163225.000,41.401114,2.157869,103.7,1,2416,145963.000,18*59,1777307545000
NMEA,$GNGGA,163226.000,4124.0668,N,00209.4721,E,1,17,0.86,52.4,M,51.3,M,,*4C,1777307546000
NMEA,$GNGSA,A,3,01,04,02,17,09,19,03,,,,,,1.22,0.86,0.86,1*03,1777307546000
NMEA,$GNGSA,A,3,88,87,,,,,,,,,,,1.22,0.86,0.86,2*0C,1777307546000
NMEA,$GNGSA,A,3,36,05,09,,,,,,,,,,1.22,0.86,0.86,3*0B,1777307546000
NMEA,$GNGSA,A,3,20,30,29,19,11,,,,,,,,1.22,0.86,0.86,4*07,1777307546000
NMEA,$GNGSA,A,3,,,,,,,,,,,,,1.22,0.86,0.86,5*04,1777307546000
NMEA,$GPGSV,3,1,12,03,67,023,25.5,04,59,177,24.2,01,55,111,21.1,17,50,267,15.9,1*66,1777307546000
NMEA,$GPGSV,3,2,12,19,34,304,13.5,09,30,204,12.8,02,26,127,14.0,31,19,079,,1*73,1777307546000
NMEA,$GPGSV,3,3,12,06,17,308,,28,14,050,,34,05,096,,22,02,254,,1*6A,1777307546000
NMEA,$GLGSV,3,1,9,65,68,239,,88,62,328,22.5,72,51,031,,87,45,136,24.6,1*47,1777307546000
NMEA,$GLGSV,3,2,9,66,19,221,,81,09,324,,86,07,140,,71,01,038,,1*4C,1777307546000
NMEA,$GLGSV,3,3,9,80,01,353,,1*7D,1777307546000
NMEA,$GAGSV,3,1,12,36,64,090,18.0,34,55,316,,09,53,068,16.1,05,52,171,21.1,7*68,1777307546000
NMEA,$GAGSV,3,2,12,06,32,049,,11,16,112,,04,10,037,,30,10,270,,7*78,1777307546000
NMEA,$GAGSV,3,3,12,03,08,201,,15,06,301,,27,05,316,,02,01,223,,7*7C,1777307546000
NMEA,$GBGSV,4,1,14,20,82,025,38.4,12,75,243,,29,72,208,28.4,11,56,165,29.5,1*69,1777307546000
NMEA,$GBGSV,4,2,14,19,45,235,16.2,35,35,309,,30,27,153,19.7,32,24,049,,1*73,1777307546000
NMEA,$GBGSV,4,3,14,39,17,055,,07,14,046,,10,14,055,,57,10,150,,1*7B,1777307546000
NMEA,$GBGSV,4,4,14,02,02,097,,60,02,097,,1*77,1777307546000
NMEA,$GNRMC,163226.000,A,4124.0668,N,00209.4721,E,0.000,202.90,270426,,,A,V*34,1777307546000
NMEA,$GNVTG,202.90,T,,M,0.000,N,0.000,K,A*2A,1777307546000
NMEA,$GNACCURACY,3.0,149.8,3.1,32.9*29,1777307546000
NMEA,$PMTKAGC,163226.000,2181,2157,5836,5868,0,0,0,6,110,0*71,1777307546000
NMEA,$PMTKTSX1,2270565,11392.767,31.477,31.775,6ce60000,1.163450,1.139277,-0.509176,-0.327304,3.509599,1.120,2.0*6F,1777307546000
NMEA,$PMTKERT,953771360,2270565,953771266,0000*77,1777307546000
NMEA,$PMTKMPE1,0.0,0.000,0.0000000,0.0000000,0.00,0.00,0.00,0.00,0.00,0.00,0.00,0.00,4,5,0,0*6A,1777307546000
NMEA,$PMTKMPE2,UDR_v6.2.0_2021_04_13,PDR_v6.2.0_2021_04_13*6D,1777307546000
NMEA,$PMTKLCPOS1,20260427163226.000,41.401121,2.157883,103.7,3,0.000000,0.000000,0.0,0*71,1777307546000
NMEA,$PMTKLCPOS2,20260427163226.000,41.401114,2.157869,103.7,1,2416,145964.000,18*5D,1777307546000
NMEA,$GNGGA,163227.000,4124.0668,N,00209.4721,E,1,18,0.84,52.4,M,51.3,M,,*40,1777307547000
NMEA,$GNGSA,A,3,01,04,02,17,09,19,03,,,,,,1.20,0.84,0.85,1*00,1777307547000
NMEA,$GNGSA,A,3,88,87,,,,,,,,,,,1.20,0.84,0.85,2*0F,1777307547000
NMEA,$GNGSA,A,3,36,34,05,09,,,,,,,,,1.20,0.84,0.85,3*0F,1777307547000
NMEA,$GNGSA,A,3,20,30,29,19,11,,,,,,,,1.20,0.84,0.85,4*04,1777307547000
NMEA,$GNGSA,A,3,,,,,,,,,,,,,1.20,0.84,0.85,5*07,1777307547000
NMEA,$GPGSV,3,1,12,03,67,023,24.9,04,59,177,24.1,01,55,111,21.1,17,50,267,13.2,1*65,1777307547000
NMEA,$GPGSV,3,2,12,19,34,304,11.6,09,30,204,12.9,02,26,127,12.6,31,19,079,,1*73,1777307547000
NMEA,$GPGSV,3,3,12,06,17,308,,28,14,050,,34,05,096,,22,02,254,,1*6A,1777307547000
NMEA,$GLGSV,3,1,9,65,68,239,,88,62,328,22.6,72,51,031,,87,45,136,24.5,1*47,1777307547000
NMEA,$GLGSV,3,2,9,66,19,221,,81,09,324,,86,07,140,,71,01,038,,1*4C,1777307547000
NMEA,$GLGSV,3,3,9,80,01,353,,1*7D,1777307547000
NMEA,$GAGSV,3,1,12,36,64,090,17.9,34,55,316,17.7,09,53,068,16.2,05,52,171,21.1,7*72,1777307547000
NMEA,$GAGSV,3,2,12,06,32,049,,11,16,112,,04,10,037,,30,10,270,,7*78,1777307547000
NMEA,$GAGSV,3,3,12,03,08,201,,15,06,301,,27,05,316,,02,01,223,,7*7C,1777307547000
NMEA,$GBGSV,4,1,14,20,82,025,38.3,12,75,243,,29,72,208,28.3,11,56,165,29.5,1*69,1777307547000
NMEA,$GBGSV,4,2,14,19,45,235,16.2,35,35,309,,30,27,153,16.9,32,24,049,,1*72,1777307547000
NMEA,$GBGSV,4,3,14,39,17,055,,07,14,046,,10,14,055,,57,10,150,,1*7B,1777307547000
NMEA,$GBGSV,4,4,14,02,02,097,,60,02,097,,1*77,1777307547000
NMEA,$GNRMC,163227.000,A,4124.0668,N,00209.4721,E,0.000,202.90,270426,,,A,V*35,1777307547000
NMEA,$GNVTG,202.90,T,,M,0.000,N,0.000,K,A*2A,1777307547000
NMEA,$GNACCURACY,2.0,111.1,2.6,33.4*26,1777307547000
NMEA,$PMTKAGC,163227.000,2151,2261,5809,5791,0,0,0,6,110,0*7E,1777307547000
NMEA,$PMTKTSX1,2271565,11562.354,31.477,31.717,6d100000,1.179257,1.156235,1.150978,-0.327304,3.509599,1.137,2.0*13,1777307547000
NMEA,$PMTKERT,953772358,2271565,953772268,0000*73,1777307547000
NMEA,$PMTKMPE1,0.0,0.000,0.0000000,0.0000000,0.00,0.00,0.00,0.00,0.00,0.00,0.00,0.00,4,5,0,1*6B,1777307547000
NMEA,$PMTKMPE2,UDR_v6.2.0_2021_04_13,PDR_v6.2.0_2021_04_13*6D,1777307547000
NMEA,$PMTKLCPOS1,20260427163227.000,41.401122,2.157885,103.7,3,0.000000,0.000000,0.0,0*75,1777307547000
NMEA,$PMTKLCPOS2,20260427163227.000,41.401114,2.157869,103.7,1,2416,145965.000,18*5D,1777307547000
NMEA,$GNGGA,163228.000,4124.0668,N,00209.4721,E,1,19,0.83,52.4,M,51.3,M,,*49,1777307548000
NMEA,$GNGSA,A,3,01,04,02,17,09,19,03,,,,,,1.14,0.83,0.78,1*02,1777307548000
NMEA,$GNGSA,A,3,88,87,86,,,,,,,,,,1.14,0.83,0.78,2*03,1777307548000
NMEA,$GNGSA,A,3,36,34,05,09,,,,,,,,,1.14,0.83,0.78,3*0D,1777307548000
NMEA,$GNGSA,A,3,20,30,29,19,11,,,,,,,,1.14,0.83,0.78,4*06,1777307548000
NMEA,$GNGSA,A,3,,,,,,,,,,,,,1.14,0.83,0.78,5*05,1777307548000
NMEA,$GPGSV,3,1,12,03,67,023,24.4,04,59,177,24.9,01,55,111,21.2,17,50,267,13.2,1*63,1777307548000
NMEA,$GPGSV,3,2,12,19,34,304,11.6,09,30,204,13.0,02,26,127,12.6,31,19,079,,1*7B,1777307548000
NMEA,$GPGSV,3,3,12,06,17,308,,28,14,050,,34,05,096,,22,02,254,,1*6A,1777307548000
NMEA,$GLGSV,3,1,9,65,68,239,,88,62,328,22.5,72,51,031,,87,45,136,24.8,1*49,1777307548000
NMEA,$GLGSV,3,2,9,66,19,221,,81,09,324,,86,07,140,15.4,71,01,038,,1*52,1777307548000
NMEA,$GLGSV,3,3,9,80,01,353,,1*7D,1777307548000
NMEA,$GAGSV,3,1,12,36,64,090,17.9,34,55,316,17.7,09,53,068,16.1,05,52,171,20.6,7*77,1777307548000
NMEA,$GAGSV,3,2,12,06,32,049,,11,16,112,,04,10,037,,30,10,270,,7*78,1777307548000
NMEA,$GAGSV,3,3,12,03,08,201,,15,06,301,,27,05,316,,02,01,223,,7*7C,1777307548000
NMEA,$GBGSV,4,1,14,20,82,025,38.3,12,75,243,,29,72,208,28.3,11,56,165,29.5,1*69,1777307548000
NMEA,$GBGSV,4,2,14,19,45,235,16.2,35,35,309,,30,27,153,17.0,32,24,049,,1*7A,1777307548000
NMEA,$GBGSV,4,3,14,39,17,055,,07,14,046,,10,14,055,,57,10,150,,1*7B,1777307548000
NMEA,$GBGSV,4,4,14,02,02,097,,60,02,097,,1*77,1777307548000
NMEA,$GNRMC,163228.000,A,4124.0668,N,00209.4721,E,0.000,202.90,270426,,,A,V*3A,1777307548000
NMEA,$GNVTG,202.90,T,,M,0.000,N,0.000,K,A*2A,1777307548000
NMEA,$GNACCURACY,1.8,100.1,2.9,39.2*2E,1777307548000
NMEA,$PMTKAGC,163228.000,2455,2397,5988,5869,0,0,0,6,110,0*78,1777307548000
NMEA,$PMTKTSX1,2272565,11712.934,31.315,31.667,6d340000,1.195065,1.171293,-0.749808,-0.327304,3.509599,1.137,2.0*36,1777307548000
NMEA,$PMTKERT,953773357,2272565,953773266,0000*71,1777307548000
NMEA,$PMTKMPE1,0.0,0.000,0.0000000,0.0000000,0.00,0.00,0.00,0.00,0.00,0.00,0.00,0.00,4,5,0,1*6B,1777307548000
NMEA,$PMTKMPE2,UDR_v6.2.0_2021_04_13,PDR_v6.2.0_2021_04_13*6D,1777307548000
NMEA,$PMTKLCPOS1,20260427163228.000,41.401128,2.157890,103.7,3,0.000000,0.000000,0.0,0*74,1777307548000
NMEA,$PMTKLCPOS2,20260427163228.000,41.401114,2.157869,103.7,1,2416,145966.000,18*51,1777307548000
NMEA,$GNGGA,163229.000,4124.0668,N,00209.4721,E,1,18,0.84,52.4,M,51.3,M,,*4E,1777307549000
NMEA,$GNGSA,A,3,01,04,02,17,09,19,03,,,,,,1.20,0.84,0.85,1*00,1777307549000
NMEA,$GNGSA,A,3,88,87,,,,,,,,,,,1.20,0.84,0.85,2*0F,1777307549000
NMEA,$GNGSA,A,3,36,34,05,09,,,,,,,,,1.20,0.84,0.85,3*0F,1777307549000
NMEA,$GNGSA,A,3,20,30,29,19,11,,,,,,,,1.20,0.84,0.85,4*04,1777307549000
NMEA,$GNGSA,A,3,,,,,,,,,,,,,1.20,0.84,0.85,5*07,1777307549000
NMEA,$GPGSV,3,1,12,03,67,023,24.8,04,59,177,24.8,01,55,111,21.3,17,50,267,11.1,1*6E,1777307549000
NMEA,$GPGSV,3,2,12,19,34,304,12.3,09,30,204,11.9,02,26,127,11.9,31,19,079,,1*7A,1777307549000
NMEA,$GPGSV,3,3,12,06,17,308,,28,14,050,,34,05,096,,22,02,254,,1*6A,1777307549000
NMEA,$GLGSV,3,1,9,65,68,239,,88,62,328,22.4,72,51,031,,87,45,136,22.7,1*41,1777307549000
NMEA,$GLGSV,3,2,9,66,19,221,,81,09,324,,86,07,140,,71,01,038,,1*4C,1777307549000
NMEA,$GLGSV,3,3,9,80,01,353,,1*7D,1777307549000
NMEA,$GAGSV,3,1,12,36,64,090,17.8,34,55,316,13.5,09,53,068,16.2,05,52,171,22.2,7*75,1777307549000
NMEA,$GAGSV,3,2,12,06,32,049,,11,16,112,,04,10,037,,30,10,270,,7*78,1777307549000
NMEA,$GAGSV,3,3,12,03,08,201,,15,06,301,,27,05,316,,02,01,223,,7*7C,1777307549000
NMEA,$GBGSV,4,1,14,20,82,025,38.3,12,75,243,,29,72,208,28.3,11,56,165,29.5,1*69,1777307549000
NMEA,$GBGSV,4,2,14,19,45,235,16.2,35,35,309,,30,27,153,19.8,32,24,049,,1*7C,1777307549000
NMEA,$GBGSV,4,3,14,39,17,055,,07,14,046,,10,14,055,,57,10,150,,1*7B,1777307549000
NMEA,$GBGSV,4,4,14,02,02,097,,60,02,097,,1*77,1777307549000
NMEA,$GNRMC,163229.000,A,4124.0668,N,00209.4721,E,0.000,202.90,270426,,,A,V*3B,1777307549000
NMEA,$GNVTG,202.90,T,,M,0.000,N,0.000,K,A*2A,1777307549000
NMEA,$GNACCURACY,1.8,179.9,3.3,38.7*27,1777307549000
NMEA,$PMTKAGC,163229.000,2653,2927,5650,5764,0,0,0,6,110,0*74,1777307549000
NMEA,$PMTKTSX1,2273565,11912.392,31.218,31.601,6d640000,1.214666,1.191239,0.344203,-0.327304,3.509599,1.168,2.0*18,1777307549000
NMEA,$PMTKERT,953774359,2273565,953774268,0000*70,1777307549000
NMEA,$PMTKMPE1,0.0,0.000,0.0000000,0.0000000,0.00,0.00,0.00,0.00,0.00,0.00,0.00,0.00,4,5,0,1*6B,1777307549000
NMEA,$PMTKMPE2,UDR_v6.2.0_2021_04_13,PDR_v6.2.0_2021_04_13*6D,1777307549000
NMEA,$PMTKLCPOS1,20260427163229.000,41.401132,2.157894,103.7,3,0.000000,0.000000,0.0,0*7A,1777307549000
NMEA,$PMTKLCPOS2,20260427163229.000,41.401114,2.157869,103.7,1,2416,145967.000,18*51,1777307549000
NMEA,$GNGGA,163230.000,4124.0668,N,00209.4721,E,1,18,0.84,52.4,M,51.3,M,,*46,1777307550000
NMEA,$GNGSA,A,3,01,04,02,17,09,19,03,,,,,,1.20,0.84,0.85,1*00,1777307550000
NMEA,$GNGSA,A,3,88,87,,,,,,,,,,,1.20,0.84,0.85,2*0F,1777307550000
NMEA,$GNGSA,A,3,36,34,05,09,,,,,,,,,1.20,0.84,0.85,3*0F,1777307550000
NMEA,$GNGSA,A,3,20,30,29,19,11,,,,,,,,1.20,0.84,0.85,4*04,1777307550000
NMEA,$GNGSA,A,3,,,,,,,,,,,,,1.20,0.84,0.85,5*07,1777307550000
NMEA,$GPGSV,3,1,12,03,67,023,23.6,04,59,177,23.4,01,55,111,21.3,17,50,267,11.1,1*6C,1777307550000
NMEA,$GPGSV,3,2,12,19,34,304,12.3,09,30,204,11.9,02,26,127,11.9,31,19,079,,1*7A,1777307550000
NMEA,$GPGSV,3,3,12,06,17,308,,28,14,050,,34,05,096,,22,02,254,,1*6A,1777307550000
NMEA,$GLGSV,3,1,9,65,68,239,,88,62,328,18.3,72,51,031,,87,45,136,22.7,1*4F,1777307550000
NMEA,$GLGSV,3,2,9,66,19,221,,81,09,324,,86,07,140,,71,01,038,,1*4C,1777307550000
NMEA,$GLGSV,3,3,9,80,01,353,,1*7D,1777307550000
NMEA,$GAGSV,3,1,12,36,64,090,17.8,34,55,316,13.5,09,53,068,16.2,05,52,171,19.9,7*76,1777307550000
NMEA,$GAGSV,3,2,12,06,32,049,,11,16,112,,04,10,037,,30,10,270,,7*78,1777307550000
NMEA,$GAGSV,3,3,12,03,08,201,,15,06,301,,27,05,316,,02,01,223,,7*7C,1777307550000
NMEA,$GBGSV,4,1,14,20,82,025,38.3,12,75,243,,29,72,208,28.2,11,56,165,29.4,1*69,1777307550000
NMEA,$GBGSV,4,2,14,19,45,235,16.2,35,35,309,,30,27,153,19.8,32,24,049,,1*7C,1777307550000
NMEA,$GBGSV,4,3,14,39,17,055,,07,14,046,,10,14,055,,57,10,150,,1*7B,1777307550000
NMEA,$GBGSV,4,4,14,02,02,097,,60,02,097,,1*77,1777307550000
NMEA,$GNRMC,163230.000,A,4124.0668,N,00209.4721,E,0.000,202.90,270426,,,A,V*33,1777307550000
NMEA,$GNVTG,202.90,T,,M,0.000,N,0.000,K,A*2A,1777307550000
NMEA,$GNACCURACY,1.8,179.9,2.9,38.8*23,1777307550000
NMEA,$PMTKAGC,163230.000,2598,2388,6013,6017,0,0,0,6,110,0*75,1777307550000
NMEA,$PMTKTSX1,2274565,12040.821,31.961,31.548,6d8a0000,1.227313,1.204082,0.196787,-0.327304,3.509599,1.191,2.0*49,1777307550000
NMEA,$PMTKERT,953775331,2274565,953775262,0000*73,1777307550000
NMEA,$PMTKMPE1,0.0,0.000,0.0000000,0.0000000,0.00,0.00,0.00,0.00,0.00,0.00,0.00,0.00,4,5,0,1*6B,1777307550000
NMEA,$PMTKMPE2,UDR_v6.2.0_2021_04_13,PDR_v6.2.0_2021_04_13*6D,1777307550000
NMEA,$PMTKLCPOS1,20260427163230.000,41.401134,2.157897,103.7,3,0.000000,0.000000,0.0,0*77,1777307550000
NMEA,$PMTKLCPOS2,20260427163230.000,41.401114,2.157869,103.7,1,2416,145968.000,18*56,1777307550000
NMEA,$GNGGA,163231.000,4124.0668,N,00209.4721,E,1,18,0.84,52.4,M,51.3,M,,*47,1777307551000
NMEA,$GNGSA,A,3,01,04,02,17,09,19,03,,,,,,1.20,0.84,0.85,1*00,1777307551000
NMEA,$GNGSA,A,3,88,87,,,,,,,,,,,1.20,0.84,0.85,2*0F,1777307551000
NMEA,$GNGSA,A,3,36,34,05,09,,,,,,,,,1.20,0.84,0.85,3*0F,1777307551000
NMEA,$GNGSA,A,3,20,30,29,19,11,,,,,,,,1.20,0.84,0.85,4*04,1777307551000
NMEA,$GNGSA,A,3,,,,,,,,,,,,,1.20,0.84,0.85,5*07,1777307551000
NMEA,$GPGSV,3,1,12,03,67,023,23.6,04,59,177,22.7,01,55,111,21.4,17,50,267,11.1,1*69,1777307551000
NMEA,$GPGSV,3,2,12,19,34,304,12.3,09,30,204,14.4,02,26,127,11.9,31,19,079,,1*72,1777307551000
NMEA,$GPGSV,3,3,12,06,17,308,,28,14,050,,34,05,096,,22,02,254,,1*6A,1777307551000
NMEA,$GLGSV,3,1,9,65,68,239,,88,62,328,18.3,72,51,031,,87,45,136,22.7,1*4F,1777307551000
NMEA,$GLGSV,3,2,9,66,19,221,,81,09,324,,86,07,140,,71,01,038,,1*4C,1777307551000
NMEA,$GLGSV,3,3,9,80,01,353,,1*7D,1777307551000
NMEA,$GAGSV,3,1,12,36,64,090,17.7,34,55,316,13.7,09,53,068,16.3,05,52,171,21.6,7*7E,1777307551000
NMEA,$GAGSV,3,2,12,06,32,049,,11,16,112,,04,10,037,,30,10,270,,7*78,1777307551000
NMEA,$GAGSV,3,3,12,03,08,201,,15,06,301,,27,05,316,,02,01,223,,7*7C,1777307551000
NMEA,$GBGSV,4,1,14,20,82,025,38.2,12,75,243,,29,72,208,28.2,11,56,165,29.3,1*6F,1777307551000
NMEA,$GBGSV,4,2,14,19,45,235,13.6,35,35,309,,30,27,153,19.7,32,24,049,,1*72,1777307551000
NMEA,$GBGSV,4,3,14,39,17,055,,07,14,046,,10,14,055,,57,10,150,,1*7B,1777307551000
NMEA,$GBGSV,4,4,14,02,02,097,,60,02,097,,1*77,1777307551000
NMEA,$GNRMC,163231.000,A,4124.0668,N,00209.4721,E,0.000,202.90,270426,,,A,V*32,1777307551000
NMEA,$GNVTG,202.90,T,,M,0.000,N,0.000,K,A*2A,1777307551000
NMEA,$GNACCURACY,1.8,60.8,3.4,38.1*1E,1777307551000
NMEA,$PMTKAGC,163231.000,2609,2469,5968,5975,0,0,0,6,110,0*7F,1777307551000
NMEA,$PMTKTSX1,2275565,11010.900,31.703,31.808,6cce0000,1.129305,1.101090,-4.984117,-0.327304,3.509599,1.191,2.0*35,1777307551000
NMEA,$PMTKERT,953776358,2275565,953776268,0000*77,1777307551000
NMEA,$PMTKMPE1,0.0,0.000,0.0000000,0.0000000,0.00,0.00,0.00,0.00,0.00,0.00,0.00,0.00,4,5,0,1*6B,1777307551000
NMEA,$PMTKMPE2,UDR_v6.2.0_2021_04_13,PDR_v6.2.0_2021_04_13*6D,1777307551000
NMEA,$PMTKLCPOS1,20260427163231.000,41.401135,2.157897,103.7,3,0.000000,0.000000,0.0,0*77,1777307551000
NMEA,$PMTKLCPOS2,20260427163231.000,41.401114,2.157869,103.7,1,2416,145969.000,18*56,1777307551000
NMEA,$GNGGA,163232.000,4124.0669,N,00209.4729,E,1,18,0.84,52.5,M,51.3,M,,*4C,1777307552000
NMEA,$GNGSA,A,3,01,04,02,17,09,19,03,,,,,,1.20,0.84,0.85,1*00,1777307552000
NMEA,$GNGSA,A,3,88,87,,,,,,,,,,,1.20,0.84,0.85,2*0F,1777307552000
NMEA,$GNGSA,A,3,36,34,05,09,,,,,,,,,1.20,0.84,0.85,3*0F,1777307552000
NMEA,$GNGSA,A,3,20,30,29,19,11,,,,,,,,1.20,0.84,0.85,4*04,1777307552000
NMEA,$GNGSA,A,3,,,,,,,,,,,,,1.20,0.84,0.85,5*07,1777307552000
NMEA,$GPGSV,3,1,12,03,67,023,23.6,04,59,177,22.7,01,55,111,21.5,17,50,267,13.7,1*6C,1777307552000
NMEA,$GPGSV,3,2,12,19,34,304,11.0,09,30,204,14.4,02,26,127,14.2,31,19,079,,1*7C,1777307552000
NMEA,$GPGSV,3,3,12,06,17,308,,28,14,050,,34,05,096,,22,02,254,,1*6A,1777307552000
NMEA,$GLGSV,3,1,9,65,68,239,,88,62,328,18.3,72,51,031,,87,45,136,22.7,1*4F,1777307552000
NMEA,$GLGSV,3,2,9,66,19,221,,81,09,324,,86,07,140,,71,01,038,,1*4C,1777307552000
NMEA,$GLGSV,3,3,9,80,01,353,,1*7D,1777307552000
NMEA,$GAGSV,3,1,12,36,64,090,17.6,34,55,316,13.7,09,53,068,16.3,05,52,171,19.7,7*75,1777307552000
NMEA,$GAGSV,3,2,12,06,32,049,,11,16,112,,04,10,037,,30,10,270,,7*78,1777307552000
NMEA,$GAGSV,3,3,12,03,08,201,,15,06,301,,27,05,316,,02,01,223,,7*7C,1777307552000
NMEA,$GBGSV,4,1,14,20,82,025,38.2,12,75,243,,29,72,208,28.2,11,56,165,29.3,1*6F,1777307552000
NMEA,$GBGSV,4,2,14,19,45,235,13.6,35,35,309,,30,27,153,19.6,32,24,049,,1*73,1777307552000
NMEA,$GBGSV,4,3,14,39,17,055,,07,14,046,,10,14,055,,57,10,150,,1*7B,1777307552000
NMEA,$GBGSV,4,4,14,02,02,097,,60,02,097,,1*77,1777307552000
NMEA,$GNRMC,163232.000,A,4124.0669,N,00209.4729,E,0.000,202.90,270426,,,A,V*38,1777307552000
NMEA,$GNVTG,202.90,T,,M,0.000,N,0.000,K,A*2A,1777307552000
NMEA,$GNACCURACY,1.9,56.5,2.3,38.2*12,1777307552000
NMEA,$PMTKAGC,163232.000,2254,2414,5746,5915,0,0,0,6,110,0*7E,1777307552000
NMEA,$PMTKTSX1,2276565,11014.664,32.026,31.885,6c960000,1.122349,1.101466,7.331773,-0.327304,3.509599,1.106,2.0*1E,1777307552000
NMEA,$PMTKERT,953777333,2276565,953777261,0000*70,1777307552000
NMEA,$PMTKMPE1,0.0,0.000,0.0000000,0.0000000,0.00,0.00,0.00,0.00,0.00,0.00,0.00,0.00,4,5,0,1*6B,1777307552000
NMEA,$PMTKMPE2,UDR_v6.2.0_2021_04_13,PDR_v6.2.0_2021_04_13*6D,1777307552000
NMEA,$PMTKLCPOS1,20260427163232.000,41.401115,2.157881,103.7,3,0.000000,0.000000,0.0,0*71,1777307552000
NMEA,$PMTKLCPOS2,20260427163232.000,41.401115,2.157881,103.7,1,2416,145970.000,18*5A,1777307552000
NMEA,$GNGGA,163233.000,4124.0669,N,00209.4729,E,1,18,0.84,52.5,M,51.3,M,,*4D,1777307553000
NMEA,$GNGSA,A,3,01,04,02,17,09,19,03,,,,,,1.20,0.84,0.85,1*00,1777307553000
NMEA,$GNGSA,A,3,88,87,,,,,,,,,,,1.20,0.84,0.85,2*0F,1777307553000
NMEA,$GNGSA,A,3,36,34,05,09,,,,,,,,,1.20,0.84,0.85,3*0F,1777307553000
NMEA,$GNGSA,A,3,20,30,29,19,11,,,,,,,,1.20,0.84,0.85,4*04,1777307553000
NMEA,$GNGSA,A,3,,,,,,,,,,,,,1.20,0.84,0.85,5*07,1777307553000
NMEA,$GPGSV,3,1,12,03,67,023,23.5,04,59,177,22.7,01,55,111,24.4,17,50,267,13.7,1*6B,1777307553000
NMEA,$GPGSV,3,2,12,49,42,175,,19,34,304,11.0,09,30,204,14.2,02,26,127,14.2,1*76,1777307553000
NMEA,$GPGSV,3,3,12,31,19,079,,06,17,308,,28,14,050,,22,02,254,,1*63,1777307553000
NMEA,$GLGSV,3,1,9,65,68,239,,88,62,328,18.4,72,51,031,,87,45,136,22.7,1*48,1777307553000
NMEA,$GLGSV,3,2,9,66,19,221,,81,09,324,,86,07,140,,71,01,038,,1*4C,1777307553000
NMEA,$GLGSV,3,3,9,80,01,353,,1*7D,1777307553000
NMEA,$GAGSV,3,1,12,36,64,090,17.6,34,55,316,13.7,09,53,068,16.3,05,52,171,21.8,7*71,1777307553000
NMEA,$GAGSV,3,2,12,06,32,049,,11,16,112,,04,10,037,,30,10,270,,7*78,1777307553000
NMEA,$GAGSV,3,3,12,03,08,201,,15,06,301,,27,05,316,,02,01,223,,7*7C,1777307553000
NMEA,$GBGSV,4,1,14,20,82,025,38.2,12,75,243,,29,72,208,28.1,11,56,165,29.2,1*6D,1777307553000
NMEA,$GBGSV,4,2,14,19,45,235,13.6,35,35,309,,30,27,153,19.4,32,24,049,,1*71,1777307553000
NMEA,$GBGSV,4,3,14,39,17,055,,07,14,046,,10,14,055,,57,10,150,,1*7B,1777307553000
NMEA,$GBGSV,4,4,14,02,02,097,,60,02,097,,1*77,1777307553000
NMEA,$GNRMC,163233.000,A,4124.0669,N,00209.4729,E,0.000,202.90,270426,,,A,V*39,1777307553000
NMEA,$GNVTG,202.90,T,,M,0.000,N,0.000,K,A*2A,1777307553000
NMEA,$GNACCURACY,2.1,95.9,3.3,36.6*11,1777307553000
NMEA,$PMTKAGC,163233.000,2255,2366,5732,5783,0,0,0,6,110,0*7E,1777307553000
NMEA,$PMTKTSX1,2277565,10405.321,31.994,32.057,6c1a0000,1.059118,1.040532,2.296654,-0.327304,3.509599,1.106,2.0*44,1777307553000
NMEA,$PMTKERT,953778343,2277565,953778263,0000*74,1777307553000
NMEA,$PMTKMPE1,0.0,0.000,0.0000000,0.0000000,0.00,0.00,0.00,0.00,0.00,0.00,0.00,0.00,4,5,0,0*6A,1777307553000
NMEA,$PMTKMPE2,UDR_v6.2.0_2021_04_13,PDR_v6.2.0_2021_04_13*6D,1777307553000
NMEA,$PMTKLCPOS1,20260427163233.000,41.401107,2.157866,103.8,3,0.000000,0.000000,0.0,0*75,1777307553000
NMEA,$PMTKLCPOS2,20260427163233.000,41.401115,2.157881,103.7,1,2416,145971.000,18*5A,1777307553000
NMEA,$GNGGA,163234.000,4124.0669,N,00209.4729,E,1,17,0.90,52.5,M,51.3,M,,*40,1777307554000
NMEA,$GNGSA,A,3,01,04,02,17,09,03,,,,,,,1.27,0.90,0.89,1*06,1777307554000
NMEA,$GNGSA,A,3,88,87,,,,,,,,,,,1.27,0.90,0.89,2*01,1777307554000
NMEA,$GNGSA,A,3,36,34,05,09,,,,,,,,,1.27,0.90,0.89,3*01,1777307554000
NMEA,$GNGSA,A,3,20,30,29,19,11,,,,,,,,1.27,0.90,0.89,4*0A,1777307554000
NMEA,$GNGSA,A,3,,,,,,,,,,,,,1.27,0.90,0.89,5*09,1777307554000
NMEA,$GPGSV,3,1,12,03,67,023,23.5,04,59,177,22.7,01,55,111,24.3,17,50,267,12.9,1*63,1777307554000
NMEA,$GPGSV,3,2,12,49,42,175,,19,34,304,,09,30,204,14.2,02,26,127,13.2,1*6F,1777307554000
NMEA,$GPGSV,3,3,12,31,19,079,,06,17,308,,28,14,050,,22,02,254,,1*63,1777307554000
NMEA,$GLGSV,3,1,9,65,68,239,,88,62,328,18.4,72,51,031,,87,45,136,27.0,1*4A,1777307554000
NMEA,$GLGSV,3,2,9,66,19,221,,81,09,324,,86,07,140,,71,01,038,,1*4C,1777307554000
NMEA,$GLGSV,3,3,9,80,01,353,,1*7D,1777307554000
NMEA,$GAGSV,3,1,12,36,64,090,17.5,34,55,316,13.7,09,53,068,16.3,05,52,171,21.0,7*7A,1777307554000
NMEA,$GAGSV,3,2,12,06,32,049,,11,16,112,,04,10,037,,30,10,270,,7*78,1777307554000
NMEA,$GAGSV,3,3,12,03,08,201,,15,06,301,,27,05,316,,02,01,223,,7*7C,1777307554000
NMEA,$GBGSV,4,1,14,20,82,025,38.1,12,75,243,,29,72,208,28.0,11,56,165,29.3,1*6E,1777307554000
NMEA,$GBGSV,4,2,14,19,45,235,12.8,35,35,309,,30,27,153,19.4,32,24,049,,1*7E,1777307554000
NMEA,$GBGSV,4,3,14,39,17,055,,07,14,046,,10,14,055,,57,10,150,,1*7B,1777307554000
NMEA,$GBGSV,4,4,14,02,02,097,,60,02,097,,1*77,1777307554000
NMEA,$GNRMC,163234.000,A,4124.0669,N,00209.4729,E,0.000,202.90,270426,,,A,V*3E,1777307554000
NMEA,$GNVTG,202.90,T,,M,0.000,N,0.000,K,A*2A,1777307554000
NMEA,$GNACCURACY,2.2,91.3,2.4,36.5*19,1777307554000
NMEA,$PMTKAGC,163234.000,2145,2141,5788,5754,0,0,0,6,110,0*77,1777307554000
NMEA,$PMTKTSX1,2278565,10463.965,31.832,32.094,6c000000,1.062912,1.046396,2.070478,-0.327304,3.509599,1.044,2.0*16,1777307554000
NMEA,$PMTKERT,953779332,2278565,953779264,0000*7A,1777307554000
NMEA,$PMTKMPE1,0.0,0.000,0.0000000,0.0000000,0.00,0.00,0.00,0.00,0.00,0.00,0.00,0.00,4,5,0,0*6A,1777307554000
NMEA,$PMTKMPE2,UDR_v6.2.0_2021_04_13,PDR_v6.2.0_2021_04_13*6D,1777307554000
NMEA,$PMTKLCPOS1,20260427163234.000,41.401099,2.157857,103.8,3,0.000000,0.000000,0.0,0*76,1777307554000
NMEA,$PMTKLCPOS2,20260427163234.000,41.401115,2.157881,103.7,1,2416,145972.000,18*5E,1777307554000
NMEA,$GNGGA,163235.000,4124.0669,N,00209.4729,E,1,16,0.95,52.5,M,51.3,M,,*45,1777307555000
NMEA,$GNGSA,A,3,01,04,02,17,09,03,,,,,,,1.31,0.95,0.90,1*0C,1777307555000
NMEA,$GNGSA,A,3,88,87,,,,,,,,,,,1.31,0.95,0.90,2*0B,1777307555000
NMEA,$GNGSA,A,3,36,05,09,,,,,,,,,,1.31,0.95,0.90,3*0C,1777307555000
NMEA,$GNGSA,A,3,20,30,29,19,11,,,,,,,,1.31,0.95,0.90,4*00,1777307555000
NMEA,$GNGSA,A,3,,,,,,,,,,,,,1.31,0.95,0.90,5*03,1777307555000
NMEA,$GPGSV,3,1,12,03,67,023,23.4,04,59,177,20.0,01,55,111,23.6,17,50,267,12.9,1*65,1777307555000
NMEA,$GPGSV,3,2,12,49,42,175,,19,34,304,,09,30,204,12.1,02,26,127,13.2,1*6A,1777307555000
NMEA,$GPGSV,3,3,12,31,19,079,,06,17,308,,28,14,050,,22,02,254,,1*63,1777307555000
NMEA,$GLGSV,3,1,9,65,68,239,,88,62,328,18.5,72,51,031,,87,45,136,26.9,1*43,1777307555000
NMEA,$GLGSV,3,2,9,66,19,221,,81,09,324,,86,07,140,,71,01,038,,1*4C,1777307555000
NMEA,$GLGSV,3,3,9,80,01,353,,1*7D,1777307555000
NMEA,$GAGSV,3,1,12,36,64,090,17.6,34,55,316,,09,53,068,16.2,05,52,171,18.8,7*61,1777307555000
NMEA,$GAGSV,3,2,12,06,32,049,,11,16,112,,04,10,037,,30,10,270,,7*78,1777307555000
NMEA,$GAGSV,3,3,12,03,08,201,,15,06,301,,27,05,316,,02,01,223,,7*7C,1777307555000
NMEA,$GBGSV,4,1,14,20,82,025,38.1,12,75,243,,29,72,208,28.1,11,56,165,25.3,1*63,1777307555000
NMEA,$GBGSV,4,2,14,19,45,235,12.8,35,35,309,,30,27,153,19.3,32,24,049,,1*79,1777307555000
NMEA,$GBGSV,4,3,14,39,17,055,,07,14,046,,10,14,055,,57,10,150,,1*7B,1777307555000
NMEA,$GBGSV,4,4,14,02,02,097,,60,02,097,,1*77,1777307555000
NMEA,$GNRMC,163235.000,A,4124.0669,N,00209.4729,E,0.000,202.90,270426,,,A,V*3F,1777307555000
NMEA,$GNVTG,202.90,T,,M,0.000,N,0.000,K,A*2A,1777307555000
NMEA,$GNACCURACY,2.5,179.9,3.9,36.2*28,1777307555000
NMEA,$PMTKAGC,163235.000,2822,2800,5756,5894,0,0,0,6,110,0*72,1777307555000
NMEA,$PMTKTSX1,2279565,10817.950,31.703,31.993,6c480000,1.097689,1.081795,0.621509,-0.327304,3.509599,1.044,2.0*1E,1777307555000
NMEA,$PMTKERT,953780342,2279565,953780264,0000*7C,1777307555000
NMEA,$PMTKMPE1,0.0,0.000,0.0000000,0.0000000,0.00,0.00,0.00,0.00,0.00,0.00,0.00,0.00,4,5,0,0*6A,1777307555000
NMEA,$PMTKMPE2,UDR_v6.2.0_2021_04_13,PDR_v6.2.0_2021_04_13*6D,1777307555000
NMEA,$PMTKLCPOS1,20260427163235.000,41.401092,2.157853,103.7,3,0.000000,0.000000,0.0,0*77,1777307555000
NMEA,$PMTKLCPOS2,20260427163235.000,41.401115,2.157881,103.7,1,2416,145973.000,18*5E,1777307555000
NMEA,$GNGGA,163236.000,4124.0669,N,00209.4729,E,1,15,0.97,52.5,M,51.3,M,,*47,1777307556000
NMEA,$GNGSA,A,3,01,04,02,17,09,03,,,,,,,1.33,0.97,0.91,1*0D,1777307556000
NMEA,$GNGSA,A,3,88,87,,,,,,,,,,,1.33,0.97,0.91,2*0A,1777307556000
NMEA,$GNGSA,A,3,05,09,,,,,,,,,,,1.33,0.97,0.91,3*08,1777307556000
NMEA,$GNGSA,A,3,20,30,29,19,11,,,,,,,,1.33,0.97,0.91,4*01,1777307556000
NMEA,$GNGSA,A,3,,,,,,,,,,,,,1.33,0.97,0.91,5*02,1777307556000
NMEA,$GPGSV,3,1,12,03,67,023,23.4,04,59,177,23.2,01,55,111,21.7,17,50,267,12.9,1*67,1777307556000
NMEA,$GPGSV,3,2,12,49,42,175,,19,34,304,,09,30,204,12.1,02,26,127,13.2,1*6A,1777307556000
NMEA,$GPGSV,3,3,12,31,19,079,,06,17,308,,28,14,050,,22,02,254,,1*63,1777307556000
NMEA,$GLGSV,3,1,9,65,68,239,,88,62,328,18.6,72,51,031,,87,45,136,22.3,1*4E,1777307556000
NMEA,$GLGSV,3,2,9,66,19,221,,81,09,324,,86,07,140,,71,01,038,,1*4C,1777307556000
NMEA,$GLGSV,3,3,9,80,01,353,,1*7D,1777307556000
NMEA,$GAGSV,3,1,12,36,64,090,,34,55,316,,09,53,068,16.1,05,52,171,19.7,7*72,1777307556000
NMEA,$GAGSV,3,2,12,06,32,049,,11,16,112,,04,10,037,,30,10,270,,7*78,1777307556000
NMEA,$GAGSV,3,3,12,03,08,201,,15,06,301,,27,05,316,,02,01,223,,7*7C,1777307556000
NMEA,$GBGSV,4,1,14,20,82,025,38.1,12,75,243,,29,72,208,28.0,11,56,165,29.7,1*6A,1777307556000
NMEA,$GBGSV,4,2,14,19,45,235,15.0,35,35,309,,30,27,153,15.7,32,24,049,,1*7E,1777307556000
NMEA,$GBGSV,4,3,14,39,17,055,,07,14,046,,10,14,055,,57,10,150,,1*7B,1777307556000
NMEA,$GBGSV,4,4,14,02,02,097,,60,02,097,,1*77,1777307556000
NMEA,$GNRMC,163236.000,A,4124.0669,N,00209.4729,E,0.000,202.90,270426,,,A,V*3C,1777307556000
NMEA,$GNVTG,202.90,T,,M,0.000,N,0.000,K,A*2A,1777307556000
NMEA,$GNACCURACY,2.8,179.9,4.1,35.4*2F,1777307556000
NMEA,$PMTKAGC,163236.000,2183,2218,5716,5842,0,0,0,6,110,0*7F,1777307556000
NMEA,$PMTKTSX1,2280565,11152.805,31.541,31.883,6c980000,1.133099,1.115280,-1.923845,-0.327304,3.509599,1.080,2.0*30,1777307556000
NMEA,$PMTKERT,953781343,2280565,953781264,0000*7B,1777307556000
NMEA,$PMTKMPE1,0.0,0.000,0.0000000,0.0000000,0.00,0.00,0.00,0.00,0.00,0.00,0.00,0.00,4,5,0,0*6A,1777307556000
NMEA,$PMTKMPE2,UDR_v6.2.0_2021_04_13,PDR_v6.2.0_2021_04_13*6D,1777307556000
NMEA,$PMTKLCPOS1,20260427163236.000,41.401084,2.157852,103.7,3,0.000000,0.000000,0.0,0*72,1777307556000
NMEA,$PMTKLCPOS2,20260427163236.000,41.401115,2.157881,103.7,1,2416,145974.000,18*5A,1777307556000
NMEA,$GNGGA,163237.000,4124.0669,N,00209.4729,E,1,15,0.96,52.5,M,51.3,M,,*47,1777307557000
NMEA,$GNGSA,A,3,01,04,02,09,03,,,,,,,,1.32,0.96,0.90,1*0A,1777307557000
NMEA,$GNGSA,A,3,88,87,,,,,,,,,,,1.32,0.96,0.90,2*0B,1777307557000
NMEA,$GNGSA,A,3,34,05,09,,,,,,,,,,1.32,0.96,0.90,3*0E,1777307557000
NMEA,$GNGSA,A,3,20,30,29,19,11,,,,,,,,1.32,0.96,0.90,4*00,1777307557000
NMEA,$GNGSA,A,3,,,,,,,,,,,,,1.32,0.96,0.90,5*03,1777307557000
NMEA,$GPGSV,3,1,12,03,67,023,23.4,04,59,177,23.5,01,55,111,23.2,17,50,267,,1*73,1777307557000
NMEA,$GPGSV,3,2,12,49,42,175,,19,34,304,,09,30,204,11.0,02,26,127,12.7,1*6C,1777307557000
NMEA,$GPGSV,3,3,12,31,19,079,,06,17,308,,28,14,050,,22,02,254,,1*63,1777307557000
NMEA,$GLGSV,3,1,9,65,68,239,,88,62,328,25.3,72,51,031,,87,45,136,25.0,1*41,1777307557000
NMEA,$GLGSV,3,2,9,66,19,221,,81,09,324,,86,07,140,,71,01,038,,1*4C,1777307557000
NMEA,$GLGSV,3,3,9,80,01,353,,1*7D,1777307557000
NMEA,$GAGSV,3,1,12,36,64,090,,34,55,316,20.8,09,53,068,16.2,05,52,171,19.6,7*64,1777307557000
NMEA,$GAGSV,3,2,12,06,32,049,,11,16,112,,04,10,037,,30,10,270,,7*78,1777307557000
NMEA,$GAGSV,3,3,12,03,08,201,,15,06,301,,27,05,316,,02,01,223,,7*7C,1777307557000
NMEA,$GBGSV,4,1,14,20,82,025,33.6,12,75,243,,29,72,208,28.0,11,56,165,29.7,1*66,1777307557000
NMEA,$GBGSV,4,2,14,19,45,235,15.0,35,35,309,,30,27,153,15.7,32,24,049,,1*7E,1777307557000
NMEA,$GBGSV,4,3,14,39,17,055,,07,14,046,,10,14,055,,57,10,150,,1*7B,1777307557000
NMEA,$GBGSV,4,4,14,02,02,097,,60,02,097,,1*77,1777307557000
NMEA,$GNRMC,163237.000,A,4124.0669,N,00209.4729,E,0.000,202.90,270426,,,A,V*3D,1777307557000
NMEA,$GNVTG,202.90,T,,M,0.000,N,0.000,K,A*2A,1777307557000
NMEA,$GNACCURACY,2.0,179.9,4.3,34.0*20,1777307557000
NMEA,$PMTKAGC,163237.000,2789,2860,6307,6232,0,0,0,6,110,0*7E,1777307557000
NMEA,$PMTKTSX1,2281565,11435.412,31.735,31.780,6ce20000,1.163450,1.143541,-2.090128,-0.327304,3.509599,1.080,2.0*69,1777307557000
NMEA,$PMTKERT,953782351,2281565,953782263,0000*7E,1777307557000
NMEA,$PMTKMPE1,0.0,0.000,0.0000000,0.0000000,0.00,0.00,0.00,0.00,0.00,0.00,0.00,0.00,4,5,0,1*6B,1777307557000
NMEA,$PMTKMPE2,UDR_v6.2.0_2021_04_13,PDR_v6.2.0_2021_04_13*6D,1777307557000
NMEA,$PMTKLCPOS1,20260427163237.000,41.401084,2.157855,103.7,3,0.000000,0.000000,0.0,0*74,1777307557000
NMEA,$PMTKLCPOS2,20260427163237.000,41.401115,2.157881,103.7,1,2416,145975.000,18*5A,1777307557000
NMEA,$GNGGA,163238.000,4124.0669,N,00209.4729,E,1,16,0.94,52.5,M,51.3,M,,*49,1777307558000
NMEA,$GNGSA,A,3,01,04,02,09,03,,,,,,,,1.30,0.94,0.90,1*0A,1777307558000
NMEA,$GNGSA,A,3,88,87,,,,,,,,,,,1.30,0.94,0.90,2*0B,1777307558000
NMEA,$GNGSA,A,3,36,34,05,09,,,,,,,,,1.30,0.94,0.90,3*0B,1777307558000
NMEA,$GNGSA,A,3,20,30,29,19,11,,,,,,,,1.30,0.94,0.90,4*00,1777307558000
NMEA,$GNGSA,A,3,,,,,,,,,,,,,1.30,0.94,0.90,5*03,1777307558000
NMEA,$GPGSV,3,1,12,03,67,023,23.5,04,59,177,25.2,01,55,111,23.3,17,50,267,,1*72,1777307558000
NMEA,$GPGSV,3,2,12,49,42,175,,19,34,304,,09,30,204,11.0,02,26,127,12.7,1*6C,1777307558000
NMEA,$GPGSV,3,3,12,31,19,079,,06,17,308,,28,14,050,,22,02,254,,1*63,1777307558000
NMEA,$GLGSV,3,1,9,65,68,239,,88,62,328,25.4,72,51,031,,87,45,136,24.6,1*41,1777307558000
NMEA,$GLGSV,3,2,9,66,19,221,,81,09,324,,86,07,140,,71,01,038,,1*4C,1777307558000
NMEA,$GLGSV,3,3,9,80,01,353,,1*7D,1777307558000
NMEA,$GAGSV,3,1,12,36,64,090,16.7,34,55,316,18.5,09,53,068,16.3,05,52,171,18.8,7*72,1777307558000
NMEA,$GAGSV,3,2,12,06,32,049,,11,16,112,,04,10,037,,30,10,270,,7*78,1777307558000
NMEA,$GAGSV,3,3,12,03,08,201,,15,06,301,,27,05,316,,02,01,223,,7*7C,1777307558000
NMEA,$GBGSV,4,1,14,20,82,025,37.3,12,75,243,,29,72,208,27.9,11,56,165,29.6,1*60,1777307558000
NMEA,$GBGSV,4,2,14,19,45,235,15.0,35,35,309,,30,27,153,15.8,32,24,049,,1*71,1777307558000
NMEA,$GBGSV,4,3,14,39,17,055,,07,14,046,,10,14,055,,57,10,150,,1*7B,1777307558000
NMEA,$GBGSV,4,4,14,02,02,097,,60,02,097,,1*77,1777307558000
NMEA,$GNRMC,163238.000,A,4124.0669,N,00209.4729,E,0.000,202.90,270426,,,A,V*32,1777307558000
NMEA,$GNVTG,202.90,T,,M,0.000,N,0.000,K,A*2A,1777307558000
NMEA,$GNACCURACY,1.9,178.4,2.3,33.0*27,1777307558000
NMEA,$PMTKAGC,163238.000,2548,2242,5870,5711,0,0,0,6,110,0*7B,1777307558000
NMEA,$PMTKTSX1,2282565,10781.527,31.994,31.908,6c860000,1.105277,1.078153,-7.216070,-0.327304,3.509599,1.142,2.0*35,1777307558000
NMEA,$PMTKERT,953783335,2282565,953783266,0000*7A,1777307558000
NMEA,$PMTKMPE1,0.0,0.000,0.0000000,0.0000000,0.00,0.00,0.00,0.00,0.00,0.00,0.00,0.00,4,5,0,1*6B,1777307558000
NMEA,$PMTKMPE2,UDR_v6.2.0_2021_04_13,PDR_v6.2.0_2021_04_13*6D,1777307558000
NMEA,$PMTKLCPOS1,20260427163238.000,41.401082,2.157853,103.7,3,0.000000,0.000000,0.0,0*7B,1777307558000
NMEA,$PMTKLCPOS2,20260427163238.000,41.401115,2.157881,103.7,1,2416,145976.000,18*56,1777307558000
NMEA,$GNGGA,163239.000,4124.0669,N,00209.4729,E,1,15,1.02,52.5,M,51.3,M,,*45,1777307559000
NMEA,$GNGSA,A,3,01,04,02,09,03,,,,,,,,1.37,1.02,0.91,1*02,1777307559000
NMEA,$GNGSA,A,3,88,87,,,,,,,,,,,1.37,1.02,0.91,2*03,1777307559000
NMEA,$GNGSA,A,3,36,05,09,,,,,,,,,,1.37,1.02,0.91,3*04,1777307559000
NMEA,$GNGSA,A,3,20,30,29,19,11,,,,,,,,1.37,1.02,0.91,4*08,1777307559000
NMEA,$GNGSA,A,3,,,,,,,,,,,,,1.37,1.02,0.91,5*0B,1777307559000
NMEA,$GPGSV,3,1,12,03,67,023,23.7,04,59,177,23.4,01,55,111,23.2,17,50,267,,1*71,1777307559000
NMEA,$GPGSV,3,2,12,49,42,175,,19,34,304,,09,30,204,12.9,02,26,127,12.7,1*66,1777307559000
NMEA,$GPGSV,3,3,12,31,19,079,,06,17,308,,28,14,050,,22,02,254,,1*63,1777307559000
NMEA,$GLGSV,3,1,9,65,68,239,,88,62,328,20.9,72,51,031,,87,45,136,22.1,1*48,1777307559000
NMEA,$GLGSV,3,2,9,66,19,221,,81,09,324,,86,07,140,,71,01,038,,1*4C,1777307559000
NMEA,$GLGSV,3,3,9,80,01,353,,1*7D,1777307559000
NMEA,$GAGSV,3,1,12,36,64,090,16.7,34,55,316,,09,53,068,16.3,05,52,171,20.2,7*61,1777307559000
NMEA,$GAGSV,3,2,12,06,32,049,,11,16,112,,04,10,037,,30,10,270,,7*78,1777307559000
NMEA,$GAGSV,3,3,12,03,08,201,,15,06,301,,27,05,316,,02,01,223,,7*7C,1777307559000
NMEA,$GBGSV,4,1,14,20,82,025,37.4,12,75,243,,29,72,208,27.9,11,56,165,29.6,1*67,1777307559000
NMEA,$GBGSV,4,2,14,19,45,235,14.9,35,35,309,,30,27,153,15.9,32,24,049,,1*78,1777307559000
NMEA,$GBGSV,4,3,14,39,17,055,,07,14,046,,10,14,055,,57,10,150,,1*7B,1777307559000
NMEA,$GBGSV,4,4,14,02,02,097,,60,02,097,,1*77,1777307559000
NMEA,$GNRMC,163239.000,A,4124.0669,N,00209.4729,E,0.000,202.90,270426,,,A,V*33,1777307559000
NMEA,$GNVTG,202.90,T,,M,0.000,N,0.000,K,A*2A,1777307559000
NMEA,$GNACCURACY,1.7,147.9,2.3,29.6*25,1777307559000
NMEA,$PMTKAGC,163239.000,2246,2298,5837,5724,0,0,0,6,110,0*71,1777307559000
NMEA,$PMTKTSX1,2283565,10614.131,31.832,32.032,6c2c0000,1.078088,1.061413,10.449702,-0.327304,3.509599,1.142,2.0*7E,1777307559000
NMEA,$PMTKERT,953784363,2283565,953784264,0000*7A,1777307559000
NMEA,$PMTKMPE1,0.0,0.000,0.0000000,0.0000000,0.00,0.00,0.00,0.00,0.00,0.00,0.00,0.00,4,5,0,1*6B,1777307559000
NMEA,$PMTKMPE2,UDR_v6.2.0_2021_04_13,PDR_v6.2.0_2021_04_13*6D,1777307559000
NMEA,$PMTKLCPOS1,20260427163239.000,41.401080,2.157856,103.7,3,0.000000,0.000000,0.0,0*7D,1777307559000
NMEA,$PMTKLCPOS2,20260427163239.000,41.401115,2.157881,103.7,1,2416,145977.000,18*56,1777307559000
NMEA,$GNGGA,163240.000,4124.0669,N,00209.4729,E,1,15,1.05,52.5,M,51.3,M,,*4C,1777307560000
NMEA,$GNGSA,A,3,01,04,09,03,,,,,,,,,1.40,1.05,0.93,1*05,1777307560000
NMEA,$GNGSA,A,3,88,87,65,,,,,,,,,,1.40,1.05,0.93,2*05,1777307560000
NMEA,$GNGSA,A,3,36,05,09,,,,,,,,,,1.40,1.05,0.93,3*01,1777307560000
NMEA,$GNGSA,A,3,20,30,29,19,11,,,,,,,,1.40,1.05,0.93,4*0D,1777307560000
NMEA,$GNGSA,A,3,,,,,,,,,,,,,1.40,1.05,0.93,5*0E,1777307560000
NMEA,$GPGSV,3,1,12,03,67,023,22.7,04,59,177,20.6,01,55,111,22.4,17,50,267,,1*76,1777307560000
NMEA,$GPGSV,3,2,12,49,42,175,,19,34,304,,09,30,204,12.9,02,26,127,,1*7C,1777307560000
NMEA,$GPGSV,3,3,12,31,19,079,,06,17,308,,28,14,050,,22,02,254,,1*63,1777307560000
NMEA,$GLGSV,3,1,9,65,68,239,12.8,88,62,328,20.9,72,51,031,,87,45,136,22.6,1*5A,1777307560000
NMEA,$GLGSV,3,2,9,66,19,221,,81,09,324,,86,07,140,,71,01,038,,1*4C,1777307560000
NMEA,$GLGSV,3,3,9,80,01,353,,1*7D,1777307560000
NMEA,$GAGSV,3,1,12,36,64,090,17.4,34,55,316,,09,53,068,16.3,05,52,171,22.5,7*66,1777307560000
NMEA,$GAGSV,3,2,12,06,32,049,,11,16,112,,04,10,037,,30,10,270,,7*78,1777307560000
NMEA,$GAGSV,3,3,12,03,08,201,,15,06,301,,27,05,316,,02,01,223,,7*7C,1777307560000
NMEA,$GBGSV,4,1,14,20,82,025,37.4,12,75,243,,29,72,208,28.0,11,56,165,29.5,1*62,1777307560000
NMEA,$GBGSV,4,2,14,19,45,235,14.9,35,35,309,,30,27,153,18.7,32,24,049,,1*7B,1777307560000
NMEA,$GBGSV,4,3,14,39,17,055,,07,14,046,,10,14,055,,57,10,150,,1*7B,1777307560000
NMEA,$GBGSV,4,4,14,02,02,097,,60,02,097,,1*77,1777307560000
NMEA,$GNRMC,163240.000,A,4124.0669,N,00209.4729,E,0.000,202.90,270426,,,A,V*3D,1777307560000
NMEA,$GNVTG,202.90,T,,M,0.000,N,0.000,K,A*2A,1777307560000
NMEA,$GNACCURACY,1.7,179.9,3.7,29.9*22,1777307560000
NMEA,$PMTKAGC,163240.000,2456,2609,6058,5833,0,0,0,6,110,0*7F,1777307560000
NMEA,$PMTKTSX1,2284565,10958.293,31.703,31.952,6c660000,1.111600,1.095829,0.903796,-0.327304,3.509599,1.062,2.0*1F,1777307560000
NMEA,$PMTKERT,953785345,2284565,953785266,0000*7B,1777307560000
NMEA,$PMTKMPE1,0.0,0.000,0.0000000,0.0000000,0.00,0.00,0.00,0.00,0.00,0.00,0.00,0.00,4,5,0,1*6B,1777307560000
NMEA,$PMTKMPE2,UDR_v6.2.0_2021_04_13,PDR_v6.2.0_2021_04_13*6D,1777307560000
NMEA,$PMTKLCPOS1,20260427163240.000,41.401075,2.157857,103.7,3,0.000000,0.000000,0.0,0*78,1777307560000
NMEA,$PMTKLCPOS2,20260427163240.000,41.401115,2.157881,103.7,1,2416,145978.000,18*57,1777307560000
NMEA,$GNGGA,163241.000,4124.0669,N,00209.4729,E,1,16,0.97,52.5,M,51.3,M,,*44,1777307561000
NMEA,$GNGSA,A,3,01,04,09,03,,,,,,,,,1.33,0.97,0.92,1*0A,1777307561000
NMEA,$GNGSA,A,3,88,87,65,,,,,,,,,,1.33,0.97,0.92,2*0A,1777307561000
NMEA,$GNGSA,A,3,36,34,05,09,,,,,,,,,1.33,0.97,0.92,3*09,1777307561000
NMEA,$GNGSA,A,3,20,30,29,19,11,,,,,,,,1.33,0.97,0.92,4*02,1777307561000
NMEA,$GNGSA,A,3,,,,,,,,,,,,,1.33,0.97,0.92,5*01,1777307561000
NMEA,$GPGSV,3,1,12,03,67,023,21.9,04,59,177,22.5,01,55,111,20.2,17,50,267,,1*7E,1777307561000
NMEA,$GPGSV,3,2,12,49,42,175,,19,34,304,,09,30,204,12.8,02,26,127,,1*7D,1777307561000
NMEA,$GPGSV,3,3,12,31,19,079,,06,17,308,,28,14,050,,22,02,254,,1*63,1777307561000
NMEA,$GLGSV,3,1,9,65,68,239,12.8,88,62,328,20.9,72,51,031,,87,45,136,22.4,1*58,1777307561000
NMEA,$GLGSV,3,2,9,66,19,221,,81,09,324,,86,07,140,,71,01,038,,1*4C,1777307561000
NMEA,$GLGSV,3,3,9,80,01,353,,1*7D,1777307561000
NMEA,$GAGSV,3,1,12,36,64,090,17.4,34,55,316,14.6,09,53,068,16.3,05,52,171,18.9,7*7E,1777307561000
NMEA,$GAGSV,3,2,12,06,32,049,,11,16,112,,04,10,037,,30,10,270,,7*78,1777307561000
NMEA,$GAGSV,3,3,12,03,08,201,,15,06,301,,27,05,316,,02,01,223,,7*7C,1777307561000
NMEA,$GBGSV,4,1,14,20,82,025,37.5,12,75,243,,29,72,208,27.9,11,56,165,29.5,1*65,1777307561000
NMEA,$GBGSV,4,2,14,19,45,235,14.8,35,35,309,,30,27,153,18.7,32,24,049,,1*7A,1777307561000
NMEA,$GBGSV,4,3,14,39,17,055,,07,14,046,,10,14,055,,57,10,150,,1*7B,1777307561000
NMEA,$GBGSV,4,4,14,02,02,097,,60,02,097,,1*77,1777307561000
NMEA,$GNRMC,163241.000,A,4124.0669,N,00209.4729,E,0.000,202.90,270426,,,A,V*3C,1777307561000
NMEA,$GNVTG,202.90,T,,M,0.000,N,0.000,K,A*2A,1777307561000
NMEA,$GNACCURACY,1.8,179.9,3.8,30.0*23,1777307561000
NMEA,$PMTKAGC,163241.000,2366,2215,5943,5786,0,0,0,6,110,0*72,1777307561000
NMEA,$PMTKTSX1,2285565,11272.692,31.444,31.844,6cb40000,1.144480,1.127269,-1.440121,-0.327304,3.509599,1.062,2.0*69,1777307561000
NMEA,$PMTKERT,953786363,2285565,953786266,0000*7E,1777307561000
NMEA,$PMTKMPE1,0.0,0.000,0.0000000,0.0000000,0.00,0.00,0.00,0.00,0.00,0.00,0.00,0.00,4,5,0,1*6B,1777307561000
NMEA,$PMTKMPE2,UDR_v6.2.0_2021_04_13,PDR_v6.2.0_2021_04_13*6D,1777307561000
NMEA,$PMTKLCPOS1,20260427163241.000,41.401074,2.157857,103.7,3,0.000000,0.000000,0.0,0*78,1777307561000
NMEA,$PMTKLCPOS2,20260427163241.000,41.401115,2.157881,103.7,1,2416,145979.000,18*57,1777307561000
NMEA,$GNGGA,163242.000,4124.0669,N,00209.4729,E,1,16,0.97,52.5,M,51.3,M,,*47,1777307562000
NMEA,$GNGSA,A,3,01,04,09,03,,,,,,,,,1.33,0.97,0.92,1*0A,1777307562000
NMEA,$GNGSA,A,3,88,87,65,,,,,,,,,,1.33,0.97,0.92,2*0A,1777307562000
NMEA,$GNGSA,A,3,36,34,05,09,,,,,,,,,1.33,0.97,0.92,3*09,1777307562000
NMEA,$GNGSA,A,3,20,30,29,19,11,,,,,,,,1.33,0.97,0.92,4*02,1777307562000
NMEA,$GNGSA,A,3,,,,,,,,,,,,,1.33,0.97,0.92,5*01,1777307562000
NMEA,$GPGSV,3,1,12,03,67,023,21.8,04,59,177,23.2,01,55,111,20.9,17,50,267,,1*72,1777307562000
NMEA,$GPGSV,3,2,12,36,37,149,,19,34,304,,09,30,204,12.8,02,26,127,,1*78,1777307562000
NMEA,$GPGSV,3,3,12,31,19,079,,06,17,308,,28,14,050,,22,02,254,,1*63,1777307562000
NMEA,$GLGSV,3,1,9,65,68,239,12.8,88,62,328,24.0,72,51,031,,87,45,136,20.4,1*57,1777307562000
NMEA,$GLGSV,3,2,9,66,19,221,,81,09,324,,86,07,140,,71,01,038,,1*4C,1777307562000
NMEA,$GLGSV,3,3,9,80,01,353,,1*7D,1777307562000
NMEA,$GAGSV,3,1,12,36,64,090,17.3,34,55,316,14.6,09,53,068,16.3,05,52,171,19.9,7*78,1777307562000
NMEA,$GAGSV,3,2,12,06,32,049,,11,16,112,,04,10,037,,30,10,270,,7*78,1777307562000
NMEA,$GAGSV,3,3,12,03,08,201,,15,06,301,,27,05,316,,02,01,223,,7*7C,1777307562000
NMEA,$GBGSV,4,1,14,20,82,025,37.5,12,75,243,,29,72,208,27.9,11,56,165,29.5,1*65,1777307562000
NMEA,$GBGSV,4,2,14,19,45,235,14.8,35,35,309,,30,27,153,18.7,32,24,049,,1*7A,1777307562000
NMEA,$GBGSV,4,3,14,39,17,055,,07,14,046,,10,14,055,,57,10,150,,1*7B,1777307562000
NMEA,$GBGSV,4,4,14,02,02,097,,60,02,097,,1*77,1777307562000
NMEA,$GNRMC,163242.000,A,4124.0669,N,00209.4729,E,0.000,202.90,270426,,,A,V*3F,1777307562000
NMEA,$GNVTG,202.90,T,,M,0.000,N,0.000,K,A*2A,1777307562000
NMEA,$GNACCURACY,1.8,164.2,3.7,29.1*22,1777307562000
NMEA,$PMTKAGC,163242.000,2279,2261,5764,5850,0,0,0,6,110,0*72,1777307562000
NMEA,$PMTKTSX1,2286565,11600.212,31.412,31.731,6d060000,1.179257,1.160021,-2.025031,-0.327304,3.509599,1.124,2.0*36,1777307562000
NMEA,$PMTKERT,953787371,2286565,953787267,0000*7F,1777307562000
NMEA,$PMTKMPE1,0.0,0.000,0.0000000,0.0000000,0.00,0.00,0.00,0.00,0.00,0.00,0.00,0.00,4,5,0,1*6B,1777307562000
NMEA,$PMTKMPE2,UDR_v6.2.0_2021_04_13,PDR_v6.2.0_2021_04_13*6D,1777307562000
NMEA,$PMTKLCPOS1,20260427163242.000,41.401075,2.157858,103.7,3,0.000000,0.000000,0.0,0*75,1777307562000
NMEA,$PMTKLCPOS2,20260427163242.000,41.401115,2.157881,103.7,1,2416,145980.000,18*52,1777307562000
NMEA,$GNGGA,163243.000,4124.0647,N,00209.4716,E,1,15,1.03,52.4,M,51.3,M,,*48,1777307563000
NMEA,$GNGSA,A,3,01,04,03,,,,,,,,,,1.39,1.03,0.93,1*04,1777307563000
NMEA,$GNGSA,A,3,88,87,65,,,,,,,,,,1.39,1.03,0.93,2*0D,1777307563000
NMEA,$GNGSA,A,3,36,34,05,09,,,,,,,,,1.39,1.03,0.93,3*0E,1777307563000
NMEA,$GNGSA,A,3,20,30,29,19,11,,,,,,,,1.39,1.03,0.93,4*05,1777307563000
NMEA,$GNGSA,A,3,,,,,,,,,,,,,1.39,1.03,0.93,5*06,1777307563000
NMEA,$GPGSV,3,1,12,03,67,023,22.4,04,59,177,23.2,01,55,111,20.9,17,50,267,,1*7D,1777307563000
NMEA,$GPGSV,3,2,12,36,37,149,,19,34,304,,09,30,204,,02,26,127,,1*6D,1777307563000
NMEA,$GPGSV,3,3,12,31,19,079,,06,17,308,,28,14,050,,22,02,254,,1*63,1777307563000
NMEA,$GLGSV,3,1,9,65,68,239,12.9,88,62,328,24.0,72,51,031,,87,45,136,20.5,1*57,1777307563000
NMEA,$GLGSV,3,2,9,66,19,221,,81,09,324,,86,07,140,,71,01,038,,1*4C,1777307563000
NMEA,$GLGSV,3,3,9,80,01,353,,1*7D,1777307563000
NMEA,$GAGSV,3,1,12,36,64,090,17.2,34,55,316,15.1,09,53,068,16.3,05,52,171,20.0,7*7C,1777307563000
NMEA,$GAGSV,3,2,12,06,32,049,,11,16,112,,04,10,037,,30,10,270,,7*78,1777307563000
NMEA,$GAGSV,3,3,12,03,08,201,,15,06,301,,27,05,316,,02,01,223,,7*7C,1777307563000
NMEA,$GBGSV,4,1,14,20,82,025,37.5,12,75,243,,29,72,208,28.0,11,56,165,29.5,1*63,1777307563000
NMEA,$GBGSV,4,2,14,19,45,235,14.8,35,35,309,,30,27,153,18.7,32,24,049,,1*7A,1777307563000
NMEA,$GBGSV,4,3,14,39,17,055,,07,14,046,,10,14,055,,57,10,150,,1*7B,1777307563000
NMEA,$GBGSV,4,4,14,02,02,097,,60,02,097,,1*77,1777307563000
NMEA,$GNRMC,163243.000,A,4124.0647,N,00209.4716,E,0.000,202.90,270426,,,A,V*3E,1777307563000
NMEA,$GNVTG,202.90,T,,M,0.000,N,0.000,K,A*2A,1777307563000
NMEA,$GNACCURACY,1.8,179.9,3.1,29.4*26,1777307563000
NMEA,$PMTKAGC,163243.000,2185,2366,5915,5758,0,0,0,6,110,0*7A,1777307563000
NMEA,$PMTKTSX1,2287565,11745.062,31.380,31.662,6d380000,1.195697,1.174506,-1.955026,-0.327304,3.509599,1.160,2.0*30,1777307563000
NMEA,$PMTKERT,953788360,2287565,953788266,0000*7F,1777307563000
NMEA,$PMTKMPE1,0.0,0.000,0.0000000,0.0000000,0.00,0.00,0.00,0.00,0.00,0.00,0.00,0.00,4,5,0,1*6B,1777307563000
NMEA,$PMTKMPE2,UDR_v6.2.0_2021_04_13,PDR_v6.2.0_2021_04_13*6D,1777307563000
NMEA,$PMTKLCPOS1,20260427163243.000,41.401079,2.157860,103.7,3,0.000000,0.000000,0.0,0*73,1777307563000
NMEA,$PMTKLCPOS2,20260427163243.000,41.401079,2.157860,103.7,1,2416,145981.000,18*56,1777307563000
NMEA,$GNGGA,163244.000,4124.0649,N,00209.4718,E,1,14,1.17,52.5,M,51.3,M,,*4A,1777307564000
NMEA,$GNGSA,A,3,01,04,03,,,,,,,,,,1.50,1.17,0.94,1*09,1777307564000
NMEA,$GNGSA,A,3,88,87,65,,,,,,,,,,1.50,1.17,0.94,2*00,1777307564000
NMEA,$GNGSA,A,3,36,34,05,09,,,,,,,,,1.50,1.17,0.94,3*03,1777307564000
NMEA,$GNGSA,A,3,20,30,29,11,,,,,,,,,1.50,1.17,0.94,4*00,1777307564000
NMEA,$GNGSA,A,3,,,,,,,,,,,,,1.50,1.17,0.94,5*0B,1777307564000
NMEA,$GPGSV,3,1,12,03,67,023,23.3,04,59,177,23.2,01,55,111,20.9,17,50,267,,1*7B,1777307564000
NMEA,$GPGSV,3,2,12,36,37,149,,19,34,304,,09,30,204,,02,26,127,,1*6D,1777307564000
NMEA,$GPGSV,3,3,12,31,19,079,,06,17,308,,28,14,050,,22,02,254,,1*63,1777307564000
NMEA,$GLGSV,3,1,9,65,68,239,13.0,88,62,328,23.9,72,51,031,,87,45,136,20.4,1*50,1777307564000
NMEA,$GLGSV,3,2,9,66,19,221,,81,09,324,,86,07,140,,71,01,038,,1*4C,1777307564000
NMEA,$GLGSV,3,3,9,80,01,353,,1*7D,1777307564000
NMEA,$GAGSV,3,1,12,36,64,090,13.4,34,55,316,15.1,09,53,068,16.2,05,52,171,20.0,7*7F,1777307564000
NMEA,$GAGSV,3,2,12,06,32,049,,11,16,112,,04,10,037,,30,10,270,,7*78,1777307564000
NMEA,$GAGSV,3,3,12,03,08,201,,15,06,301,,27,05,316,,02,01,223,,7*7C,1777307564000
NMEA,$GBGSV,4,1,14,20,82,025,37.5,12,75,243,,29,72,208,28.0,11,56,165,29.4,1*62,1777307564000
NMEA,$GBGSV,4,2,14,19,45,235,,35,35,309,,30,27,153,18.6,32,24,049,,1*68,1777307564000
NMEA,$GBGSV,4,3,14,39,17,055,,07,14,046,,10,14,055,,57,10,150,,1*7B,1777307564000
NMEA,$GBGSV,4,4,14,02,02,097,,60,02,097,,1*77,1777307564000
NMEA,$GNRMC,163244.000,A,4124.0649,N,00209.4718,E,0.000,202.90,270426,,,A,V*39,1777307564000
NMEA,$GNVTG,202.90,T,,M,0.000,N,0.000,K,A*2A,1777307564000
NMEA,$GNACCURACY,1.8,179.9,3.3,29.7*27,1777307564000
NMEA,$PMTKAGC,163244.000,2635,2793,5920,5858,0,0,0,6,110,0*76,1777307564000
NMEA,$PMTKTSX1,2288565,11984.180,31.218,31.584,6d700000,1.220990,1.198418,-1.380638,-0.327304,3.509599,1.160,2.0*34,1777307564000
NMEA,$PMTKERT,953789363,2288565,953789267,0000*72,1777307564000
NMEA,$PMTKMPE1,0.0,0.000,0.0000000,0.0000000,0.00,0.00,0.00,0.00,0.00,0.00,0.00,0.00,4,5,0,1*6B,1777307564000
NMEA,$PMTKMPE2,UDR_v6.2.0_2021_04_13,PDR_v6.2.0_2021_04_13*6D,1777307564000
NMEA,$PMTKLCPOS1,20260427163244.000,41.401082,2.157864,103.8,3,0.000000,0.000000,0.0,0*7B,1777307564000
NMEA,$PMTKLCPOS2,20260427163244.000,41.401082,2.157864,103.8,1,2416,145982.000,18*5D,1777307564000
NMEA,$GNGGA,163245.000,4124.0650,N,00209.4718,E,1,14,1.17,52.5,M,51.3,M,,*43,1777307565000
NMEA,$GNGSA,A,3,01,04,03,,,,,,,,,,1.50,1.17,0.94,1*09,1777307565000
NMEA,$GNGSA,A,3,88,87,65,,,,,,,,,,1.50,1.17,0.94,2*00,1777307565000
NMEA,$GNGSA,A,3,36,34,05,09,,,,,,,,,1.50,1.17,0.94,3*03,1777307565000
NMEA,$GNGSA,A,3,20,30,29,11,,,,,,,,,1.50,1.17,0.94,4*00,1777307565000
NMEA,$GNGSA,A,3,,,,,,,,,,,,,1.50,1.17,0.94,5*0B,1777307565000
NMEA,$GPGSV,3,1,12,03,67,023,20.4,04,59,177,23.2,01,55,111,21.0,17,50,267,,1*77,1777307565000
NMEA,$GPGSV,3,2,12,36,37,149,,19,34,304,,09,30,204,,02,26,127,,1*6D,1777307565000
NMEA,$GPGSV,3,3,12,31,19,079,,06,17,308,,28,14,050,,22,02,254,,1*63,1777307565000
NMEA,$GLGSV,3,1,9,65,68,239,13.1,88,62,328,23.8,72,51,031,,87,45,136,20.5,1*51,1777307565000
NMEA,$GLGSV,3,2,9,66,19,221,,81,09,324,,86,07,140,,71,01,038,,1*4C,1777307565000
NMEA,$GLGSV,3,3,9,80,01,353,,1*7D,1777307565000
NMEA,$GAGSV,3,1,12,36,64,090,13.4,34,55,316,15.6,09,53,068,16.1,05,52,171,20.1,7*7A,1777307565000
NMEA,$GAGSV,3,2,12,06,32,049,,11,16,112,,04,10,037,,30,10,270,,7*78,1777307565000
NMEA,$GAGSV,3,3,12,03,08,201,,15,06,301,,27,05,316,,02,01,223,,7*7C,1777307565000
NMEA,$GBGSV,4,1,14,20,82,025,37.5,12,75,243,,29,72,208,28.0,11,56,165,26.9,1*60,1777307565000
NMEA,$GBGSV,4,2,14,19,45,235,,35,35,309,,30,27,153,18.6,32,24,049,,1*68,1777307565000
NMEA,$GBGSV,4,3,14,39,17,055,,07,14,046,,10,14,055,,57,10,150,,1*7B,1777307565000
NMEA,$GBGSV,4,4,14,02,02,097,,60,02,097,,1*77,1777307565000
NMEA,$GNRMC,163245.000,A,4124.0650,N,00209.4718,E,0.000,202.90,270426,,,A,V*30,1777307565000
NMEA,$GNVTG,202.90,T,,M,0.000,N,0.000,K,A*2A,1777307565000
NMEA,$GNACCURACY,1.8,170.6,3.0,28.2*26,1777307565000
NMEA,$PMTKAGC,163245.000,2299,2077,5902,5824,0,0,0,6,110,0*73,1777307565000
NMEA,$PMTKTSX1,2289565,12213.262,31.154,31.504,6daa0000,1.245017,1.221326,-1.119557,-0.327304,3.509599,1.195,2.0*34,1777307565000
NMEA,$PMTKERT,953790367,2289565,953790267,0000*77,1777307565000
NMEA,$PMTKMPE1,0.0,0.000,0.0000000,0.0000000,0.00,0.00,0.00,0.00,0.00,0.00,0.00,0.00,4,5,0,1*6B,1777307565000
NMEA,$PMTKMPE2,UDR_v6.2.0_2021_04_13,PDR_v6.2.0_2021_04_13*6D,1777307565000
NMEA,$PMTKLCPOS1,20260427163245.000,41.401084,2.157863,103.8,3,0.000000,0.000000,0.0,0*7B,1777307565000
NMEA,$PMTKLCPOS2,20260427163245.000,41.401084,2.157863,103.8,1,2416,145983.000,18*5C,1777307565000
NMEA,$GNGGA,163246.000,4124.0651,N,00209.4719,E,1,15,1.05,52.5,M,51.3,M,,*42,1777307566000
NMEA,$GNGSA,A,3,01,04,17,03,,,,,,,,,1.40,1.05,0.93,1*0A,1777307566000
NMEA,$GNGSA,A,3,88,87,65,,,,,,,,,,1.40,1.05,0.93,2*05,1777307566000
NMEA,$GNGSA,A,3,36,34,05,09,,,,,,,,,1.40,1.05,0.93,3*06,1777307566000
NMEA,$GNGSA,A,3,20,30,29,11,,,,,,,,,1.40,1.05,0.93,4*05,1777307566000
NMEA,$GNGSA,A,3,,,,,,,,,,,,,1.40,1.05,0.93,5*0E,1777307566000
NMEA,$GPGSV,3,1,12,03,67,023,20.4,04,59,177,18.9,01,55,111,21.0,17,50,267,12.7,1*6E,1777307566000
NMEA,$GPGSV,3,2,12,36,37,149,,19,34,304,,09,30,204,,02,26,127,,1*6D,1777307566000
NMEA,$GPGSV,3,3,12,31,19,079,,06,17,308,,28,14,050,,22,02,254,,1*63,1777307566000
NMEA,$GLGSV,3,1,9,65,68,239,13.2,88,62,328,23.7,72,51,031,,87,45,136,23.6,1*5D,1777307566000
NMEA,$GLGSV,3,2,9,66,19,221,,81,09,324,,86,07,140,,71,01,038,,1*4C,1777307566000
NMEA,$GLGSV,3,3,9,80,01,353,,1*7D,1777307566000
NMEA,$GAGSV,3,1,12,36,64,090,16.7,34,55,317,15.6,09,53,068,16.0,05,52,171,16.3,7*7B,1777307566000
NMEA,$GAGSV,3,2,12,06,32,049,,11,16,112,,04,10,037,,30,10,270,,7*78,1777307566000
NMEA,$GAGSV,3,3,12,03,08,201,,15,06,301,,27,05,316,,02,01,223,,7*7C,1777307566000
NMEA,$GBGSV,4,1,14,20,82,025,37.5,12,75,243,,29,72,208,28.0,11,56,165,27.0,1*68,1777307566000
NMEA,$GBGSV,4,2,14,19,45,235,,35,35,309,,30,27,153,18.5,32,24,049,,1*6B,1777307566000
NMEA,$GBGSV,4,3,14,39,17,055,,07,14,046,,10,14,055,,57,10,150,,1*7B,1777307566000
NMEA,$GBGSV,4,4,14,02,02,097,,60,02,097,,1*77,1777307566000
NMEA,$GNRMC,163246.000,A,4124.0651,N,00209.4719,E,0.000,202.90,270426,,,A,V*33,1777307566000
NMEA,$GNVTG,202.90,T,,M,0.000,N,0.000,K,A*2A,1777307566000
NMEA,$GNACCURACY,1.8,179.9,3.1,28.3*20,1777307566000
NMEA,$PMTKAGC,163246.000,2338,2487,5899,5910,0,0,0,6,110,0*74,1777307566000
NMEA,$PMTKTSX1,2290565,12396.919,31.121,31.438,6dda0000,1.264619,1.239692,-1.235839,-0.327304,3.509599,1.217,2.0*37,1777307566000
NMEA,$PMTKERT,953791363,2290565,953791269,0000*75,1777307566000
NMEA,$PMTKMPE1,0.0,0.000,0.0000000,0.0000000,0.00,0.00,0.00,0.00,0.00,0.00,0.00,0.00,4,5,0,1*6B,1777307566000
NMEA,$PMTKMPE2,UDR_v6.2.0_2021_04_13,PDR_v6.2.0_2021_04_13*6D,1777307566000
NMEA,$PMTKLCPOS1,20260427163246.000,41.401085,2.157865,103.8,3,0.000000,0.000000,0.0,0*7F,1777307566000
NMEA,$PMTKLCPOS2,20260427163246.000,41.401085,2.157865,103.8,1,2416,145984.000,18*5F,1777307566000
NMEA,$GNGGA,163247.000,4124.0651,N,00209.4716,E,1,17,0.92,52.5,M,51.3,M,,*41,1777307567000
NMEA,$GNGSA,A,3,01,04,17,03,,,,,,,,,1.28,0.92,0.89,1*00,1777307567000
NMEA,$GNGSA,A,3,88,87,65,,,,,,,,,,1.28,0.92,0.89,2*0F,1777307567000
NMEA,$GNGSA,A,3,36,34,05,09,,,,,,,,,1.28,0.92,0.89,3*0C,1777307567000
NMEA,$GNGSA,A,3,20,35,30,29,19,11,,,,,,,1.28,0.92,0.89,4*01,1777307567000
NMEA,$GNGSA,A,3,,,,,,,,,,,,,1.28,0.92,0.89,5*04,1777307567000
NMEA,$GPGSV,3,1,12,03,67,023,20.5,04,59,177,22.3,01,55,111,21.0,17,50,267,12.7,1*6C,1777307567000
NMEA,$GPGSV,3,2,12,36,37,149,,19,34,304,,09,30,204,,02,26,127,,1*6D,1777307567000
