     4.01           OBSERVATION DATA    M                   RINEX VERSION / TYPE
GnssLogger          realme 14           20260427 163240 UTC PGM / RUN BY / DATE
Google GnssLogger                                           MARKER NAME
Unknown                                                     MARKER NUMBER
Unknown             Unknown                                 OBSERVER / AGENCY
Unknown             GnssLogger          v3.1.1.2            REC # / TYPE / VERS
Unknown             Unknown                                 ANT # / TYPE
  4787900.6887   180395.9541  4195970.2955                  APPROX POSITION XYZ
        0.0000        0.0000        0.0000                  ANTENNA: DELTA H/E/N
G    3 C1C D1C S1C                                          SYS / # / OBS TYPES
R    3 C1C D1C S1C                                          SYS / # / OBS TYPES
C    4 C2I D2I S2I L2I                                      SYS / # / OBS TYPES
E    3 C1C D1C S1C                                          SYS / # / OBS TYPES
  2026    04    27    16    32   40.0000000     GPS         TIME OF FIRST OBS
 5 R01  1 R17  4 R22 -3 R23  3 R24  2                       GLONASS SLOT / FRQ #
realme RMX3393 (Android 14) HW Year: 2020 HW Model:         COMMENT
MTK_MNLD_6_0_0_20040301,MNL_VER_24081501ALPS05_6.7o_00      COMMENT
                                                            END OF HEADER
> 2026 04 27 16 32 40.0000000  0 16                      
G01  20946102.11523     -3495.33423        20.80523
G04  20827019.75423       233.68523        22.18423
E36  23825898.27423     -2500.18923        18.29023
G02  23342657.71422     -4447.92922        14.40022
C20  21751473.56825     -2195.85525        29.70025
C30  24193395.26123     -4815.81923        19.66223
R24  19625922.55721       217.00721                
G17  21594462.96422     -1898.27822        16.12022
G19  21992835.27723       268.91923        18.17923
C29  21492401.92024     -2552.26624        25.34524
C19  23174978.99622       384.93422        16.40522
G03  20160667.16124     -2621.33824        24.66424
C11  22518801.95825     -3730.73125        29.53425
E34  24137894.08423      -209.96123        19.50023
E05  24162166.48023       322.50323        22.10023
E09  24212060.93923     -2494.31923        18.70223
> 2026 04 27 16 32 41.0000000  0 16                      
G01  20946759.56023     -3492.13123        20.78123
G04  20826975.68524       243.81424        24.47924
E36  23826373.44523     -2489.95723        18.18023
G02  23343506.12722     -4447.60222        14.40022
C20  21751895.07625     -2185.35025        34.50025
C30  24194319.52123     -4795.20723        19.67823
R24  19625884.18321       232.85621                
G17  21594823.61522     -1882.68822        16.12022
G19  21992785.81123       270.40923        18.17923
C29  21492892.98024     -2542.96424        28.40024
C19  23174905.84722       395.74122        16.31422
G03  20161166.91524     -2611.03824        24.71324
C11  22519518.76224     -3713.41424        29.49224
E34  24137934.55623      -192.30123        20.00023
E05  24162105.32323       332.43923        21.10023
E09  24212537.00922     -2481.50022        16.00022
> 2026 04 27 16 32 42.0000000  0 17                      
G01  20947445.48523     -3513.95423        20.84223
G04  20826931.01624       219.41724        24.95924
E36  23826851.01423     -2523.58223        18.13123
G02  23344355.73922     -4481.86422        14.00022
C20  21752317.18426     -2207.48426        38.60026     74069.43726
C35  23695826.42122       593.57322        13.90022                
C30  24195244.08123     -4836.64923        19.69423                
R24  19625843.41121       209.59521                
G17  21595176.77022     -1921.14422        16.05922
G19  21992731.84922       252.27422        13.50022
C29  21493383.14024     -2564.49424        28.41024                
C19  23174830.29922       376.65722        16.22822                
G03  20161666.96824     -2635.79224        24.64324
C11  22520235.26625     -3744.24325        29.50225                
E34  24137972.03023      -207.93823        18.60023
E05  24162042.96623       309.55723        19.30023
E09  24213012.48022     -2517.19222        16.00022
> 2026 04 27 16 32 43.0000000  0 16                      
G01  20948102.93023     -3549.11223        20.95623
G04  20826893.84124       174.96324        24.50924
E36  23827333.68023     -2554.94423        18.03423
G02  23345211.64622     -4518.39422        14.00022
C20  21752745.58826     -2247.95026        38.55526                
C35  23695716.39722       552.07022        13.90022                
C30  24196175.23623     -4865.96923        19.74423                
R24  19625807.13621       166.12221                
G17  21595544.31622     -1951.93122        16.00122
G19  21992686.28022       227.95022        13.50022
C29  21493880.49624     -2611.29524        28.41424                
C19  23174763.44522       330.29422        16.21622                
G03  20162172.41824     -2676.95924        25.73724
C11  22520958.66524     -3786.88924        29.48624                
E05  24161988.10423       268.03023        22.10023
E09  24213498.74422     -2555.88822        15.95022
> 2026 04 27 16 32 44.0000000  0 15                      
G01  20948776.26423     -3586.67223        21.07223
G04  20826862.66324       145.34924        24.23024
E36  23827822.64223     -2598.80423        17.98723
G02  23346073.25022     -4543.69922        14.00022
C20  21753181.18626     -2280.74926        38.43226                
C30  24197112.68723     -4906.78823        19.71123                
R24  19625780.15521       129.76621                
G17  21595916.05822     -1966.16822        15.94522
G19  21992641.91122       238.57922        13.50022
C29  21494384.44724     -2638.78024        28.35324                
C19  23174703.48722       305.80122        16.20522                
G03  20162683.86424     -2709.06724        25.46724
C11  22521689.55924     -3821.35224        29.49624                
E05  24161939.53723       235.92423        21.10023
E09  24213987.10622     -2591.41222        16.06222
> 2026 04 27 16 32 45.0000000  0 16                      
G01  20949461.59023     -3613.13723        21.10823
G04  20826838.97924       119.58924        24.06624
E36  23828320.29723     -2621.49123        17.94223
G02  23346940.25022     -4568.54822        12.60022
C20  21753622.78026     -2308.48126        38.33526     80865.24926
C30  24198057.33322     -4924.62722        16.90022                
R24  19625758.27021       103.18221                
G17  21596292.89822     -1995.70922        13.20022
G19  21992596.94221       223.10821        11.60021
C29  21494894.09424     -2667.72824        28.33524                
C19  23174647.42522       272.68822        16.19422                
G03  20163201.30624     -2735.65424        24.90224
C11  22522426.44925     -3847.41325        29.51625                
E34  24138120.42723      -317.44623        17.70023
E05  24161897.86623       202.54223        21.10023
E09  24214484.16122     -2630.32722        16.16822
> 2026 04 27 16 32 46.0000000  0 17                      
G01  20950149.91323     -3636.72823        21.15323
G04  20826817.39424        91.80524        24.93124
E36  23828821.25023     -2640.92723        17.92423
G02  23347811.74622     -4594.22422        12.60022
C20  21754068.57226     -2331.28226        38.31326     83185.25426
C30  24199005.57722     -4948.58622        17.00522                
R24  19625740.28321        80.70721                
R22  23831677.67321     -5892.99521                
G17  21596675.13322     -2025.81222        13.20022
G19  21992556.17021       199.63921        11.60021
C29  21495408.53824     -2690.41224        28.33324                
C19  23174598.85922       242.50522        16.15422                
G03  20163724.14424     -2760.26224        24.35624
C11  22523166.93624     -3872.60224        29.49524                
E34  24138184.58323      -358.32623        17.70023
E05  24161860.99223       185.99923        20.60023
E09  24214987.21322     -2644.01822        16.12922
> 2026 04 27 16 32 47.0000000  0 16                      
G01  20950850.52823     -3672.25223        21.26223
G04  20826803.60424        63.90224        24.81424
E36  23829328.19923     -2677.51823        17.83723
G02  23348684.74221     -4628.23921        11.90021
C20  21754520.05926     -2364.28126        38.29726     85534.75926
C30  24199958.61723     -4975.60223        19.80023                
R24  19625727.99121        42.28721                
G17  21597063.36421     -2054.61421        11.10021
G19  21992520.79521       167.77521        12.30021
C29  21495928.07924     -2722.98424        28.27124                
C19  23174553.89022       222.15722        16.19622                
G03  20164253.57824     -2791.27224        24.75524
C11  22523914.01924     -3901.10424        29.48024                
E34  24138256.83322      -401.98822        13.50022
E05  24161829.21423       153.79123        22.20023
E09  24215492.96322     -2682.79822        16.21222
> 2026 04 27 16 32 48.0000000  0 16                      
G01  20951554.44123     -3693.06123        21.31223
G04  20826795.50923        41.09023        23.42123
E36  23829840.54523     -2692.56823        17.75523
G02  23349568.23021     -4645.89521        11.90021
C20  21754976.94326     -2384.61526        38.25726                
C30  24200916.75423     -4997.85723        19.77023                
R24  19625721.69621        31.05021                
G17  21597457.29121     -2073.07521        11.10021
G19  21992491.41521       149.44021        12.30021
C29  21496454.21424     -2744.16324        28.21724                
C19  23174511.02022       223.39422        16.23622                
G03  20164789.00724     -2816.69224        23.56124
C11  22524665.89824     -3922.38924        29.44624                
E34  24138336.57722      -412.47322        13.50022
E05  24161802.83223       131.66223        19.90023
E09  24216007.70722     -2709.23722        16.17622
> 2026 04 27 16 32 49.0000000  0 16                      
G01  20952240.66623     -3524.55323        21.39723
G04  20826771.22623       202.35823        22.71623
E36  23830339.10023     -2540.31923        17.69723
G02  23350436.72921     -4481.66021        11.90021
C20  21755419.73626     -2226.68426        38.21926                
C30  24201860.20123     -4839.49123        19.68623                
R24  19625699.81121       191.51621                
G17  21597837.12821     -1914.99921        11.10021
G19  21992448.54521       301.15421        12.30021
C29  21496964.46124     -2575.97024        28.17624                
C19  23174456.75722       369.79122        13.60022                
G03  20165307.64824     -2651.87224        23.59624
C11  22525401.58924     -3750.10124        29.34324                
E34  24138396.53622      -231.19822        13.70022
E05  24161762.66023       294.26223        21.60023
E09  24216507.16122     -2534.71122        16.26222
> 2026 04 27 16 32 50.0000000  0 16                      
G01  20952913.70023     -3531.73823        21.50523
G04  20826733.45223       196.10723        22.71023
E36  23830822.06523     -2541.91623        17.64223
G02  23351289.33922     -4472.03122        14.20022
C20  21755847.84026     -2225.02026        38.20326                
C30  24202791.05623     -4852.43723        19.56123                
R24  19625665.93421       181.86821                
G17  21598201.97622     -1903.29622        13.70022
G19  21992389.78521       313.29821        11.00021
C29  21497459.71824     -2583.91324        28.17724                
C19  23174386.90622       357.54522        13.60022                
G03  20165812.79824     -2656.55324        23.60924
C11  22526123.48924     -3763.80024        29.31524                
E34  24138437.60722      -204.74922        13.70022
E05  24161706.89823       289.75923        19.70023
E09  24216989.52722     -2544.32322        16.25822
> 2026 04 27 16 32 51.0000000  0 16                      
G01  20953575.64124     -3430.62124        24.35624
G04  20826686.68523       300.47723        22.72523
E36  23831297.53623     -2430.00523        17.59423
G02  23352128.75822     -4359.89622        14.20022
C20  21756265.75126     -2132.56126        38.15726                
C30  24203711.11923     -4732.40823        19.44223                
R24  19625621.86521       286.07321                
G17  21598555.73122     -1824.96522        13.70022
G19  21992320.53321       414.67421        11.00021
C29  21497946.58124     -2486.55324        28.11824                
C19  23174309.55922       446.11022        13.60022                
G03  20166308.65524     -2550.12424        23.54424
C11  22526836.09624     -3662.19624        29.24424                
E34  24138466.38722       -92.20322        13.70022
E05  24161640.64423       395.67723        21.80023
E09  24217462.89922     -2438.06822        16.26022
> 2026 04 27 16 32 52.0000000  0 15                      
G01  20954228.58924     -3446.02224        24.34924
G04  20826629.42423       286.52223        22.72823
E36  23831761.61523     -2454.80623        17.54923
G02  23352955.58522     -4344.63922        13.20022
C20  21756674.66826     -2141.16026        38.08426     96749.41826
C30  24204620.39023     -4742.56123        19.35923                
R24  19625567.90221       274.10521                
G17  21598905.28922     -1848.39022        12.90022
C29  21498424.75024     -2500.72524        28.03224                
C19  23174221.42022       448.40222        12.80022                
G03  20166794.61923     -2566.45823        23.48023
C11  22527540.00924     -3679.54524        29.25124                
E34  24138481.67722       -83.68922        13.70022
E05  24161566.59623       378.48923        21.00023
E09  24217927.87722     -2457.97022        16.26722
> 2026 04 27 16 32 53.0000000  0 14                      
G01  20954889.63224     -3497.15424        23.59624
G04  20826580.85823       226.20723        19.98523
E36  23832235.28723     -2504.60723        17.57123
G02  23353788.40922     -4405.52522        13.20022
C20  21757091.37926     -2196.09226        38.08926                
C30  24205537.15523     -4804.94923        19.28123                
R24  19625522.63321       214.71921                
G17  21599262.64222     -1903.83222        12.90022
C29  21498910.11424     -2553.17724        28.07524                
C19  23174142.57522       382.80022        12.80022                
G03  20167289.27623     -2628.85723        23.39623
C11  22528252.01624     -3732.70924        25.30024                
E05  24161500.04223       323.01523        18.80023
E09  24218401.25022     -2508.35022        16.16822
> 2026 04 27 16 32 54.0000000  0 13                      
G01  20955560.26823     -3553.45423        21.66823
G04  20826541.88523       179.71523        23.24323
G02  23354632.62422     -4462.71622        13.20022
C20  21757518.28426     -2244.75926        38.05426                
C30  24206467.71122     -4864.91922        15.70022                
R24  19625487.85721       164.26721                
G17  21599630.48722     -1957.45822        12.90022
C29  21499406.27124     -2604.78824        28.04624                
C19  23174075.42122       338.76722        15.00022                
G03  20167793.52723     -2670.64123        23.38223
C11  22528974.21625     -3784.18325        29.70025                
E05  24161444.28023       275.51423        19.70023
E09  24218883.61622     -2555.13622        16.07422
> 2026 04 27 16 32 55.0000000  0 13                      
G01  20956239.59723     -3594.09523        23.24323
G04  20826514.00423       125.66923        23.49023
G02  23355486.43322     -4511.74922        12.70022
C20  21757954.48225     -2291.02725        33.60025                
E34  24138633.07223      -296.72523        20.80023
C30  24207405.76222     -4901.96122        15.70022                
R24  19625462.37521       121.32921                
C29  21499911.12124     -2648.96524        27.95824                
C19  23174013.96422       289.13722        15.00022                
G03  20168306.77223     -2718.54123        23.43623
C11  22529705.11025     -3826.71125        29.69525                
E05  24161396.01423       233.20023        19.60023
E09  24219378.57322     -2622.11422        16.16522
> 2026 04 27 16 32 56.0000000  0 14                      
G01  20956917.12823     -3494.83123        23.27923
G04  20826481.62724       239.05824        25.24724
E36  23833696.77522     -2507.86222        16.70022
G02  23356339.04322     -4421.48122        12.70022
C20  21758387.68226     -2191.56126        37.30026                
E34  24138680.43923      -190.31823        18.50023
C30  24208342.01422     -4803.29522        15.77022                
R24  19625437.19321       216.64321                
C29  21500413.57324     -2551.86624        27.91024                
C19  23173951.60722       395.54622        15.00022                
G03  20168816.71923     -2615.23923        23.47423
C11  22530433.60525     -3724.06325        29.62025                
E05  24161345.34923       322.75123        18.80023
E09  24219869.63322     -2504.03222        16.25122
> 2026 04 27 16 32 57.0000000  0 13                      
G01  20957577.27123     -3471.14723        23.16923
G04  20826430.66223       258.10623        23.35123
E36  23834165.65022     -2465.94222        16.70022
G02  23357173.06622     -4375.30522        12.70022
C20  21758803.19426     -2166.56326        37.36026                
C30  24209261.17722     -4783.70222        15.86622                
R24  19625388.32621       250.23921                
C29  21500898.33824     -2525.12424        27.90924                
C19  23173868.86422       432.64022        14.92522                
G03  20169308.37824     -2589.20524        23.70124
C11  22531142.31525     -3696.69525        29.56425                
E05  24161277.89523       353.76823        20.20023
E09  24220337.90922     -2466.39322        16.26822
> 2026 04 27 16 32 58.0000000  0 13                      
G01  20958242.51123     -3520.99423        22.35623
G04  20826385.99323       204.57123        20.64823
E36  23834639.62222     -2534.95922        17.40022
C20  21759223.50326     -2220.09526        37.42226                
C30  24210185.13823     -4837.61923        18.70023                
R24  19625346.05621       194.84521                
R01  19300964.32021      -572.78421                
C29  21501387.59924     -2578.47124        27.96824                
C19  23173793.61722       356.37722        14.85322                
G03  20169806.63323     -2644.82323        22.71623
C11  22531858.21925     -3755.95825        29.54025                
E05  24161215.53923       299.05223        22.50023
E09  24220812.78022     -2526.03622        16.28422
> 2026 04 27 16 32 59.0000000  0 14                      
G01  20958916.14423     -3570.02623        20.15923
G04  20826351.21723       158.95523        22.51523
E36  23835125.88622     -2580.71622        17.40022
C20  21759653.40526     -2268.76326        37.46026                
E34  24138790.76322      -264.07922        14.60022
C30  24211119.59123     -4875.72623        18.72023                
R24  19625313.37821       141.79721                
R01  19301076.44321      -624.58821                
C29  21501887.05324     -2625.69424        27.93924                
C19  23173729.16122       308.69622        14.78522                
G03  20170314.18223     -2694.74023        21.93323
C11  22532584.31624     -3807.45524        29.47324                
E05  24161162.17523       258.86123        18.90023
E09  24221297.84422     -2578.85922        16.31422
> 2026 04 27 16 33 00.0000000  0 14                      
G01  20959600.87023     -3617.05423        20.90523
G04  20826326.33423       106.89723        23.20623
E36  23835622.04222     -2631.08922        17.32022
C20  21760093.80126     -2319.42726        37.48726                
E34  24138846.82422      -324.13722        14.60022
C30  24212061.53923     -4932.23923        18.73923                
R24  19625289.99421        88.79921                
R01  19301198.45821      -680.35321                
C29  21502396.70124     -2683.91424        27.94724                
C19  23173678.19622       264.07022        14.80522                
G03  20170833.42323     -2752.04223        21.80323
C11  22533320.90724     -3859.49124        29.47924                
E05  24161118.70623       201.08023        19.90023
E09  24221794.60122     -2634.74222        16.34322
> 2026 04 27 16 33 01.0000000  0 14                      
G01  20960293.09123     -3645.60823        20.93623
G04  20826308.34723        82.01223        23.16323
E36  23836126.29322     -2659.81522        17.24422
C20  21760541.99026     -2342.69326        37.48726                
E34  24138909.18122      -342.29822        15.10022
C30  24213011.28123     -4961.49823        18.67723                
R24  19625275.90421        67.00021                
R01  19301322.87221      -716.17821                
C29  21502914.44224     -2700.04224        27.97924                
C19  23173630.23022       237.86222        14.82422                
G03  20171358.95923     -2766.33623        22.43623
C11  22534064.39224     -3879.65524        29.45524                
E05  24161083.63023       178.23723        19.96023
E09  24222300.35022     -2659.49722        16.28022
> 2026 04 27 16 33 02.0000000  0 13                      
G01  20960991.30823     -3680.80223        20.91023
G04  20826296.35523        38.76623        23.15523
E36  23836637.73922     -2682.48622        13.40022
C20  21760996.17626     -2380.62626        37.50226                
E34  24138980.53222      -389.54122        15.10022
C30  24213967.91923     -4996.71923        18.60823                
R24  19625266.61121        25.69321                
R01  19301461.97621      -755.04221                
C29  21503437.58024     -2740.17424        27.96024                
G03  20171891.09023     -2806.40723        23.27923
C11  22534813.57324     -3918.91324        29.43724                
E05  24161055.15023       137.00823        20.04223
E09  24222811.19722     -2707.21522        16.22122
> 2026 04 27 16 33 03.0000000  0 13                      
G01  20961696.42023     -3722.45423        20.97123
G04  20826293.05723         2.41523        23.15123
E36  23837153.98222     -2735.19022        13.40022
C20  21761457.85626     -2417.89226        37.50126                
E34  24139058.47822      -433.90922        15.60022
C30  24214931.15223     -5026.28423        18.56723                
R24  19625264.51221        -2.73821                
R01  19301599.88021      -773.83921                
C29  21503968.21324     -2775.84024        27.97224                
G03  20172428.61823     -2845.90023        20.43523
C11  22535569.95024     -3956.64224        26.90024                
E05  24161033.56523       102.90923        20.05923
E09  24223331.63622     -2748.36522        16.10922
> 2026 04 27 16 33 04.0000000  0 14                      
G01  20962408.12723     -3742.81623        21.03123
G04  20826294.55623       -17.10023        18.91323
E36  23837676.52022     -2749.04322        16.70022
C20  21761925.53226     -2446.29426        37.52026    124099.84726
E34  24139139.12222      -437.69922        15.63022
C30  24215898.88223     -5055.70223        18.52823                
R24  19625269.30921       -42.37521                
R01  19301744.98021      -786.39121                
G17  21603414.46722     -2157.29122        12.70022
C29  21504505.14124     -2805.40824        27.97324                
G03  20172973.04123     -2875.47023        20.43523
C11  22536332.92124     -3983.48124        26.99524                
E05  24161017.67622        71.17022        16.30022
E09  24223860.17122     -2794.57122        16.00322
> 2026 04 27 16 33 05.0000000  0 16                      
G01  20963124.03123     -3781.76923        21.02723
G04  20826301.15223       -56.00723        22.31523
E36  23838200.85722     -2776.64422        16.70022
C20  21762398.00526     -2473.96026        37.56926    126560.86426
E34  24139225.76222      -475.35922        15.30022
C35  23693486.84022       331.13222        13.90022                
C30  24216872.30823     -5079.08523        18.49123                
R24  19625280.10121       -65.66921                
R01  19301897.27521      -839.54221                
G17  21603826.98222     -2184.56522        12.70022
C29  21505046.56624     -2834.64824        27.99924                
C19  23173502.81822       100.83522        13.40022                
G03  20173522.86123     -2901.78523        20.48923
C11  22537100.99024     -4012.25224        27.10524                
E05  24161008.08223        45.97723        20.30023
E09  24224374.01522     -2793.20222        15.95722
> 2026 04 27 16 33 06.0000000  0 16                      
G01  20963845.93123     -3794.02123        20.95323
G04  20826313.74323       -65.78223        22.33523
E36  23838732.38922     -2822.24622        16.66522
C20  21762875.87526     -2493.55926        37.61526    129048.34126
E34  24139315.99922      -491.83122        17.40022
C35  23693424.48422       330.87922        13.90022                
C30  24217849.03223     -5102.00623        18.38623                
R24  19625295.69121       -78.06921                
R01  19302046.87121      -863.01821                
G17  21604245.19222     -2210.38122        12.70022
C29  21505593.08824     -2850.06924        27.98424                
C19  23173485.43022        81.94422        13.40022                
G03  20174077.47723     -2917.14123        20.55223
C11  22537874.15424     -4027.32324        27.22424                
E05  24161003.28523        21.87823        21.10023
E09  24224906.74622     -2801.25922        15.91422
> 2026 04 27 16 33 07.0000000  0 15                      
G01  20964571.12923     -3827.49223        20.88923
G04  20826330.23223      -100.68223        21.80323
E36  23839271.41622     -2843.66822        16.63122
C20  21763357.94126     -2521.75826        37.61426    131557.90826
E34  24139412.53222      -520.29922        14.50022
C35  23693364.22522       293.52522        13.90022                
C30  24218830.85223     -5126.84223        18.36623                
R24  19625316.67621      -114.61821                
R01  19302209.65821      -882.55621                
C29  21506144.10624     -2881.77424        27.98924                
C19  23173474.33822        60.12722        15.50022                
G03  20174634.79123     -2944.23623        20.58423
C11  22538651.51624     -4058.98124        27.29724                
E05  24161000.28823        -1.18423        20.10023
E09  24225441.57622     -2817.86622        15.87322
> 2026 04 27 16 33 08.0000000  0 15                      
G01  20965302.32323     -3856.94023        20.91123
G04  20826353.01623      -132.03823        19.98523
E36  23839803.24822     -2856.69622        16.51922
C20  21763845.40326     -2550.02226        37.63326                
E34  24139514.76222      -549.93122        14.50022
C35  23693310.26322       270.08722        13.92522                
C30  24219818.96823     -5164.02823        18.34723                
R24  19625341.25921      -146.86121                
R01  19302368.54821      -920.80021                
C29  21506699.92124     -2910.12924        27.95424                
C19  23173464.74422        42.72822        15.50022                
G03  20175198.40123     -2985.35523        20.55923
C11  22539434.27424     -4085.51424        27.39224                
E05  24161003.88523       -32.68323        19.00023
E09  24225980.30322     -2841.36722        15.83422
> 2026 04 27 16 33 09.0000000  0 15                      
G01  20966038.61323     -3866.27623        20.91823
G04  20826379.69723      -146.40323        21.43823
E36  23840348.27022     -2867.55722        16.41322
C20  21764337.06326     -2562.35526        37.66126                
E34  24139622.98722      -566.30622        14.90022
C35  23693259.29822       259.65122        13.94822                
C30  24220812.48023     -5167.74123        18.33423                
R24  19625370.93821      -163.31821                
R01  19302543.32721      -932.79521                
C29  21507261.13324     -2927.83624        27.88124                
C19  23173459.94822        17.84722        15.50022                
G03  20175768.90623     -2997.92123        20.57123
C11  22540221.52924     -4105.32024        27.46724                
E05  24161013.47823       -46.65123        19.05023
E09  24226525.02621     -2849.97721        10.10021
> 2026 04 27 16 33 10.0000000  0 15                      
G01  20966774.60423     -3875.59823        20.83723
G04  20826405.48023      -136.34223        20.10123
E36  23840893.59322     -2864.35322        16.31222
C20  21764829.92226     -2570.75426        37.66226    139220.90626
E34  24139731.51222      -572.77622        14.90022
C35  23693211.63122       238.02022        13.99522                
C30  24221805.69323     -5179.84623        18.32223                
R24  19625403.01621      -169.86921                
R01  19302716.90721      -931.95521                
C29  21507822.94424     -2929.69324        27.89124                
C19  23173454.55122        33.06922        15.47022                
G03  20176337.31223     -2994.62223        20.65423
C11  22541009.38424     -4107.56024        27.54824                
E05  24161023.07223       -48.40423        19.10723
E09  24227066.15121     -2839.79121        10.10021
> 2026 04 27 16 33 11.0000000  0 15                      
G01  20967516.89023     -3900.08023        20.78223
G04  20826436.05823      -172.17123        20.15923
E36  23841441.01422     -2885.89522        16.21622
C20  21765326.07826     -2595.42226        37.69326    141805.59426
E34  24139843.63422      -597.05022        16.20022
C35  23693168.16122       217.79122        14.04022                
C30  24222802.80323     -5200.16723        18.20023                
R24  19625437.79221      -196.02421                
R01  19302891.38621      -964.65821                
C29  21508388.35324     -2957.42224        27.89624                
C19  23173451.85322       -12.50822        15.44122                
G03  20176910.81523     -3020.15323        20.68623
C11  22541800.53624     -4133.89724        27.59024                
E05  24161035.66323       -75.06223        19.14623
E09  24227608.47621     -2857.87421        10.10021
> 2026 04 27 16 33 12.0000000  0 15                      
G01  20968262.17423     -3929.15923        20.73023
G04  20826470.83423      -198.95123        20.54023
E36  23841966.85021     -2912.74121        11.10021
C20  21765827.03126     -2618.49026        37.70826    144414.19026
E34  24139962.65222      -624.19622        16.26522
C35  23693128.28922       197.72422        14.08322                
C30  24223805.30923     -5229.33623        18.12023                
R24  19625474.06721      -223.62821                
R01  19303075.15921      -996.10521                
C29  21508958.55824     -2980.85224        27.88624                
C19  23173457.84922       -50.67022        14.30022                
G03  20177488.21623     -3051.23123        20.70423
C11  22542596.78524     -4157.69024        27.65524                
E05  24161053.95023      -100.84123        19.23823
E09  24228154.39821     -2879.77021        10.10021
> 2026 04 27 16 33 13.0000000  0 14                      
G01  20969010.75623     -3938.61123        20.70723
G04  20826510.70723      -212.16623        20.54823
E36  23842521.76621     -2920.17021        11.10021
C20  21766332.18226     -2633.75626        37.72226    147043.76426
E34  24140084.06822      -647.17422        16.26122
C35  23693091.41422       181.85822        14.08322                
C30  24224811.11223     -5244.45923        18.04423                
R24  19625517.83721      -235.92821                
R01  19303253.53621     -1018.24721                
C29  21509532.66024     -2993.79324        27.89624                
C19  23173467.14322       -53.77822        14.30022                
G03  20178070.11323     -3066.87823        20.66523
C11  22543397.23124     -4170.07424        27.74724                
E05  24161075.23623      -117.93423        19.30123
> 2026 04 27 16 33 14.0000000  0 14                      
G01  20969761.43623     -3952.05523        20.66523
G04  20826552.67823      -227.10923        20.53923
E36  23843078.78021     -2934.37621        11.10021
C20  21766839.13126     -2648.89126        37.74026    149685.90126
E34  24140209.68122      -664.27622        16.29722
C35  23693059.33622       165.08922        14.18322                
C30  24225821.71323     -5268.57423        17.98623                
R24  19625563.70521      -248.84421                
R01  19303444.50321     -1026.13221                
C29  21510109.46124     -3010.87724        27.86124                
C19  23173478.53522       -68.90622        14.30022                
G03  20178655.60723     -3084.10723        20.64523
C11  22544199.47524     -4187.06924        27.80924                
E05  24161098.61923      -136.69623        19.36523
> 2026 04 27 16 33 15.0000000  0 14                      
G01  20970515.41423     -3973.46923        20.58023
G04  20826597.04723      -243.35323        20.50523
E36  23843638.49321     -2947.01721        11.10021
C20  21767350.27726     -2669.55626        37.75826    152345.91626
E34  24140336.49322      -668.17122        16.31222
C35  23693029.35722       146.07422        14.27822                
C30  24226835.31123     -5274.48823        17.93123                
R24  19625613.47121      -274.71521                
R01  19303631.57421     -1042.70321                
C29  21510689.55924     -3029.93124        27.84224                
C19  23173490.82622       -78.04822        13.60022                
G03  20179243.20123     -3099.97823        20.65823
C11  22545005.61724     -4205.79624        27.85324                
E05  24161126.20023      -148.11123        19.38123
> 2026 04 27 16 33 16.0000000  0 14                      
G01  20971273.58923     -3987.28023        20.57223
G04  20826645.91323      -272.20623        20.47323
E36  23844200.90321     -2961.48421        11.10021
C20  21767864.12126     -2682.42426        37.77526    155021.93026
E34  24140467.50222      -690.59222        16.37122
C35  23693004.17522       125.65322        14.36922                
C30  24227848.90923     -5290.68023        17.85423                
R24  19625665.93421      -285.49821                
R01  19303831.53621     -1056.05421                
C29  21511272.65624     -3041.72624        27.88424                
C19  23173507.91422       -92.62422        13.60022                
G03  20179835.89023     -3117.88323        20.57023
C11  22545814.45724     -4219.08524        27.87024                
E05  24161155.88023      -164.61223        19.39623
> 2026 04 27 16 33 17.0000000  0 15                      
G01  20972033.26323     -3997.21123        20.56523
G04  20826697.77723      -275.05623        20.43023
E36  23844765.41221     -2972.55221        11.10021
C20  21768380.36426     -2695.35926        37.78126    157710.90326
E34  24140599.41122      -698.03122        16.36222
C35  23692981.09122       120.85122        14.47522                
C30  24228867.00423     -5306.68623        17.78123                
R24  19625719.89721      -296.19821                
R01  19304023.70221     -1071.24121                
G17  21609115.02122     -2408.17022        16.66122
C29  21511858.15024     -3056.69324        27.90424                
C19  23173527.10122      -120.66922        13.60022                
G03  20180428.88023     -3120.54823        20.51023
C11  22546626.59524     -4231.82224        27.89124                
E05  24161189.15723      -180.16923        19.42623
> 2026 04 27 16 33 18.0000000  0 14                      
G01  20972795.63623     -4016.18023        20.55523
G04  20826752.33923      -287.19723        20.44323
E36  23845332.02021     -2983.08621        11.10021
C20  21768899.60426     -2708.62626        37.82126    160414.53826
E34  24140734.31722      -723.57022        16.36322
C35  23692958.90622       108.05222        14.57622                
C30  24229886.59923     -5316.28923        17.71123                
R24  19625776.25821      -310.10221                
R01  19304225.76321     -1092.03421                
C29  21512446.34324     -3071.66924        27.90324                
C19  23173550.78522      -127.25422        13.69022                
G03  20181024.86723     -3137.64523        19.50223
C11  22547440.53224     -4246.45224        27.91124                
E05  24161224.83223      -195.70623        20.10023
> 2026 04 27 16 33 19.0000000  0 14                      
G01  20973559.50723     -4019.99423        20.43623
G04  20826806.90223      -291.57223        20.45523
E36  23845900.12721     -2988.23021        11.10021
C20  21769420.34426     -2715.96126        37.79926    163125.52126
E34  24140871.02322      -718.31322        16.35422
C35  23692939.12022       101.68722        14.63222                
C30  24230907.09223     -5318.73923        17.68523                
R24  19625834.71721      -311.23821                
R01  19304429.92121     -1092.07621                
C29  21513036.03524     -3076.32224        27.91224                
C19  23173575.06822      -113.61622        13.77522                
G03  20181622.05423     -3141.90123        19.50223
C11  22548256.26724     -4251.87924        27.96524                
E05  24161262.00623      -193.63423        19.50023
> 2026 04 27 16 33 20.0000000  0 14                      
G01  20974326.07623     -4034.73423        20.39223
G04  20826862.66323      -308.39623        20.44023
E36  23846469.13321     -2998.45621        11.10021
C20  21769943.18226     -2725.36226        37.79426    165845.94826
E34  24141008.02822      -727.99222        16.41122
C35  23692921.13222        81.90922        14.68522                
C30  24231930.58423     -5337.40523        17.64023                
R24  19625896.17521      -330.40221                
R01  19304633.18121     -1110.32121                
C29  21513627.22624     -3085.64124        27.90624    196349.11024
C19  23173596.35322      -126.96722        13.89622                
G03  20182220.44023     -3152.65123        18.84423
C11  22549073.50124     -4259.62724        27.97124                
E05  24161300.68023      -212.27323        18.80023
> 2026 04 27 16 33 21.0000000  0 14                      
G01  20975093.84523     -4037.90323        20.33123
G04  20826921.42223      -310.25023        20.39623
C20  21770467.81926     -2730.22826        37.80926    168576.45826
E34  24141146.53222      -728.21622        16.46522
C35  23692903.44422        85.45422        17.30022                
C30  24232953.47523     -5326.99123        17.63823                
R24  19625960.03121      -337.76721                
R01  19304842.73521     -1108.15021                
G17  21610970.13722     -2448.66522        16.66122
C29  21514221.41424     -3092.94924        27.81524                
C19  23173621.23622      -143.09222        14.01122                
G03  20182820.32423     -3154.90723        20.64823
C11  22549892.83424     -4266.55024        27.95724                
E05  24161341.75123      -219.30323        20.30023
> 2026 04 27 16 33 22.0000000  0 13                      
G01  20975863.11223     -4051.47123        20.27323
G04  20826982.28023      -331.35323        20.30023
C20  21770993.05526     -2739.56226        37.79826    171312.57726
E34  24141287.43422      -746.74522        16.48122
C35  23692889.95422        67.48322        17.31522                
C30  24233978.76623     -5345.44023        17.63623                
R24  19626023.28721      -344.58621                
R01  19305051.39121     -1115.88021                
C29  21514816.20324     -3100.98124        27.73924                
C19  23173650.91522      -154.23222        14.12022                
G03  20183422.00823     -3173.33223        19.81223
C11  22550713.66624     -4276.44724        27.95924    271431.30724
E05  24161383.72223      -233.43023        19.50023
> 2026 04 27 16 33 23.0000000  0 13                      
G01  20976635.37823     -4062.24023        20.21523
G04  20827045.83623      -328.31723        20.17723
C20  21771520.09026     -2752.49326        37.80826    174058.57726
E34  24141429.83622      -752.12122        16.46122
C35  23692877.06322        61.37522        17.32922                
C30  24235006.75423     -5359.32323        17.63423                
R24  19626091.04021      -357.68621                
R01  19305261.24621     -1125.76221                
C29  21515413.68924     -3113.32824        27.68724                
C19  23173682.69322      -167.20322        15.20022                
G03  20184027.28923     -3182.39523        19.83723
C11  22551535.69724     -4287.25124        27.94624                
E05  24161429.59023      -243.08023        18.40023
> 2026 04 27 16 33 24.0000000  0 13                      
G01  20977409.14223     -4070.28323        20.18223
G04  20827110.29223      -340.95523        20.07323
C20  21772050.12326     -2764.96026        37.80226    176816.83726
E34  24141573.73622      -761.92922        16.51222
C35  23692867.76922        55.89922        17.31722                
C30  24236036.24123     -5374.95723        17.54723                
R24  19626160.89221      -368.21121                
R01  19305474.39821     -1146.03921                
C29  21516012.37524     -3124.56024        27.62224                
C19  23173713.57222      -158.13822        15.20022                
G03  20184634.66823     -3196.23023        19.84423
C11  22552360.12624     -4301.76524        27.89324                
E05  24161475.45923      -243.11023        20.00023
> 2026 04 27 16 33 25.0000000  0 13                      
G01  20978184.40523     -4080.01123        20.14123
G04  20827177.74523      -362.65323        19.97423
C20  21772581.95526     -2776.09526        37.80626    179587.34426
E34  24141720.33522      -775.41022        16.57122
C35  23692859.37522        38.49122        17.30622                
C30  24237068.72622     -5379.10822        17.46422                
R24  19626229.54421      -381.88721                
R01  19305688.15021     -1160.60321                
C29  21516613.45824     -3137.99524        27.60024                
C19  23173747.14922      -175.31522        12.50022                
G03  20185243.84623     -3211.24123        19.88423
C11  22553187.25324     -4312.02524        27.85824                
E05  24161524.02523      -265.26023        20.00023
> 2026 04 27 16 33 26.0000000  0 13                      
G01  20978963.26623     -4101.46223        20.18623
G04  20827248.19623      -369.11123        19.89223
C20  21773116.48526     -2787.89526        37.79026    182371.42326
E34  24141870.23122      -795.25922        16.58722
C35  23692850.98122        30.39622        17.35522                
C30  24238103.31022     -5397.87822        17.38522                
R24  19626302.39421      -398.82321                
R01  19305902.50221     -1162.73321                
C29  21517217.54024     -3149.63424        27.52524                
C19  23173783.12422      -201.57722        12.50022                
G03  20185856.02323     -3217.45323        19.83823
C11  22554016.77924     -4324.63324        27.82024    288637.90124
E05  24161574.69023      -272.52923        20.10023
> 2026 04 27 16 33 27.0000000  0 13                      
G01  20979740.02823     -4066.51023        20.24423
G04  20827315.64922      -336.77422        16.66122
C20  21773650.11626     -2763.29726        37.79026    185149.58726
E34  24142018.32823      -759.47723        19.30023
C35  23692842.28722        59.31322        17.40222                
C30  24239137.59422     -5366.73722        17.37022                
R24  19626374.64421      -370.83721                
R01  19306118.35221     -1144.54521                
C29  21517820.72324     -3125.49224        27.45324                
C19  23173820.29822      -170.74722        12.50022                
G03  20186464.90123     -3187.54923        19.85423
C11  22554845.40524     -4300.06124        27.78924                
E05  24161624.75523      -250.54523        19.70023
> 2026 04 27 16 33 28.0000000  0 13                      
G01  20980514.69223     -4077.80923        20.23123
G04  20827380.40522      -345.37122        16.72022
C20  21774180.74826     -2767.89526        37.76026    187912.08526
E34  24142163.42823      -769.99623        19.21023
C35  23692831.19422        51.59222        13.70022                
C30  24240168.28122     -5373.10122        17.36122                
R24  19626443.29621      -376.60421                
R01  19306338.10021     -1152.32721                
C29  21518420.60724     -3129.34424        27.45024                
C19  23173852.97522      -165.91222        12.61022                
G03  20187071.08123     -3197.41423        20.38123
C11  22555671.33424     -4306.03924        27.72924                
E05  24161671.82323      -243.71223        19.40023
> 2026 04 27 16 33 29.0000000  0 13                      
G01  20981290.85523     -4092.83323        20.25123
G04  20827448.15822      -367.47922        16.77622
C20  21774713.77926     -2781.69826        37.77226    190687.19526
C35  23692823.10023        27.41623        17.60023                
C30  24241202.86422     -5406.03622        17.35222                
R24  19626513.74721      -385.33921                
R01  19306555.15021     -1169.56021                
C29  21519023.19024     -3145.46424        27.37724                
C19  23173887.15222      -203.03022        12.71422                
G03  20187681.45923     -3215.17723        19.69123
C11  22556499.36024     -4320.84824        27.69724                
E05  24161720.98923      -266.79823        20.10023
E09  24238022.06622     -3099.46422        15.10022
> 2026 04 27 16 33 30.0000000  0 13                      
G01  20982073.01323     -4100.25823        20.23723
G04  20827518.60922      -380.62122        16.83022
C20  21775249.50826     -2795.29726        37.79826    193476.64326
C35  23692818.60323        17.04323        17.67023                
C30  24242241.34622     -5402.86022        17.24422                
R24  19626586.89721      -403.39121                
R01  19306776.09721     -1177.68221                
C29  21519628.47124     -3158.15624        27.36324                
C19  23173928.82321      -236.37221        10.60021                
G03  20188293.03623     -3221.61423        20.27223
C11  22557329.78624     -4332.19924        27.57224                
E05  24161772.55323      -269.97723        19.40023
E09  24238613.25722     -3113.99722        15.10022
> 2026 04 27 16 33 31.0000000  0 15                      
G01  20982851.57423     -4096.56323        20.29223
G04  20827587.56122      -380.29022        16.87222
G02  23388532.55622     -5037.75622        16.45022
C20  21775786.13726     -2792.49726        37.79326    196269.83226
E34  24142613.71623      -792.06223        19.10023
C35  23692815.30523        10.98123        17.75623                
C30  24243278.32822     -5397.77922        17.14122                
R24  19626662.74421      -402.76121                
R01  19306991.64821     -1176.20721                
C29  21520234.05224     -3155.43924        27.32424    230750.13424
C19  23173972.59321      -222.33321        10.60021                
G03  20188906.41123     -3225.73823        20.21623
C11  22558161.11024     -4331.15424        27.53824                
E05  24161824.41723      -274.00223        19.40023
E09  24239191.55722     -3111.49022        14.00022
> 2026 04 27 16 33 32.0000000  0 16                      
G01  20983633.13323     -4113.31023        20.27323
G04  20827667.60622      -383.07722        16.96322
G02  23389484.09722     -5042.34522        16.34422
C20  21776323.06526     -2803.29626        37.78326    199067.68326
E34  24142766.01123      -803.31623        18.20023
C35  23692813.20723        10.03723        17.73323                
C30  24244316.20922     -5401.89722        17.04322                
R24  19626738.29221      -413.25921                
R01  19307211.99521     -1179.91321                
C29  21520840.53224     -3164.07324        27.29224                
C19  23174016.06321      -229.85321        10.60021                
G03  20189520.38623     -3231.85223        20.21623
C11  22558993.63424     -4339.72424        25.00024                
E05  24161878.08023      -293.74623        19.35023
E09  24239784.54622     -3121.72022        14.00022
E36  23853587.10522     -3104.04622        15.10022
> 2026 04 27 16 33 33.0000000  0 14                      
G01  20984416.19123     -4123.33623        20.25523
G04  20827742.55422      -402.48522        17.05022
G02  23390446.13122     -5060.64222        16.34422
C20  21776862.99126     -2816.69726        37.78326    201878.27926
E34  24142920.10423      -809.09923        18.90023
C35  23692811.70823        -5.15123        17.71123                
C30  24245356.48922     -5428.26222        13.60022                
R24  19626817.13721      -423.80321                
R01  19307434.14121     -1193.69421                
C29  21521449.71024     -3178.61324        27.18224                
G03  20190137.05923     -3243.65723        20.21623
C11  22559829.15524     -4353.74524        25.08524                
E05  24161934.74123      -304.69923        19.70023
E09  24240379.93422     -3136.68622        14.00022
> 2026 04 27 16 33 34.0000000  0 14                      
G01  20985203.44623     -4142.10223        20.28923
G04  20827819.60122      -416.79622        17.03022
G02  23391403.06922     -5081.09622        14.80022
C20  21777405.01626     -2830.42926        37.74326    204703.04326
E34  24143075.39723      -827.77623        18.50023
C35  23692813.80623        -8.59423        17.69023                
C30  24246400.66622     -5443.74022        13.60022                
R24  19626894.18421      -439.97821                
R01  19307646.39521     -1214.27321                
C29  21522061.88724     -3192.23124        24.40024                
G03  20190751.93323     -3264.64923        20.14323
C11  22560667.07524     -4366.02624        25.12024                
E05  24161994.69923      -317.42923        19.10023
E09  24240977.42122     -3147.47622        14.00022
> 2026 04 27 16 33 35.0000000  0 14                      
G01  20985991.30123     -4144.43023        20.31423
G04  20827896.34722      -421.29022        17.12022
G02  23392369.89922     -5081.85522        14.80022
C20  21777949.73926     -2841.16526        37.71026    207540.01726
E34  24143234.88623      -847.33723        18.41023
C35  23692815.30523       -30.83423        17.69023                
C30  24247446.94222     -5446.43322        13.60022                
R24  19626978.12621      -452.09921                
R01  19307879.33321     -1225.05521                
C29  21522676.16124     -3203.39224        24.44524    243469.67824
G03  20191367.40723     -3269.54623        20.13223
C11  22561506.79424     -4378.74224        25.10424                
E05  24162056.15723      -326.92023        20.00023
E09  24241599.79022     -3164.16722        14.10522
> 2026 04 27 16 33 36.0000000  0 14                      
G01  20986783.35223     -4156.17723        20.29723
G04  20827984.78623      -439.29123        19.69123
G02  23393335.83122     -5091.13822        14.86622
C20  21778496.26126     -2849.96726        37.67426    210385.19426
E34  24143396.47422      -845.85422        15.60022
C35  23692822.20023       -39.46423        17.69023                
C30  24248499.51323     -5457.22423        18.20023                
R24  19627062.96721      -457.91621                
R01  19308108.97421     -1237.62221                
C29  21523292.23524     -3213.21124        24.56724    246677.50924
G03  20191987.67823     -3280.25623        20.12423
C11  22562348.01124     -4387.93424        25.11324                
E05  24162118.81323      -335.46823        19.70023
E09  24242201.77322     -3168.86022        14.20422
> 2026 04 27 16 33 37.0000000  0 14                      
G01  20987574.20523     -4167.62223        20.29823
G04  20828071.42623      -444.80323        19.72523
G02  23394305.95922     -5110.31022        14.92822
C20  21779044.58126     -2859.36726        37.63026    213240.45326
E34  24143559.56222      -853.93822        15.60022
C35  23692826.39823       -54.28823        17.77023                
C30  24249551.18523     -5470.44323        18.22523                
R24  19627148.70821      -471.24721                
R01  19308337.71621     -1241.37121                
C29  21523910.40724     -3223.32024        24.55824                
G03  20192622.03923     -3290.17923        20.13123
C11  22563191.32824     -4397.13824        25.11724                
E05  24162183.26923      -340.75523        20.40023
E09  24242807.05422     -3184.54922        14.23822
> 2026 04 27 16 33 38.0000000  0 14                      
G01  20988368.65523     -4177.75223        20.32523
G04  20828152.67023      -450.74223        19.68723
G02  23395282.08323     -5116.66223        20.21623
C20  21779595.00026     -2872.03526        37.61326    216107.28726
E34  24143725.34722      -866.61922        15.57522
C35  23692837.79023       -58.19823        17.80623                
C30  24250601.35823     -5489.71623        18.18823                
R24  19627238.04621      -485.08821                
R01  19308573.95221     -1263.26621                
C29  21524530.67724     -3235.60124        24.59524                
G03  20193252.80223     -3304.59823        20.54023
C11  22564036.44324     -4409.99124        25.11124                
E05  24162250.12223      -355.50623        20.40523
E09  24243412.93422     -3191.09222        14.27122
> 2026 04 27 16 33 39.0000000  0 15                      
G01  20989165.50323     -4186.95123        20.40523
G19  21993645.01623      -425.32923        17.77523
G04  20828246.50523      -469.86823        19.63723
G02  23396266.00223     -5127.02623        20.26223
C20  21780147.81726     -2880.90226        37.58726    218985.26826
E34  24143891.43222      -870.58022        15.55122
C35  23692851.28023       -59.77323        17.80023                
C30  24251654.52923     -5483.57723        18.15323                
R24  19627330.98221      -488.93021                
R01  19308811.98821     -1261.03421                
C29  21525153.64624     -3242.93324        24.67024                
G03  20193884.16523     -3306.43623        20.27223
C11  22564883.95624     -4416.85924        25.08524                
E05  24162319.37423      -367.53523        20.37923
E09  24244021.51322     -3205.22822        14.34722
> 2026 04 27 16 33 40.0000000  0 15                      
G01  20989962.95123     -4200.31323        21.71423
G19  21993728.35923      -434.95523        17.77523
G04  20828336.74323      -474.48323        19.59023
G02  23397243.62523     -5134.91123        20.32023
C20  21780701.83426     -2888.77126        37.54726    221870.83726
E34  24144062.01422      -884.04322        15.64322
C35  23692863.87223       -70.91823        17.81523                
C30  24252708.29923     -5491.19423        18.12023                
R24  19627423.31821      -502.46021                
R01  19309046.42521     -1281.76821                
C29  21525777.51424     -3252.11824        24.70124    259613.94924
G03  20194511.93023     -3311.76323        20.90523
C11  22565733.86824     -4427.58524        25.11524                
E05  24162389.82623      -375.48323        20.38523
E09  24244630.69122     -3192.64322        14.41922
> 2026 04 27 16 33 41.0000000  0 15                      
G01  20990763.09723     -4211.79323        22.06123
G19  21993805.10623      -459.08623        18.17923
G04  20828428.77923      -479.15323        19.62923
G02  23398221.24823     -5141.65623        20.32323
C20  21781257.64926     -2898.57226        37.52426    224764.63326
E34  24144232.29622      -901.49822        15.73022
C35  23692878.86123       -86.85723        17.80423                
C30  24253761.47022     -5495.05822        15.40022                
R24  19627517.75221      -512.80221                
R01  19309286.85921     -1291.83221                
C29  21526402.58224     -3262.78624        24.79524                
G03  20195142.39423     -3323.37623        20.90523
C11  22566584.67924     -4435.92824        25.06424                
E05  24162461.17623      -378.51023        20.43023
E09  24245240.16922     -3218.80122        14.47822
> 2026 04 27 16 33 42.0000000  0 15                      
G01  20991563.24323     -4205.13923        21.10323
G19  21993890.24723      -457.44323        17.68923
G04  20828519.01623      -476.48523        19.66623
G02  23399201.87023     -5143.52923        20.34123
C20  21781814.36426     -2903.10526        37.49226    227664.66026
E34  24144405.57622      -904.58222        15.69822
C35  23692894.75023       -74.64623        17.79323                
C30  24254817.04022     -5506.38522        15.40022                
R24  19627615.18521      -516.67421                
R01  19309529.09121     -1292.53421                
C29  21527029.14824     -3266.95224        24.83524                
G03  20195774.65623     -3335.86223        21.05323
C11  22567436.68924     -4440.54424        25.08024                
E05  24162534.32623      -386.88723        20.39323
E09  24245854.44422     -3231.67822        14.53422
> 2026 04 27 16 33 43.0000000  0 15                      
G01  20992364.28923     -4223.18523        19.92823
G19  21993975.08823      -442.18323        17.68923
G04  20828603.25823      -494.25223        19.59123
G02  23400182.19123     -5160.56423        20.35323
C20  21782372.87726     -2913.30626        37.45726    230571.76526
E34  24144580.95422      -914.33722        15.79822
C35  23692910.93923       -96.55523        17.78323                
C30  24255873.20822     -5523.31422        15.37522                
R24  19627711.71821      -527.63021                
R01  19309770.12421     -1306.28121                
C29  21527657.51324     -3277.39024        24.89324                
G03  20196409.61723     -3344.48523        21.05323
C11  22568289.89824     -4450.56324        25.03124                
E05  24162608.97423      -396.86323        20.37823
E09  24246470.21822     -3237.49922        17.40022
> 2026 04 27 16 33 44.0000000  0 16                      
G01  20993169.23123     -4230.39023        21.29823
G19  21994061.12823      -477.74123        17.64223
G04  20828709.68423      -509.24323        19.52823
G02  23401165.21023     -5162.29623        20.33423
C20  21782933.18926     -2919.90626        37.44426    233488.49126
E34  24144753.33522      -917.33822        15.82822
C35  23692932.82423      -107.30223        17.77823                
C30  24256934.77322     -5518.08222        15.46622                
R24  19627810.94921      -537.06721                
R01  19310012.35721     -1308.65721                
C29  21528287.37724     -3284.01924        24.96824                
E36  23860844.18122     -3225.12722        13.70022
G03  20197046.37623     -3344.26923        21.07423
C11  22569145.20624     -4457.76924        24.99924                
E05  24162685.72123      -405.37823        20.44423
E09  24247086.59122     -3239.02222        17.40022
> 2026 04 27 16 33 45.0000000  0 16                      
G01  20993973.87423     -4239.59723        21.25123
G19  21994152.26523      -481.37723        17.59823
G04  20828811.91423      -516.87423        19.50023
G02  23402148.23023     -5166.82523        20.37723
C20  21783494.70026     -2929.63926        37.40126    236413.56826
E34  24144929.31323      -923.19123        18.40023
