$GPGGA,163222.00,4124.064717,N,00209.465127,E,1,06,1.65,127.05,M,0.0,M,0.0,0000*79
$GPGSV,2,1,6,1,55,111,20.8,2,26,127,14.4,3,67,023,24.7,4,60,177,22.2*46
$GPGSV,2,2,6,17,50,267,16.1,19,34,304,18.2*4A
$GPRMC,163222.00,A,4124.064717,N,00209.465127,E,000.8,103.8,270426,,,A*57
$GPGGA,163223.00,4124.064535,N,00209.466820,E,1,06,1.65,137.51,M,0.0,M,0.0,0000*77
$GPGSV,2,1,6,1,55,111,20.8,2,26,127,14.4,3,67,023,24.7,4,60,177,24.5*47
$GPGSV,2,2,6,17,50,267,16.1,19,34,304,18.2*4A
$GPRMC,163223.00,A,4124.064535,N,00209.466820,E,003.0,217.5,270426,,,A*59
$GPGGA,163224.00,4124.061503,N,00209.456595,E,1,06,1.65,131.82,M,0.0,M,0.0,0000*78
$GPGSV,2,1,6,1,55,111,20.8,2,26,127,14.0,3,67,023,24.6,4,60,177,25.0*46
$GPGSV,2,2,6,17,50,267,16.1,19,34,304,13.5*46
$GPRMC,163224.00,A,4124.061503,N,00209.456595,E,001.7,349.3,270426,,,A*57
$GPGGA,163225.00,4124.063134,N,00209.459818,E,1,06,1.65,144.49,M,0.0,M,0.0,0000*79
$GPGSV,2,1,6,1,55,111,21.0,2,26,127,14.0,3,67,023,25.7,4,60,177,24.5*4B
$GPGSV,2,2,6,17,50,267,16.0,19,34,304,13.5*47
$GPRMC,163225.00,A,4124.063134,N,00209.459818,E,004.5,330.2,270426,,,A*5B
$GPGGA,163226.00,4124.064899,N,00209.458926,E,1,06,1.65,146.40,M,0.0,M,0.0,0000*75
$GPGSV,2,1,6,1,55,111,21.1,2,26,127,14.0,3,67,023,25.5,4,60,177,24.2*4F
$GPGSV,2,2,6,17,50,267,15.9,19,34,304,13.5*4D
$GPRMC,163226.00,A,4124.064899,N,00209.458926,E,012.4,306.4,270426,,,A*59
$GPGGA,163227.00,4124.068396,N,00209.455457,E,1,06,1.65,135.36,M,0.0,M,0.0,0000*7F
$GPGSV,2,1,6,1,55,111,21.1,2,26,127,12.6,3,67,023,24.9,4,60,177,24.1*41
$GPGSV,2,2,6,17,50,267,13.2,19,34,304,11.6*41
$GPRMC,163227.00,A,4124.068396,N,00209.455457,E,014.0,312.7,270426,,,A*52
$GPGGA,163228.00,4124.070831,N,00209.451810,E,1,06,1.65,126.11,M,0.0,M,0.0,0000*73
$GPGSV,2,1,6,1,55,111,21.2,2,26,127,12.6,3,67,023,24.4,4,60,177,24.9*47
$GPGSV,2,2,6,17,50,267,13.2,19,34,304,11.6*41
$GPRMC,163228.00,A,4124.070831,N,00209.451810,E,014.6,322.5,270426,,,A*5E
$GPGGA,163229.00,4124.073124,N,00209.447564,E,1,06,1.65,103.75,M,0.0,M,0.0,0000*70
$GPGSV,2,1,6,1,55,111,21.3,2,26,127,11.9,3,67,023,24.8,4,60,177,24.8*47
$GPGSV,2,2,6,17,50,267,11.1,19,34,304,12.3*46
$GPRMC,163229.00,A,4124.073124,N,00209.447564,E,014.7,313.1,270426,,,A*5F
$GPGGA,163230.00,4124.075776,N,00209.442819,E,1,06,1.65,90.03,M,0.0,M,0.0,0000*47
$GPGSV,2,1,6,1,55,111,21.3,2,26,127,11.9,3,67,023,23.6,4,60,177,23.4*45
$GPGSV,2,2,6,17,50,267,11.1,19,34,304,12.3*46
$GPRMC,163230.00,A,4124.075776,N,00209.442819,E,014.8,307.9,270426,,,A*50
$GPGGA,163231.00,4124.078666,N,00209.439658,E,1,06,1.65,82.09,M,0.0,M,0.0,0000*45
$GPGSV,2,1,6,1,55,111,21.4,2,26,127,11.9,3,67,024,23.6,4,60,177,22.7*47
$GPGSV,2,2,6,17,50,267,11.1,19,34,304,12.3*46
$GPRMC,163231.00,A,4124.078666,N,00209.439658,E,012.4,317.0,270426,,,A*59
$GPGGA,163232.00,4124.081593,N,00209.435899,E,1,06,1.65,68.00,M,0.0,M,0.0,0000*4B
$GPGSV,2,1,6,1,55,111,21.5,2,26,127,14.2,3,67,024,23.6,4,60,177,22.7*48
$GPGSV,2,2,6,17,50,267,13.7,19,34,304,11.0*42
$GPRMC,163232.00,A,4124.081593,N,00209.435899,E,014.9,306.6,270426,,,A*57
$GPGGA,163233.00,4124.084302,N,00209.432564,E,1,06,1.65,47.76,M,0.0,M,0.0,0000*45
$GPGSV,2,1,6,1,55,111,24.4,2,26,127,14.2,3,67,024,23.5,4,60,177,22.7*4F
$GPGSV,2,2,6,17,50,267,13.7,19,34,304,11.0*42
$GPRMC,163233.00,A,4124.084302,N,00209.432564,E,013.8,336.2,270426,,,A*54
$GPGGA,163234.00,4124.060741,N,00209.448016,E,1,05,2.02,139.69,M,0.0,M,0.0,0000*71
$GPGSV,2,1,5,1,55,111,24.3,2,26,127,13.2,3,67,024,23.5,4,60,177,22.7*4C
$GPGSV,2,2,5,17,50,267,12.9*68
$GPRMC,163234.00,A,4124.060741,N,00209.448016,E,004.0,074.6,270426,,,A*58
$GPGGA,163235.00,4124.060809,N,00209.449339,E,1,05,2.02,123.61,M,0.0,M,0.0,0000*7F
$GPGSV,2,1,5,1,55,111,23.6,2,26,127,13.2,3,67,024,23.4,4,60,177,20.0*4A
$GPGSV,2,2,5,17,50,267,12.9*68
$GPRMC,163235.00,A,4124.060809,N,00209.449339,E,003.5,090.3,270426,,,A*58
$GPGGA,163236.00,4124.060639,N,00209.450956,E,1,05,2.02,112.64,M,0.0,M,0.0,0000*7D
$GPGSV,2,1,5,1,55,111,21.7,2,26,127,13.2,3,67,024,23.4,4,60,177,23.2*48
$GPGSV,2,2,5,17,50,267,12.9*68
$GPRMC,163236.00,A,4124.060639,N,00209.450956,E,004.0,070.6,270426,,,A*54
$GPGGA,163237.00,4124.059972,N,00209.462704,E,1,04,3.81,119.70,M,0.0,M,0.0,0000*7B
$GPGSV,1,1,4,1,55,111,23.2,2,26,127,12.7,3,67,024,23.4,4,60,177,23.5*4E
$GPRMC,163237.00,A,4124.059972,N,00209.462704,E,004.9,008.5,270426,,,A*52
$GPGGA,163238.00,4124.060904,N,00209.460398,E,1,04,3.81,104.87,M,0.0,M,0.0,0000*78
$GPGSV,1,1,4,1,55,111,23.3,2,26,127,12.7,3,67,024,23.5,4,60,177,25.2*4F
$GPRMC,163238.00,A,4124.060904,N,00209.460398,E,006.5,278.0,270426,,,A*5B
$GPGGA,163239.00,4124.062044,N,00209.455869,E,1,04,3.81,85.15,M,0.0,M,0.0,0000*46
$GPGSV,1,1,4,1,55,111,23.2,2,26,127,12.7,3,67,024,23.7,4,60,177,23.4*4C
$GPRMC,163239.00,A,4124.062044,N,00209.455869,E,010.6,304.0,270426,,,A*58
$GPGGA,163240.00,,,,,1,03, Inf,,M,0.0,M,0.0,0000*29
$GPRMC,163240.00,A,,,,,,,270426,,,A*62
$GPGGA,163241.00,,,,,1,03, Inf,,M,0.0,M,0.0,0000*28
$GPRMC,163241.00,A,,,,,,,270426,,,A*63
$GPGGA,163242.00,,,,,1,03, Inf,,M,0.0,M,0.0,0000*2B
$GPRMC,163242.00,A,,,,,,,270426,,,A*60
$GPGGA,163243.00,,,,,1,03, Inf,,M,0.0,M,0.0,0000*2A
$GPRMC,163243.00,A,,,,,,,270426,,,A*61
$GPGGA,163244.00,,,,,1,03, Inf,,M,0.0,M,0.0,0000*2D
$GPRMC,163244.00,A,,,,,,,270426,,,A*66
$GPGGA,163245.00,,,,,1,03, Inf,,M,0.0,M,0.0,0000*2C
$GPRMC,163245.00,A,,,,,,,270426,,,A*67
$GPGGA,163246.00,,,,,1,04, Inf,,M,0.0,M,0.0,0000*28
$GPRMC,163246.00,A,,,,,,,270426,,,A*64
$GPGGA,163247.00,,,,,1,04, Inf,,M,0.0,M,0.0,0000*29
$GPRMC,163247.00,A,,,,,,,270426,,,A*65
$GPGGA,163248.00,,,,,1,04, Inf,,M,0.0,M,0.0,0000*26
$GPRMC,163248.00,A,,,,,,,270426,,,A*6A
$GPGGA,163249.00,,,,,1,03, Inf,,M,0.0,M,0.0,0000*20
$GPRMC,163249.00,A,,,,,,,270426,,,A*6B
$GPGGA,163250.00,,,,,1,03, Inf,,M,0.0,M,0.0,0000*28
$GPRMC,163250.00,A,,,,,,,270426,,,A*63
$GPGGA,163251.00,,,,,1,03, Inf,,M,0.0,M,0.0,0000*29
$GPRMC,163251.00,A,,,,,,,270426,,,A*62
$GPGGA,163252.00,,,,,1,03, Inf,,M,0.0,M,0.0,0000*2A
$GPRMC,163252.00,A,,,,,,,270426,,,A*61
$GPGGA,163253.00,,,,,1,03, Inf,,M,0.0,M,0.0,0000*2B
$GPRMC,163253.00,A,,,,,,,270426,,,A*60
$GPGGA,163254.00,,,,,1,03, Inf,,M,0.0,M,0.0,0000*2C
$GPRMC,163254.00,A,,,,,,,270426,,,A*67
$GPGGA,163255.00,,,,,1,03, Inf,,M,0.0,M,0.0,0000*2D
$GPRMC,163255.00,A,,,,,,,270426,,,A*66
$GPGGA,163256.00,,,,,1,03, Inf,,M,0.0,M,0.0,0000*2E
$GPRMC,163256.00,A,,,,,,,270426,,,A*65
$GPGGA,163257.00,,,,,1,03, Inf,,M,0.0,M,0.0,0000*2F
$GPRMC,163257.00,A,,,,,,,270426,,,A*64
$GPGGA,163258.00,,,,,1,03, Inf,,M,0.0,M,0.0,0000*20
$GPRMC,163258.00,A,,,,,,,270426,,,A*6B
$GPGGA,163259.00,,,,,1,04, Inf,,M,0.0,M,0.0,0000*26
$GPRMC,163259.00,A,,,,,,,270426,,,A*6A
$GPGGA,163300.00,,,,,1,03, Inf,,M,0.0,M,0.0,0000*2C
$GPRMC,163300.00,A,,,,,,,270426,,,A*67
$GPGGA,163301.00,,,,,1,03, Inf,,M,0.0,M,0.0,0000*2D
$GPRMC,163301.00,A,,,,,,,270426,,,A*66
$GPGGA,163302.00,,,,,1,03, Inf,,M,0.0,M,0.0,0000*2E
$GPRMC,163302.00,A,,,,,,,270426,,,A*65
$GPGGA,163303.00,,,,,1,04, Inf,,M,0.0,M,0.0,0000*28
$GPRMC,163303.00,A,,,,,,,270426,,,A*64
$GPGGA,163304.00,,,,,1,03, Inf,,M,0.0,M,0.0,0000*28
$GPRMC,163304.00,A,,,,,,,270426,,,A*63
$GPGGA,163305.00,,,,,1,03, Inf,,M,0.0,M,0.0,0000*29
$GPRMC,163305.00,A,,,,,,,270426,,,A*62
$GPGGA,163306.00,,,,,1,03, Inf,,M,0.0,M,0.0,0000*2A
$GPRMC,163306.00,A,,,,,,,270426,,,A*61
$GPGGA,163307.00,,,,,1,03, Inf,,M,0.0,M,0.0,0000*2B
$GPRMC,163307.00,A,,,,,,,270426,,,A*60
$GPGGA,163308.00,,,,,1,03, Inf,,M,0.0,M,0.0,0000*24
$GPRMC,163308.00,A,,,,,,,270426,,,A*6F
$GPGGA,163309.00,,,,,1,03, Inf,,M,0.0,M,0.0,0000*25
$GPRMC,163309.00,A,,,,,,,270426,,,A*6E
$GPGGA,163310.00,,,,,1,03, Inf,,M,0.0,M,0.0,0000*2D
$GPRMC,163310.00,A,,,,,,,270426,,,A*66
$GPGGA,163311.00,,,,,1,03, Inf,,M,0.0,M,0.0,0000*2C
$GPRMC,163311.00,A,,,,,,,270426,,,A*67
$GPGGA,163312.00,,,,,1,03, Inf,,M,0.0,M,0.0,0000*2F
$GPRMC,163312.00,A,,,,,,,270426,,,A*64
$GPGGA,163313.00,,,,,1,04, Inf,,M,0.0,M,0.0,0000*29
$GPRMC,163313.00,A,,,,,,,270426,,,A*65
$GPGGA,163314.00,,,,,1,04, Inf,,M,0.0,M,0.0,0000*2E
$GPRMC,163314.00,A,,,,,,,270426,,,A*62
$GPGGA,163315.00,,,,,1,04, Inf,,M,0.0,M,0.0,0000*2F
$GPRMC,163315.00,A,,,,,,,270426,,,A*63
$GPGGA,163316.00,,,,,1,04, Inf,,M,0.0,M,0.0,0000*2C
$GPRMC,163316.00,A,,,,,,,270426,,,A*60
$GPGGA,163317.00,,,,,1,04, Inf,,M,0.0,M,0.0,0000*2D
$GPRMC,163317.00,A,,,,,,,270426,,,A*61
$GPGGA,163318.00,,,,,1,04, Inf,,M,0.0,M,0.0,0000*22
$GPRMC,163318.00,A,,,,,,,270426,,,A*6E
$GPGGA,163319.00,,,,,1,04, Inf,,M,0.0,M,0.0,0000*23
$GPRMC,163319.00,A,,,,,,,270426,,,A*6F
$GPGGA,163320.00,,,,,1,04, Inf,,M,0.0,M,0.0,0000*29
$GPRMC,163320.00,A,,,,,,,270426,,,A*65
$GPGGA,163321.00,4124.052705,N,00209.469328,E,1,05,1.96,104.83,M,0.0,M,0.0,0000*7C
$GPGSV,2,1,5,1,54,112,20.4,2,26,127,20.3,3,67,024,20.3,4,60,177,19.6*40
$GPGSV,2,2,5,19,34,303,17.8*63
$GPRMC,163321.00,A,4124.052705,N,00209.469328,E,002.6,008.6,270426,,,A*5A
$GPGGA,163322.00,4124.054359,N,00209.470676,E,1,05,1.96,109.83,M,0.0,M,0.0,0000*7F
$GPGSV,2,1,5,1,54,112,21.7,2,26,127,20.3,3,67,024,20.9,4,60,177,19.6*48
$GPGSV,2,2,5,19,34,303,17.8*63
$GPRMC,163322.00,A,4124.054359,N,00209.470676,E,001.6,335.4,270426,,,A*58
$GPGGA,163323.00,4124.056391,N,00209.468363,E,1,05,1.96,102.51,M,0.0,M,0.0,0000*74
$GPGSV,2,1,5,1,54,112,22.1,2,26,127,20.3,3,67,024,20.9,4,60,177,19.6*4D
$GPGSV,2,2,5,19,34,303,18.2*66
$GPRMC,163323.00,A,4124.056391,N,00209.468363,E,002.8,166.8,270426,,,A*52
$GPGGA,163324.00,4124.055548,N,00209.466924,E,1,05,1.96,108.94,M,0.0,M,0.0,0000*76
$GPGSV,2,1,5,1,54,112,21.1,2,26,127,20.3,3,67,024,21.1,4,60,177,19.7*46
$GPGSV,2,2,5,19,34,303,17.7*6C
$GPRMC,163324.00,A,4124.055548,N,00209.466924,E,007.8,197.4,270426,,,A*54
$GPGGA,163325.00,4124.049522,N,00209.460678,E,1,05,1.96,119.26,M,0.0,M,0.0,0000*7F
$GPGSV,2,1,5,1,54,112,19.9,2,26,127,20.4,3,67,024,21.1,4,60,177,19.6*43
$GPGSV,2,2,5,19,34,303,17.7*6C
$GPRMC,163325.00,A,4124.049522,N,00209.460678,E,008.0,255.7,270426,,,A*5D
$GPGGA,163326.00,4124.056418,N,00209.464809,E,1,05,1.96,104.44,M,0.0,M,0.0,0000*7E
$GPGSV,2,1,5,1,54,112,21.3,2,26,127,20.3,3,67,024,21.1,4,60,177,19.5*46
$GPGSV,2,2,5,19,34,303,17.6*6D
$GPRMC,163326.00,A,4124.056418,N,00209.464809,E,003.2,064.3,270426,,,A*59
$GPGGA,163327.00,4124.060337,N,00209.468974,E,1,05,1.96,100.50,M,0.0,M,0.0,0000*76
$GPGSV,2,1,5,1,54,112,21.3,2,26,127,20.4,3,67,024,21.0,4,60,177,19.5*40
$GPGSV,2,2,5,19,34,303,17.6*6D
$GPRMC,163327.00,A,4124.060337,N,00209.468974,E,001.4,079.4,270426,,,A*5F
$GPGGA,163328.00,4124.061528,N,00209.470345,E,1,05,1.96,102.39,M,0.0,M,0.0,0000*7C
$GPGSV,2,1,5,1,54,112,20.5,2,26,127,20.4,3,67,024,21.0,4,60,177,19.5*47
$GPGSV,2,2,5,19,34,303,17.6*6D
$GPRMC,163328.00,A,4124.061528,N,00209.470345,E,005.1,051.9,270426,,,A*5E
$GPGGA,163329.00,4124.061107,N,00209.470245,E,1,05,1.96,106.11,M,0.0,M,0.0,0000*7B
$GPGSV,2,1,5,1,54,112,22.8,2,26,127,20.4,3,67,024,20.5,4,60,177,19.4*4D
$GPGSV,2,2,5,19,34,303,14.2*6A
$GPRMC,163329.00,A,4124.061107,N,00209.470245,E,004.4,216.7,270426,,,A*5C
$GPGGA,163330.00,4124.056326,N,00209.465404,E,1,05,1.96,116.69,M,0.0,M,0.0,0000*7F
$GPGSV,2,1,5,1,54,112,22.7,2,26,127,20.5,3,67,024,20.4,4,60,177,19.5*43
$GPGSV,2,2,5,19,34,303,14.2*6A
$GPRMC,163330.00,A,4124.056326,N,00209.465404,E,002.7,218.2,270426,,,A*58
$GPGGA,163331.00,4124.056391,N,00209.465680,E,1,05,1.96,117.39,M,0.0,M,0.0,0000*78
$GPGSV,2,1,5,1,54,112,22.7,2,26,127,20.5,3,67,024,20.7,4,60,177,19.5*40
$GPGSV,2,2,5,19,34,303,14.2*6A
$GPRMC,163331.00,A,4124.056391,N,00209.465680,E,005.8,032.9,270426,,,A*52
$GPGGA,163332.00,4124.065693,N,00209.474450,E,1,05,1.97,98.69,M,0.0,M,0.0,0000*41
$GPGSV,2,1,5,1,54,112,22.7,2,26,127,20.5,3,67,024,20.7,4,60,177,19.5*40
$GPGSV,2,2,5,19,34,303,14.4*6C
$GPRMC,163332.00,A,4124.065693,N,00209.474450,E,003.3,183.1,270426,,,A*57
$GPGGA,163333.00,4124.065231,N,00209.473683,E,1,05,1.97,100.02,M,0.0,M,0.0,0000*7A
$GPGSV,2,1,5,1,54,112,22.7,2,26,127,20.5,3,67,025,20.8,4,60,177,19.5*4E
$GPGSV,2,2,5,19,34,303,14.4*6C
$GPRMC,163333.00,A,4124.065231,N,00209.473683,E,000.8,067.6,270426,,,A*55
$GPGGA,163334.00,4124.062002,N,00209.467874,E,1,05,1.97,103.88,M,0.0,M,0.0,0000*7A
$GPGSV,2,1,5,1,54,112,22.6,2,26,127,20.5,3,67,025,20.8,4,60,177,19.4*4E
$GPGSV,2,2,5,19,34,303,14.4*6C
$GPRMC,163334.00,A,4124.062002,N,00209.467874,E,001.3,236.5,270426,,,A*5B
$GPGGA,163335.00,4124.061393,N,00209.467133,E,1,05,1.97,104.35,M,0.0,M,0.0,0000*78
$GPGSV,2,1,5,1,54,112,22.6,2,26,127,20.5,3,67,025,20.8,4,60,177,19.3*49
$GPGSV,2,2,5,19,34,303,14.4*6C
$GPRMC,163335.00,A,4124.061393,N,00209.467133,E,001.5,217.5,270426,,,A*5D
$GPGGA,163336.00,4124.061520,N,00209.466974,E,1,05,1.97,104.62,M,0.0,M,0.0,0000*7D
$GPGSV,2,1,5,1,54,112,21.8,2,26,127,20.6,3,67,025,20.7,4,60,177,19.3*48
$GPGSV,2,2,5,19,34,303,14.4*6C
$GPRMC,163336.00,A,4124.061520,N,00209.466974,E,003.0,240.7,270426,,,A*5D
$GPGGA,163337.00,4124.062493,N,00209.467526,E,1,05,1.97,102.59,M,0.0,M,0.0,0000*72
$GPGSV,2,1,5,1,54,112,22.9,2,26,127,20.6,3,67,025,20.7,4,61,177,19.2*4A
$GPGSV,2,2,5,19,34,303,14.5*6D
$GPRMC,163337.00,A,4124.062493,N,00209.467526,E,004.9,030.7,270426,,,A*57
$GPGGA,163338.00,4124.061176,N,00209.466084,E,1,05,1.97,105.16,M,0.0,M,0.0,0000*70
$GPGSV,2,1,5,1,54,112,22.2,2,26,127,20.6,3,67,025,20.7,4,61,177,19.2*41
$GPGSV,2,2,5,19,34,303,14.6*6E
$GPRMC,163338.00,A,4124.061176,N,00209.466084,E,006.8,213.0,270426,,,A*5E
$GPGGA,163339.00,4124.061486,N,00209.467115,E,1,05,1.97,105.64,M,0.0,M,0.0,0000*76
$GPGSV,2,1,5,1,54,112,22.1,2,26,127,20.6,3,67,025,20.8,4,61,177,19.1*4E
$GPGSV,2,2,5,19,34,303,14.6*6E
$GPRMC,163339.00,A,4124.061486,N,00209.467115,E,002.9,045.4,270426,,,A*5D
$GPGGA,163340.00,4124.059512,N,00209.465060,E,1,05,1.97,107.90,M,0.0,M,0.0,0000*77
$GPGSV,2,1,5,1,54,112,22.3,2,26,127,20.7,3,67,025,20.8,4,61,177,19.1*4D
$GPGSV,2,2,5,19,34,303,14.5*6D
$GPRMC,163340.00,A,4124.059512,N,00209.465060,E,004.6,276.9,270426,,,A*53
$GPGGA,163341.00,4124.059799,N,00209.463828,E,1,05,1.97,105.05,M,0.0,M,0.0,0000*7B
$GPGSV,2,1,5,1,54,112,22.2,2,26,127,20.7,3,67,025,20.8,4,61,177,19.1*4C
$GPGSV,2,2,5,19,34,303,14.5*6D
$GPRMC,163341.00,A,4124.059799,N,00209.463828,E,004.8,264.8,270426,,,A*5D
$GPGGA,163342.00,4124.058667,N,00209.465612,E,1,05,1.97,108.88,M,0.0,M,0.0,0000*70
$GPGSV,2,1,5,1,54,112,22.2,2,26,127,20.8,3,67,025,20.8,4,61,177,19.1*43
$GPGSV,2,2,5,19,34,303,12.4*6A
$GPRMC,163342.00,A,4124.058667,N,00209.465612,E,008.7,211.8,270426,,,A*5F
$GPGGA,163343.00,4124.061761,N,00209.467231,E,1,05,1.97,100.93,M,0.0,M,0.0,0000*79
$GPGSV,2,1,5,1,54,112,22.1,2,26,127,20.8,3,67,025,20.8,4,61,177,19.1*40
$GPGSV,2,2,5,19,34,303,12.4*6A
$GPRMC,163343.00,A,4124.061761,N,00209.467231,E,004.8,260.1,270426,,,A*58
$GPGGA,163344.00,4124.061130,N,00209.463551,E,1,05,1.97,95.06,M,0.0,M,0.0,0000*48
$GPGSV,2,1,5,1,54,112,22.1,2,26,127,20.8,3,67,025,20.8,4,61,177,19.0*41
$GPGSV,2,2,5,19,34,303,14.9*61
$GPRMC,163344.00,A,4124.061130,N,00209.463551,E,007.8,229.5,270426,,,A*52
$GPGGA,163345.00,4124.060957,N,00209.461302,E,1,05,1.97,99.80,M,0.0,M,0.0,0000*41
$GPGSV,2,1,5,1,54,112,22.0,2,26,127,20.8,3,67,025,20.8,4,61,177,19.0*40
$GPGSV,2,2,5,19,34,303,14.9*61
$GPRMC,163345.00,A,4124.060957,N,00209.461302,E,003.8,252.9,270426,,,A*5D
$GPGGA,163346.00,4124.060676,N,00209.461044,E,1,05,1.97,96.87,M,0.0,M,0.0,0000*47
$GPGSV,2,1,5,1,54,112,21.9,2,26,127,20.9,3,67,025,20.8,4,61,177,19.0*4B
$GPGSV,2,2,5,19,34,303,14.9*61
$GPRMC,163346.00,A,4124.060676,N,00209.461044,E,003.0,027.6,270426,,,A*54
$GPGGA,163347.00,4124.057344,N,00209.458325,E,1,05,1.97,105.71,M,0.0,M,0.0,0000*7A
$GPGSV,2,1,5,1,54,112,21.8,2,26,127,20.9,3,67,025,20.7,4,61,177,19.0*45
$GPGSV,2,2,5,19,34,303,13.4*6B
$GPRMC,163347.00,A,4124.057344,N,00209.458325,E,003.4,219.5,270426,,,A*53
$GPGGA,163348.00,4124.068064,N,00209.472397,E,1,06,1.65,94.47,M,0.0,M,0.0,0000*4B
$GPGSV,2,1,6,1,54,112,21.8,2,25,127,21.0,3,67,025,20.7,4,61,177,19.1*4C
$GPGSV,2,2,6,17,50,266,16.9,19,34,303,13.4*49
$GPRMC,163348.00,A,4124.068064,N,00209.472397,E,001.8,219.1,270426,,,A*5A
$GPGGA,163349.00,4124.068610,N,00209.472917,E,1,06,1.65,93.39,M,0.0,M,0.0,0000*43
$GPGSV,2,1,6,1,54,112,21.7,2,25,127,21.0,3,67,025,20.7,4,61,177,19.1*43
$GPGSV,2,2,6,17,50,266,16.9,19,34,303,13.4*49
$GPRMC,163349.00,A,4124.068610,N,00209.472917,E,002.6,041.1,270426,,,A*5E
$GPGGA,163350.00,4124.072885,N,00209.474828,E,1,06,1.65,83.00,M,0.0,M,0.0,0000*42
$GPGSV,2,1,6,1,54,112,21.7,2,25,127,21.0,3,67,025,20.7,4,61,177,19.1*43
$GPGSV,2,2,6,17,50,266,16.8,19,34,303,13.1*4D
$GPRMC,163350.00,A,4124.072885,N,00209.474828,E,000.6,300.9,270426,,,A*58
$GPGGA,163351.00,4124.073409,N,00209.474992,E,1,06,1.65,82.30,M,0.0,M,0.0,0000*48
$GPGSV,2,1,6,1,54,112,21.8,2,25,127,21.0,3,67,025,20.7,4,61,177,19.0*4D
$GPGSV,2,2,6,17,50,266,16.8,19,34,303,13.1*4D
$GPRMC,163351.00,A,4124.073409,N,00209.474992,E,000.2,,270426,,,A*70
$GPGGA,163352.00,4124.072201,N,00209.475128,E,1,06,1.65,83.70,M,0.0,M,0.0,0000*49
$GPGSV,2,1,6,1,54,112,21.8,2,25,127,18.1,3,67,025,20.8,4,61,177,13.9*4A
$GPGSV,2,2,6,17,50,266,16.7,19,34,303,14.8*4C
$GPRMC,163352.00,A,4124.072201,N,00209.475128,E,002.0,043.6,270426,,,A*5B
$GPGGA,163353.00,4124.072305,N,00209.475814,E,1,06,1.65,82.11,M,0.0,M,0.0,0000*4D
$GPGSV,2,1,6,1,54,112,21.8,2,25,127,18.1,3,67,025,20.7,4,61,177,13.9*45
$GPGSV,2,2,6,17,50,266,12.9,19,34,303,18.6*44
$GPRMC,163353.00,A,4124.072305,N,00209.475814,E,002.0,182.4,270426,,,A*57
$GPGGA,163354.00,4124.071723,N,00209.476083,E,1,06,1.65,80.81,M,0.0,M,0.0,0000*47
$GPGSV,2,1,6,1,54,112,21.8,2,25,127,18.2,3,67,025,20.6,4,61,177,13.9*47
$GPGSV,2,2,6,17,50,266,12.9,19,34,303,18.6*44
$GPRMC,163354.00,A,4124.071723,N,00209.476083,E,003.3,102.1,270426,,,A*59
$GPGGA,163355.00,4124.066171,N,00209.472733,E,1,06,1.65,89.23,M,0.0,M,0.0,0000*48
$GPGSV,2,1,6,1,54,112,21.8,2,25,127,18.2,3,67,025,20.6,4,61,177,17.6*4C
$GPGSV,2,2,6,17,50,266,11.9,19,34,303,18.6*47
$GPRMC,163355.00,A,4124.066171,N,00209.472733,E,001.0,129.2,270426,,,A*5C
$GPGGA,163356.00,4124.066758,N,00209.473246,E,1,06,1.65,84.07,M,0.0,M,0.0,0000*4B
$GPGSV,2,1,6,1,54,112,21.9,2,25,127,18.1,3,67,025,20.5,4,61,177,20.3*4C
$GPGSV,2,2,6,17,50,266,11.9,19,34,303,18.5*44
$GPRMC,163356.00,A,4124.066758,N,00209.473246,E,001.2,012.1,270426,,,A*5C
$GPGGA,163357.00,4124.067489,N,00209.472963,E,1,06,1.65,86.23,M,0.0,M,0.0,0000*4D
$GPGSV,2,1,6,1,54,112,21.9,2,25,127,18.0,3,67,025,20.5,4,61,177,17.8*42
$GPGSV,2,2,6,17,50,266,11.9,19,34,303,18.4*45
$GPRMC,163357.00,A,4124.067489,N,00209.472963,E,003.9,264.2,270426,,,A*57
$GPGGA,163358.00,4124.068176,N,00209.472422,E,1,06,1.65,94.22,M,0.0,M,0.0,0000*42
$GPGSV,2,1,6,1,54,112,22.0,2,25,127,13.1,3,67,025,20.5,4,61,177,17.8*42
$GPGSV,2,2,6,17,50,266,16.6,19,34,303,18.3*4A
$GPRMC,163358.00,A,4124.068176,N,00209.472422,E,004.1,288.4,270426,,,A*51
$GPGGA,163359.00,4124.075173,N,00209.472335,E,1,06,1.65,81.10,M,0.0,M,0.0,0000*4E
$GPGSV,2,1,6,1,54,112,22.0,2,25,127,13.1,3,67,025,20.5,4,61,177,17.8*42
$GPGSV,2,2,6,17,50,266,16.6,19,34,303,18.2*4B
$GPRMC,163359.00,A,4124.075173,N,00209.472335,E,001.6,242.4,270426,,,A*5C
$GPGGA,163400.00,4124.075060,N,00209.471013,E,1,06,1.65,86.72,M,0.0,M,0.0,0000*41
$GPGSV,2,1,6,1,54,112,22.1,2,25,127,13.1,3,67,025,20.4,4,61,177,17.8*42
$GPGSV,2,2,6,17,50,266,13.7,19,34,303,18.1*4C
$GPRMC,163400.00,A,4124.075060,N,00209.471013,E,003.1,302.1,270426,,,A*55
$GPGGA,163401.00,4124.071198,N,00209.478979,E,1,05,1.95,24.57,M,0.0,M,0.0,0000*4D
$GPGSV,2,1,5,1,54,112,22.1,3,67,025,20.4,4,61,177,17.8,17,50,266,13.7*77
$GPGSV,2,2,5,19,34,303,14.1*69
$GPRMC,163401.00,A,4124.071198,N,00209.478979,E,001.3,262.0,270426,,,A*5C
$GPGGA,163402.00,4124.072162,N,00209.477882,E,1,05,1.95,23.05,M,0.0,M,0.0,0000*42
$GPGSV,2,1,5,1,54,112,22.0,3,67,025,20.4,4,61,177,17.8,17,50,266,13.7*76
$GPGSV,2,2,5,19,34,303,14.1*69
$GPRMC,163402.00,A,4124.072162,N,00209.477882,E,004.5,260.4,270426,,,A*56
$GPGGA,163403.00,4124.074648,N,00209.464547,E,1,06,1.65,92.79,M,0.0,M,0.0,0000*41
$GPGSV,2,1,6,1,54,112,22.0,2,25,128,13.1,3,67,025,20.1,4,61,177,17.7*46
$GPGSV,2,2,6,17,50,266,13.7,19,34,303,14.1*40
$GPRMC,163403.00,A,4124.074648,N,00209.464547,E,001.0,248.4,270426,,,A*52
$GPGGA,163404.00,4124.075135,N,00209.465455,E,1,06,1.65,96.17,M,0.0,M,0.0,0000*45
$GPGSV,2,1,6,1,54,112,21.9,2,25,128,13.1,3,67,025,20.0,4,61,177,14.2*4B
$GPGSV,2,2,6,17,50,266,13.8,19,34,303,13.3*4A
$GPRMC,163404.00,A,4124.075135,N,00209.465455,E,002.4,248.7,270426,,,A*5E
$GPGGA,163405.00,4124.074107,N,00209.464843,E,1,06,1.65,95.58,M,0.0,M,0.0,0000*46
$GPGSV,2,1,6,1,54,112,21.9,2,25,128,13.1,3,67,025,20.2,4,61,177,14.2*49
$GPGSV,2,2,6,17,50,266,13.8,19,34,303,13.3*4A
$GPRMC,163405.00,A,4124.074107,N,00209.464843,E,002.8,069.2,270426,,,A*5D
$GPGGA,163406.00,4124.070483,N,00209.464880,E,1,06,1.65,111.06,M,0.0,M,0.0,0000*71
$GPGSV,2,1,6,1,54,112,21.8,2,25,128,14.4,3,67,025,19.9,4,61,177,16.8*43
$GPGSV,2,2,6,17,50,266,14.1,19,35,303,14.5*44
$GPRMC,163406.00,A,4124.070483,N,00209.464880,E,003.8,179.0,270426,,,A*5F
$GPGGA,163407.00,4124.069557,N,00209.464867,E,1,06,1.65,107.92,M,0.0,M,0.0,0000*73
$GPGSV,2,1,6,1,54,112,21.9,2,25,128,14.4,3,67,025,21.3,4,61,177,16.8*43
$GPGSV,2,2,6,17,50,266,14.1,19,35,303,14.5*44
$GPRMC,163407.00,A,4124.069557,N,00209.464867,E,001.9,155.7,270426,,,A*5D
$GPGGA,163408.00,4124.069758,N,00209.464686,E,1,06,1.65,107.30,M,0.0,M,0.0,0000*78
$GPGSV,2,1,6,1,54,112,21.8,2,25,128,14.4,3,67,025,21.2,4,61,177,16.8*43
$GPGSV,2,2,6,17,50,266,13.3,19,35,303,14.5*41
$GPRMC,163408.00,A,4124.069758,N,00209.464686,E,005.5,323.5,270426,,,A*57
$GPGGA,163409.00,4124.067727,N,00209.466919,E,1,05,1.95,93.87,M,0.0,M,0.0,0000*48
$GPGSV,2,1,5,1,54,112,21.8,3,67,025,21.2,4,61,177,16.8,17,50,266,13.3*7F
$GPGSV,2,2,5,19,35,303,14.5*6C
$GPRMC,163409.00,A,4124.067727,N,00209.466919,E,004.3,235.1,270426,,,A*5E
$GPGGA,163410.00,4124.066500,N,00209.466464,E,1,05,1.95,99.22,M,0.0,M,0.0,0000*44
$GPGSV,2,1,5,1,54,112,21.8,3,67,025,21.2,4,61,177,16.9,17,50,266,13.3*7E
$GPGSV,2,2,5,19,35,303,14.5*6C
$GPRMC,163410.00,A,4124.066500,N,00209.466464,E,004.0,213.0,270426,,,A*51
$GPGGA,163411.00,4124.066853,N,00209.468779,E,1,05,1.95,108.27,M,0.0,M,0.0,0000*73
$GPGSV,2,1,5,1,54,112,21.8,3,67,025,21.2,4,61,177,17.0,17,50,266,13.4*71
$GPGSV,2,2,5,19,35,303,10.3*6E
$GPRMC,163411.00,A,4124.066853,N,00209.468779,E,004.0,173.7,270426,,,A*58
$GPGGA,163412.00,4124.065875,N,00209.468608,E,1,05,1.95,119.01,M,0.0,M,0.0,0000*74
$GPGSV,2,1,5,1,54,112,21.7,3,67,025,21.2,4,61,177,17.1,17,50,266,13.4*7F
$GPGSV,2,2,5,19,35,303,10.3*6E
$GPRMC,163412.00,A,4124.065875,N,00209.468608,E,006.7,212.7,270426,,,A*5A
$GPGGA,163413.00,4124.062116,N,00209.466965,E,1,04,2.41,135.25,M,0.0,M,0.0,0000*77
$GPGSV,1,1,4,1,54,112,21.6,3,67,025,21.2,4,61,177,17.1,19,35,303,10.3*77
$GPRMC,163413.00,A,4124.062116,N,00209.466965,E,009.1,130.5,270426,,,A*52
$GPGGA,163414.00,4124.062175,N,00209.468719,E,1,04,2.41,143.21,M,0.0,M,0.0,0000*7B
$GPGSV,1,1,4,1,54,112,21.6,3,67,025,21.2,4,61,177,17.2,19,35,303,12.3*76
$GPRMC,163414.00,A,4124.062175,N,00209.468719,E,008.3,057.3,270426,,,A*5E
$GPGGA,163415.00,4124.068706,N,00209.477365,E,1,04,2.41,133.71,M,0.0,M,0.0,0000*71
$GPGSV,1,1,4,1,54,112,21.5,3,67,025,21.2,4,61,177,17.2,19,35,303,12.3*75
$GPRMC,163415.00,A,4124.068706,N,00209.477365,E,009.1,050.1,270426,,,A*50
$GPGGA,163416.00,4124.066704,N,00209.477185,E,1,04,2.41,147.06,M,0.0,M,0.0,0000*71
$GPGSV,1,1,4,1,54,112,21.5,3,66,025,21.2,4,61,177,17.3,19,35,303,13.3*74
$GPRMC,163416.00,A,4124.066704,N,00209.477185,E,006.0,207.1,270426,,,A*5D
$GPGGA,163417.00,4124.064702,N,00209.477067,E,1,04,2.41,152.34,M,0.0,M,0.0,0000*7C
$GPGSV,1,1,4,1,54,112,21.5,3,66,025,21.2,4,61,177,17.4,19,35,303,13.3*73
$GPRMC,163417.00,A,4124.064702,N,00209.477067,E,006.9,197.3,270426,,,A*54
$GPGGA,163418.00,4124.062727,N,00209.474581,E,1,04,2.41,159.62,M,0.0,M,0.0,0000*74
$GPGSV,1,1,4,1,54,112,21.5,3,66,025,21.2,4,61,177,17.5,19,35,303,13.3*72
$GPRMC,163418.00,A,4124.062727,N,00209.474581,E,005.2,027.5,270426,,,A*50
$GPGGA,163419.00,4124.063930,N,00209.476237,E,1,04,2.41,149.67,M,0.0,M,0.0,0000*70
$GPGSV,1,1,4,1,54,112,21.5,3,66,025,21.2,4,61,177,17.6,19,35,303,13.3*71
$GPRMC,163419.00,A,4124.063930,N,00209.476237,E,003.6,240.6,270426,,,A*52
$GPGGA,163420.00,4124.061781,N,00209.471856,E,1,04,2.41,163.10,M,0.0,M,0.0,0000*7E
$GPGSV,1,1,4,1,54,112,21.4,3,66,025,21.2,4,61,177,17.6,19,35,303,13.3*70
$GPRMC,163420.00,A,4124.061781,N,00209.471856,E,005.6,216.3,270426,,,A*54
$GPGGA,163421.00,4124.061213,N,00209.471356,E,1,04,2.41,162.89,M,0.0,M,0.0,0000*7B
$GPGSV,1,1,4,1,54,112,21.3,3,66,025,21.3,4,61,177,17.7,19,35,303,13.3*77
$GPRMC,163421.00,A,4124.061213,N,00209.471356,E,001.5,170.3,270426,,,A*54
$GPGGA,163422.00,4124.063504,N,00209.476017,E,1,04,2.41,145.19,M,0.0,M,0.0,0000*76
$GPGSV,1,1,4,1,54,112,21.3,3,66,025,21.3,4,61,177,17.8,19,35,303,14.0*7C
$GPRMC,163422.00,A,4124.063504,N,00209.476017,E,003.3,013.0,270426,,,A*56
$GPGGA,163423.00,4124.063591,N,00209.476440,E,1,04,2.41,142.65,M,0.0,M,0.0,0000*71
$GPGSV,1,1,4,1,54,112,21.2,3,66,025,21.3,4,61,177,17.9,19,35,303,14.0*7C
$GPRMC,163423.00,A,4124.063591,N,00209.476440,E,003.9,085.9,270426,,,A*51
$GPGGA,163424.00,4124.064339,N,00209.476103,E,1,04,2.41,132.56,M,0.0,M,0.0,0000*70
$GPGSV,1,1,4,1,54,112,21.1,3,66,025,21.2,4,61,177,17.9,19,35,303,17.5*78
$GPRMC,163424.00,A,4124.064339,N,00209.476103,E,002.6,212.0,270426,,,A*5C
$GPGGA,163425.00,4124.065013,N,00209.472619,E,1,04,2.41,110.80,M,0.0,M,0.0,0000*78
$GPGSV,1,1,4,1,54,112,21.1,3,66,025,21.2,4,61,177,17.9,19,35,303,16.7*7B
$GPRMC,163425.00,A,4124.065013,N,00209.472619,E,003.0,031.8,270426,,,A*53
$GPGGA,163426.00,4124.058573,N,00209.466123,E,1,04,2.41,131.30,M,0.0,M,0.0,0000*75
$GPGSV,1,1,4,1,54,112,21.0,3,66,025,21.2,4,61,177,17.9,19,35,303,16.7*7A
$GPRMC,163426.00,A,4124.058573,N,00209.466123,E,004.9,074.1,270426,,,A*50
$GPGGA,163427.00,4124.058737,N,00209.465832,E,1,04,2.41,132.37,M,0.0,M,0.0,0000*78
$GPGSV,1,1,4,1,54,112,20.9,3,66,025,21.2,4,61,177,17.9,19,35,303,16.7*72
$GPRMC,163427.00,A,4124.058737,N,00209.465832,E,004.4,239.2,270426,,,A*5C
$GPGGA,163428.00,4124.058348,N,00209.465071,E,1,04,2.41,133.79,M,0.0,M,0.0,0000*7F
$GPGSV,1,1,4,1,54,112,20.9,3,66,025,21.2,4,61,177,17.9,19,35,303,16.5*70
$GPRMC,163428.00,A,4124.058348,N,00209.465071,E,000.7,186.8,270426,,,A*5A
$GPGGA,163429.00,4124.061167,N,00209.468954,E,1,04,2.41,128.19,M,0.0,M,0.0,0000*74
$GPGSV,1,1,4,1,54,112,20.9,3,66,025,21.2,4,61,177,17.8,19,35,303,16.4*70
$GPRMC,163429.00,A,4124.061167,N,00209.468954,E,001.5,134.0,270426,,,A*5F
$GPGGA,163430.00,4124.060055,N,00209.467958,E,1,04,2.41,127.22,M,0.0,M,0.0,0000*79
$GPGSV,1,1,4,1,54,112,20.9,3,66,025,21.2,4,61,177,17.8,19,35,303,16.3*77
$GPRMC,163430.00,A,4124.060055,N,00209.467958,E,002.8,255.4,270426,,,A*5B
$GPGGA,163431.00,4124.060874,N,00209.469438,E,1,04,2.41,126.99,M,0.0,M,0.0,0000*77
$GPGSV,1,1,4,1,54,112,20.9,3,66,025,21.2,4,61,177,17.8,19,35,303,14.6*70
$GPRMC,163431.00,A,4124.060874,N,00209.469438,E,002.4,018.5,270426,,,A*52
$GPGGA,163432.00,4124.062197,N,00209.468014,E,1,04,2.41,135.15,M,0.0,M,0.0,0000*7F
$GPGSV,1,1,4,1,54,112,20.8,3,66,025,21.1,4,61,177,17.8,19,35,303,14.6*72
$GPRMC,163432.00,A,4124.062197,N,00209.468014,E,002.0,344.6,270426,,,A*51
$GPGGA,163433.00,4124.061924,N,00209.467501,E,1,04,2.41,133.28,M,0.0,M,0.0,0000*7B
$GPGSV,1,1,4,1,54,112,20.7,3,66,025,21.0,4,61,177,17.8,19,35,303,12.1*7D
$GPRMC,163433.00,A,4124.061924,N,00209.467501,E,002.3,311.2,270426,,,A*5A
$GPGGA,163434.00,4124.059136,N,00209.465061,E,1,04,2.40,133.38,M,0.0,M,0.0,0000*7D
$GPGSV,1,1,4,1,54,112,20.7,3,66,025,21.0,4,61,177,17.7,19,35,303,12.1*72
$GPRMC,163434.00,A,4124.059136,N,00209.465061,E,005.8,201.9,270426,,,A*5B
$GPGGA,163435.00,4124.057551,N,00209.462887,E,1,04,2.40,136.37,M,0.0,M,0.0,0000*7A
$GPGSV,1,1,4,1,54,112,20.8,3,66,025,21.0,4,61,177,17.7,19,35,303,12.1*7D
$GPRMC,163435.00,A,4124.057551,N,00209.462887,E,006.0,224.5,270426,,,A*56
$GPGGA,163436.00,4124.053594,N,00209.456482,E,1,04,2.40,139.92,M,0.0,M,0.0,0000*7A
$GPGSV,1,1,4,1,54,112,20.9,3,66,025,21.0,4,61,177,17.6,19,35,303,12.9*75
$GPRMC,163436.00,A,4124.053594,N,00209.456482,E,005.1,019.2,270426,,,A*5F
$GPGGA,163437.00,4124.054146,N,00209.458284,E,1,04,2.40,134.96,M,0.0,M,0.0,0000*70
$GPGSV,1,1,4,1,54,112,20.9,3,66,026,21.0,4,61,177,17.5,19,35,303,12.9*75
$GPRMC,163437.00,A,4124.054146,N,00209.458284,E,006.6,092.4,270426,,,A*5D
$GPGGA,163438.00,4124.053948,N,00209.463475,E,1,04,2.40,147.92,M,0.0,M,0.0,0000*7E
$GPGSV,1,1,4,1,54,112,20.9,3,66,026,21.0,4,61,177,17.4,19,35,303,14.4*7F
$GPRMC,163438.00,A,4124.053948,N,00209.463475,E,001.6,056.1,270426,,,A*59
$GPGGA,163439.00,4124.057247,N,00209.467468,E,1,04,2.40,142.28,M,0.0,M,0.0,0000*73
$GPGSV,1,1,4,1,54,112,20.9,3,66,026,20.9,4,61,177,17.4,19,35,303,14.4*77
$GPRMC,163439.00,A,4124.057247,N,00209.467468,E,005.7,257.5,270426,,,A*52
$GPGGA,163440.00,4124.056188,N,00209.466405,E,1,04,2.40,136.60,M,0.0,M,0.0,0000*79
$GPGSV,1,1,4,1,54,112,20.9,3,66,026,20.9,4,61,177,17.3,19,35,303,14.4*70
$GPRMC,163440.00,A,4124.056188,N,00209.466405,E,003.6,112.4,270426,,,A*53
$GPGGA,163441.00,4124.055801,N,00209.467533,E,1,04,2.40,137.24,M,0.0,M,0.0,0000*77
$GPGSV,1,1,4,1,54,113,20.9,3,66,026,20.9,4,61,177,17.3,19,35,303,14.4*71
$GPRMC,163441.00,A,4124.055801,N,00209.467533,E,003.8,161.2,270426,,,A*50
$GPGGA,163442.00,4124.059410,N,00209.473251,E,1,04,2.40,122.67,M,0.0,M,0.0,0000*71
$GPGSV,1,1,4,1,54,113,21.0,3,66,026,20.8,4,61,177,17.2,19,35,303,14.4*79
$GPRMC,163442.00,A,4124.059410,N,00209.473251,E,006.9,058.1,270426,,,A*59
$GPGGA,163443.00,4124.058866,N,00209.474365,E,1,04,2.40,127.29,M,0.0,M,0.0,0000*72
$GPGSV,1,1,4,1,54,113,21.1,3,66,026,20.8,4,61,177,17.2,19,35,303,14.4*78
$GPRMC,163443.00,A,4124.058866,N,00209.474365,E,001.7,063.8,270426,,,A*5D
$GPGGA,163444.00,4124.060307,N,00209.472600,E,1,05,2.15,143.09,M,0.0,M,0.0,0000*73
$GPGSV,2,1,5,1,54,113,24.4,3,66,026,20.9,4,61,177,14.5,9,31,205,16.6*4D
$GPGSV,2,2,5,19,35,303,14.4*6D
$GPRMC,163444.00,A,4124.060307,N,00209.472600,E,002.8,276.9,270426,,,A*56
$GPGGA,163445.00,4124.057085,N,00209.471766,E,1,05,2.15,127.05,M,0.0,M,0.0,0000*73
$GPGSV,2,1,5,1,54,113,24.3,3,66,026,20.9,4,61,177,14.5,9,31,205,17.2*4F
$GPGSV,2,2,5,19,35,303,14.4*6D
$GPRMC,163445.00,A,4124.057085,N,00209.471766,E,003.5,352.2,270426,,,A*58
$GPGGA,163446.00,4124.057242,N,00209.469732,E,1,05,2.14,135.04,M,0.0,M,0.0,0000*72
$GPGSV,2,1,5,1,54,113,24.3,3,66,026,20.9,4,61,177,14.5,9,31,205,17.2*4F
$GPGSV,2,2,5,19,35,303,14.1*68
$GPRMC,163446.00,A,4124.057242,N,00209.469732,E,002.9,277.9,270426,,,A*5A
$GPGGA,163447.00,4124.052823,N,00209.467785,E,1,05,2.14,122.94,M,0.0,M,0.0,0000*76
$GPGSV,2,1,5,1,54,113,24.2,3,66,026,20.9,4,61,177,14.6,9,31,205,16.4*4A
$GPGSV,2,2,5,19,35,303,14.1*68
$GPRMC,163447.00,A,4124.052823,N,00209.467785,E,002.2,040.1,270426,,,A*54
$GPGGA,163448.00,4124.055410,N,00209.467247,E,1,05,2.14,126.28,M,0.0,M,0.0,0000*7A
$GPGSV,2,1,5,1,54,113,24.0,3,66,026,20.9,4,61,177,14.6,9,31,205,16.5*49
$GPGSV,2,2,5,19,35,303,14.0*69
$GPRMC,163448.00,A,4124.055410,N,00209.467247,E,008.0,256.8,270426,,,A*5F
$GPGGA,163449.00,4124.058381,N,00209.471999,E,1,05,2.14,101.41,M,0.0,M,0.0,0000*7C
$GPGSV,2,1,5,1,54,113,24.5,3,66,026,20.8,4,61,177,19.6,9,31,205,16.5*40
$GPGSV,2,2,5,19,35,303,14.0*69
$GPRMC,163449.00,A,4124.058381,N,00209.471999,E,007.9,294.1,270426,,,A*52
$GPGGA,163450.00,4124.059277,N,00209.472992,E,1,05,2.14,95.55,M,0.0,M,0.0,0000*4C
$GPGSV,2,1,5,1,54,113,24.5,3,66,026,20.8,4,61,177,19.6,9,31,205,16.5*40
$GPGSV,2,2,5,19,35,303,14.0*69
$GPRMC,163450.00,A,4124.059277,N,00209.472992,E,003.2,358.2,270426,,,A*56
$GPGGA,163451.00,4124.060613,N,00209.473601,E,1,05,2.14,84.52,M,0.0,M,0.0,0000*42
$GPGSV,2,1,5,1,54,113,23.6,3,66,026,20.7,4,61,177,19.6,9,31,205,16.5*4B
$GPGSV,2,2,5,19,35,303,13.2*6C
$GPRMC,163451.00,A,4124.060613,N,00209.473601,E,007.4,003.7,270426,,,A*55
$GPGGA,163452.00,4124.063094,N,00209.476244,E,1,05,2.14,68.24,M,0.0,M,0.0,0000*48
$GPGSV,2,1,5,1,54,113,23.6,3,66,026,20.7,4,61,177,19.5,9,31,205,16.4*49
$GPGSV,2,2,5,19,35,303,13.2*6C
$GPRMC,163452.00,A,4124.063094,N,00209.476244,E,006.5,045.1,270426,,,A*58
$GPGGA,163453.00,4124.065467,N,00209.476429,E,1,05,2.14,69.19,M,0.0,M,0.0,0000*45
$GPGSV,2,1,5,1,54,113,24.8,3,66,026,20.7,4,61,177,19.5,9,31,205,16.6*42
$GPGSV,2,2,5,19,35,303,13.2*6C
$GPRMC,163453.00,A,4124.065467,N,00209.476429,E,004.3,334.3,270426,,,A*59
$GPGGA,163454.00,4124.069435,N,00209.476122,E,1,05,2.14,80.94,M,0.0,M,0.0,0000*45
$GPGSV,2,1,5,1,54,113,23.7,3,66,026,20.6,4,61,177,19.5,9,31,205,16.6*4B
$GPGSV,2,2,5,19,35,303,11.3*6F
$GPRMC,163454.00,A,4124.069435,N,00209.476122,E,004.7,350.8,270426,,,A*56
$GPGGA,163455.00,4124.067556,N,00209.476246,E,1,05,2.14,61.91,M,0.0,M,0.0,0000*45
$GPGSV,2,1,5,1,54,113,24.3,3,66,026,20.6,4,61,177,19.5,9,31,205,16.7*49
$GPGSV,2,2,5,19,35,303,11.3*6F
$GPRMC,163455.00,A,4124.067556,N,00209.476246,E,006.0,008.2,270426,,,A*5D
$GPGGA,163456.00,4124.064411,N,00209.467465,E,1,05,2.14,96.81,M,0.0,M,0.0,0000*49
$GPGSV,2,1,5,1,54,113,24.2,3,66,026,20.6,4,61,177,16.6,9,31,205,16.8*4B
$GPGSV,2,2,5,19,35,303,9.6*53
$GPRMC,163456.00,A,4124.064411,N,00209.467465,E,006.2,332.6,270426,,,A*54
$GPGGA,163457.00,4124.060653,N,00209.456507,E,1,05,2.14,141.93,M,0.0,M,0.0,0000*77
$GPGSV,2,1,5,1,54,113,22.6,3,66,026,20.5,4,61,177,16.6,9,31,205,16.9*4B
$GPGSV,2,2,5,19,35,303,9.6*53
$GPRMC,163457.00,A,4124.060653,N,00209.456507,E,009.3,325.6,270426,,,A*5A
$GPGGA,163458.00,4124.063318,N,00209.459743,E,1,05,2.14,110.95,M,0.0,M,0.0,0000*7E
$GPGSV,2,1,5,1,54,113,23.6,3,66,026,20.5,4,61,177,16.6,9,31,205,16.9*4A
$GPGSV,2,2,5,19,35,302,9.6*52
$GPRMC,163458.00,A,4124.063318,N,00209.459743,E,007.6,344.8,270426,,,A*53
$GPGGA,163459.00,4124.051023,N,00209.471693,E,1,04,2.80,150.28,M,0.0,M,0.0,0000*7D
$GPGSV,1,1,4,1,54,113,22.5,3,66,026,20.4,4,61,177,16.7,9,31,205,16.9*4A
$GPRMC,163459.00,A,4124.051023,N,00209.471693,E,010.3,340.7,270426,,,A*56
$GPGGA,163500.00,4124.054586,N,00209.469597,E,1,04,2.80,135.17,M,0.0,M,0.0,0000*7E
$GPGSV,1,1,4,1,54,113,22.6,3,66,026,20.3,4,61,177,19.3,9,31,205,17.0*4D
$GPRMC,163500.00,A,4124.054586,N,00209.469597,E,004.9,348.1,270426,,,A*5B
$GPGGA,163501.00,4124.056695,N,00209.470932,E,1,04,2.80,120.56,M,0.0,M,0.0,0000*76
$GPGSV,1,1,4,1,54,113,22.6,3,66,026,20.3,4,61,177,19.2,9,31,205,17.1*4D
$GPRMC,163501.00,A,4124.056695,N,00209.470932,E,004.3,157.9,270426,,,A*5C
$GPGGA,163502.00,4124.053847,N,00209.470216,E,1,04,2.80,137.09,M,0.0,M,0.0,0000*70
$GPGSV,1,1,4,1,54,113,22.7,3,66,026,19.6,4,61,177,19.2,9,31,205,17.1*43
$GPRMC,163502.00,A,4124.053847,N,00209.470216,E,005.1,159.5,270426,,,A*57
$GPGGA,163503.00,4124.052703,N,00209.471973,E,1,04,2.80,148.22,M,0.0,M,0.0,0000*77
$GPGSV,1,1,4,1,54,113,22.7,3,66,026,19.6,4,61,177,19.1,9,31,205,17.2*43
$GPRMC,163503.00,A,4124.052703,N,00209.471973,E,002.4,009.3,270426,,,A*51
$GPGGA,163504.00,4124.059496,N,00209.451823,E,1,05,2.17,162.73,M,0.0,M,0.0,0000*71
$GPGSV,2,1,5,1,54,113,22.8,3,66,026,18.7,4,61,177,19.1,9,31,205,17.2*4E
$GPGSV,2,2,5,17,50,265,17.5*63
$GPRMC,163504.00,A,4124.059496,N,00209.451823,E,002.4,274.9,270426,,,A*56
$GPGGA,163505.00,4124.061922,N,00209.452460,E,1,05,2.17,136.31,M,0.0,M,0.0,0000*76
$GPGSV,2,1,5,1,54,113,22.8,3,66,026,18.8,4,61,177,19.0,9,31,205,17.2*40
$GPGSV,2,2,5,17,50,265,17.5*63
$GPRMC,163505.00,A,4124.061922,N,00209.452460,E,006.0,173.3,270426,,,A*58
$GPGGA,163506.00,4124.061633,N,00209.462871,E,1,05,2.17,115.17,M,0.0,M,0.0,0000*70
$GPGSV,2,1,5,1,54,113,22.9,3,66,026,18.8,4,61,177,18.9,9,31,205,17.3*48
$GPGSV,2,2,5,17,50,265,14.0*65
$GPRMC,163506.00,A,4124.061633,N,00209.462871,E,004.1,153.5,270426,,,A*5C
$GPGGA,163507.00,4124.061573,N,00209.460398,E,1,05,2.16,116.29,M,0.0,M,0.0,0000*77
$GPGSV,2,1,5,1,54,113,23.0,3,66,026,18.7,4,61,177,18.8,9,31,205,17.3*4E
$GPGSV,2,2,5,17,50,265,17.9*6F
$GPRMC,163507.00,A,4124.061573,N,00209.460398,E,002.2,071.7,270426,,,A*52
$GPGGA,163508.00,4124.061408,N,00209.460578,E,1,05,2.16,116.08,M,0.0,M,0.0,0000*7E
$GPGSV,2,1,5,1,54,113,23.0,3,66,026,18.7,4,61,177,18.7,9,31,205,17.3*41
$GPGSV,2,2,5,17,50,265,18.0*69
$GPRMC,163508.00,A,4124.061408,N,00209.460578,E,003.8,071.1,270426,,,A*55
$GPGGA,163509.00,4124.044916,N,00209.456345,E,1,05,2.16,177.87,M,0.0,M,0.0,0000*77
$GPGSV,2,1,5,1,54,113,23.1,3,66,026,18.7,4,61,177,18.7,9,31,205,17.4*47
$GPGSV,2,2,5,17,50,265,18.1*68
$GPRMC,163509.00,A,4124.044916,N,00209.456345,E,007.5,176.2,270426,,,A*50
$GPGGA,163510.00,4124.043723,N,00209.456859,E,1,05,2.16,182.97,M,0.0,M,0.0,0000*7D
$GPGSV,2,1,5,1,54,113,23.1,3,66,026,18.7,4,61,177,18.7,9,32,205,17.4*44
$GPGSV,2,2,5,17,50,265,18.2*6B
$GPRMC,163510.00,A,4124.043723,N,00209.456859,E,002.4,142.9,270426,,,A*59
$GPGGA,163511.00,4124.042173,N,00209.461480,E,1,05,2.16,170.17,M,0.0,M,0.0,0000*77
$GPGSV,2,1,5,1,54,113,23.2,3,66,026,18.7,4,61,177,18.7,9,32,205,17.4*47
$GPGSV,2,2,5,17,50,265,18.1*68
$GPRMC,163511.00,A,4124.042173,N,00209.461480,E,005.1,359.6,270426,,,A*53
$GPGGA,163512.00,4124.047120,N,00209.460036,E,1,05,2.16,154.49,M,0.0,M,0.0,0000*72
$GPGSV,2,1,5,1,54,113,24.4,3,66,026,18.7,4,61,177,18.7,9,32,205,17.4*46
$GPGSV,2,2,5,17,50,265,18.1*68
$GPRMC,163512.00,A,4124.047120,N,00209.460036,E,005.0,354.4,270426,,,A*55
$GPGGA,163513.00,4124.057331,N,00209.463994,E,1,05,2.16,119.62,M,0.0,M,0.0,0000*72
$GPGSV,2,1,5,1,54,113,23.5,3,66,026,18.6,4,61,177,14.6,9,32,205,17.5*4D
$GPGSV,2,2,5,17,50,265,18.1*68
$GPRMC,163513.00,A,4124.057331,N,00209.463994,E,005.5,106.7,270426,,,A*56
$GPGGA,163514.00,4124.056421,N,00209.463824,E,1,05,2.16,150.67,M,0.0,M,0.0,0000*70
$GPGSV,2,1,5,1,54,113,24.0,3,66,026,18.5,4,61,177,14.6,9,32,205,17.5*4C
$GPGSV,2,2,5,17,50,265,18.1*68
$GPRMC,163514.00,A,4124.056421,N,00209.463824,E,010.8,184.1,270426,,,A*59
$GPGGA,163515.00,4124.051093,N,00209.466033,E,1,05,2.16,185.11,M,0.0,M,0.0,0000*79
$GPGSV,2,1,5,1,53,113,24.9,3,66,026,18.4,4,61,177,14.6,9,32,205,20.4*46
$GPGSV,2,2,5,17,50,265,18.1*68
$GPRMC,163515.00,A,4124.051093,N,00209.466033,E,018.2,195.3,270426,,,A*59
$GPGGA,163516.00,4124.051868,N,00209.472024,E,1,05,2.16,147.53,M,0.0,M,0.0,0000*7D
$GPGSV,2,1,5,1,53,113,23.4,3,66,026,18.3,4,61,177,12.3,9,32,205,20.3*4F
$GPGSV,2,2,5,17,50,265,18.1*68
$GPRMC,163516.00,A,4124.051868,N,00209.472024,E,013.8,193.2,270426,,,A*53
$GPGGA,163517.00,4124.049997,N,00209.470844,E,1,05,2.16,159.25,M,0.0,M,0.0,0000*76
$GPGSV,2,1,5,1,53,113,23.4,3,66,026,18.2,4,61,177,12.3,9,32,205,20.3*4E
$GPGSV,2,2,5,17,50,265,18.1*68
$GPRMC,163517.00,A,4124.049997,N,00209.470844,E,005.5,203.8,270426,,,A*5C
$GPGGA,163518.00,4124.053180,N,00209.471754,E,1,05,2.16,134.00,M,0.0,M,0.0,0000*7F
$GPGSV,2,1,5,1,53,113,23.3,3,66,026,18.2,4,61,177,16.7,9,32,205,20.2*48
$GPGSV,2,2,5,17,50,265,18.1*68
$GPRMC,163518.00,A,4124.053180,N,00209.471754,E,003.5,045.7,270426,,,A*50
$GPGGA,163519.00,4124.054160,N,00209.473371,E,1,05,2.16,125.98,M,0.0,M,0.0,0000*77
$GPGSV,2,1,5,1,53,113,23.3,3,66,026,18.2,4,61,177,16.7,9,32,205,20.2*48
$GPGSV,2,2,5,17,50,265,18.1*68
$GPRMC,163519.00,A,4124.054160,N,00209.473371,E,004.0,045.0,270426,,,A*5C
$GPGGA,163520.00,4124.064205,N,00209.475626,E,1,05,2.16,126.81,M,0.0,M,0.0,0000*74
$GPGSV,2,1,5,1,53,113,23.3,3,66,026,18.2,4,61,177,16.7,9,32,205,20.1*4B
$GPGSV,2,2,5,17,50,265,18.1*68
$GPRMC,163520.00,A,4124.064205,N,00209.475626,E,002.6,238.1,270426,,,A*5D
$GPGGA,163521.00,4124.069961,N,00209.461268,E,1,04,2.79,124.03,M,0.0,M,0.0,0000*7A
$GPGSV,1,1,4,1,53,113,23.3,3,66,026,18.2,4,61,177,16.7,9,32,205,19.9*4B
$GPRMC,163521.00,A,4124.069961,N,00209.461268,E,001.5,117.8,270426,,,A*54
$GPGGA,163522.00,4124.066093,N,00209.462299,E,1,04,2.79,102.52,M,0.0,M,0.0,0000*7F
$GPGSV,1,1,4,1,53,113,23.3,3,66,026,18.1,4,61,177,16.8,9,32,205,15.8*4A
$GPRMC,163522.00,A,4124.066093,N,00209.462299,E,002.1,227.7,270426,,,A*59
$GPGGA,163523.00,4124.065487,N,00209.461166,E,1,04,2.79,100.61,M,0.0,M,0.0,0000*7E
$GPGSV,1,1,4,1,53,113,23.3,3,66,026,18.1,4,61,177,16.9,9,32,205,15.9*4A
$GPRMC,163523.00,A,4124.065487,N,00209.461166,E,005.0,283.6,270426,,,A*53
$GPGGA,163524.00,4124.064985,N,00209.460126,E,1,04,2.79,92.61,M,0.0,M,0.0,0000*48
$GPGSV,1,1,4,1,53,113,23.2,3,66,026,18.2,4,61,177,17.1,9,32,205,19.3*47
$GPRMC,163524.00,A,4124.064985,N,00209.460126,E,002.7,173.5,270426,,,A*50
$GPGGA,163525.00,4124.064161,N,00209.462110,E,1,04,2.78,104.35,M,0.0,M,0.0,0000*72
$GPGSV,1,1,4,1,53,113,23.2,3,66,026,18.2,4,61,177,17.2,9,32,205,19.4*43
$GPRMC,163525.00,A,4124.064161,N,00209.462110,E,002.3,065.7,270426,,,A*54
$GPGGA,163526.00,4124.063974,N,00209.463556,E,1,04,2.78,99.12,M,0.0,M,0.0,0000*4D
$GPGSV,1,1,4,1,53,113,23.1,3,66,026,18.3,4,61,177,17.1,9,32,205,19.4*42
$GPRMC,163526.00,A,4124.063974,N,00209.463556,E,005.8,324.1,270426,,,A*57
$GPGGA,163527.00,4124.064541,N,00209.464660,E,1,04,2.78,103.56,M,0.0,M,0.0,0000*72
$GPGSV,1,1,4,1,53,113,23.1,3,66,026,18.2,4,61,177,17.1,9,32,205,18.6*40
$GPRMC,163527.00,A,4124.064541,N,00209.464660,E,004.1,234.4,270426,,,A*57
$GPGGA,163528.00,4124.064356,N,00209.464857,E,1,04,2.78,103.07,M,0.0,M,0.0,0000*73
$GPGSV,1,1,4,1,53,113,23.1,3,66,026,18.2,4,61,177,17.1,9,32,205,18.6*40
$GPRMC,163528.00,A,4124.064356,N,00209.464857,E,001.1,005.8,270426,,,A*5B
$GPGGA,163529.00,4124.073672,N,00209.468994,E,1,04,2.78,43.04,M,0.0,M,0.0,0000*43
$GPGSV,1,1,4,1,53,113,23.0,3,66,026,18.2,4,61,177,14.3,9,32,205,18.6*40
$GPRMC,163529.00,A,4124.073672,N,00209.468994,E,005.4,303.4,270426,,,A*55
$GPGGA,163530.00,4124.071817,N,00209.469201,E,1,04,2.78,45.37,M,0.0,M,0.0,0000*44
$GPGSV,1,1,4,1,53,113,23.0,3,66,026,18.3,4,61,177,14.3,9,32,205,18.6*41
$GPRMC,163530.00,A,4124.071817,N,00209.469201,E,006.5,169.6,270426,,,A*5A
$GPGGA,163531.00,4124.067775,N,00209.466764,E,1,04,2.78,73.08,M,0.0,M,0.0,0000*49
$GPGSV,1,1,4,1,53,113,22.9,3,66,026,18.2,4,61,177,17.7,9,32,205,18.6*4F
$GPRMC,163531.00,A,4124.067775,N,00209.466764,E,005.8,026.9,270426,,,A*55
$GPGGA,163532.00,4124.067958,N,00209.466182,E,1,04,2.78,72.92,M,0.0,M,0.0,0000*47
$GPGSV,1,1,4,1,53,113,19.8,3,66,026,18.1,4,61,177,17.7,9,32,205,18.7*44
$GPRMC,163532.00,A,4124.067958,N,00209.466182,E,003.0,172.7,270426,,,A*59
$GPGGA,163533.00,4124.063855,N,00209.464079,E,1,05,2.11,97.78,M,0.0,M,0.0,0000*48
$GPGSV,2,1,5,1,53,113,19.9,3,66,026,18.0,4,61,177,17.8,9,32,205,18.7*49
$GPGSV,2,2,5,19,35,302,14.3*6B
$GPRMC,163533.00,A,4124.063855,N,00209.464079,E,003.4,098.1,270426,,,A*50
$GPGGA,163534.00,4124.064481,N,00209.466553,E,1,05,2.11,89.59,M,0.0,M,0.0,0000*4E
$GPGSV,2,1,5,1,53,113,19.9,3,66,026,17.9,4,61,177,17.8,9,32,205,18.6*4E
$GPGSV,2,2,5,19,35,302,14.3*6B
$GPRMC,163534.00,A,4124.064481,N,00209.466553,E,003.8,062.3,270426,,,A*51
$GPGGA,163535.00,4124.062588,N,00209.467115,E,1,05,2.11,76.57,M,0.0,M,0.0,0000*48
$GPGSV,2,1,5,1,53,113,20.0,3,66,026,17.8,4,61,177,17.9,9,32,205,18.6*4D
$GPGSV,2,2,5,19,35,302,14.3*6B
$GPRMC,163535.00,A,4124.062588,N,00209.467115,E,003.9,074.0,270426,,,A*5C
$GPGGA,163536.00,4124.061991,N,00209.470766,E,1,05,2.11,87.51,M,0.0,M,0.0,0000*40
$GPGSV,2,1,5,1,53,113,20.0,3,66,026,17.7,4,61,176,17.8,9,32,205,18.6*42
$GPGSV,2,2,5,19,35,302,14.4*6C
$GPRMC,163536.00,A,4124.061991,N,00209.470766,E,006.2,067.7,270426,,,A*57
$GPGGA,163537.00,4124.060544,N,00209.468666,E,1,05,2.11,103.30,M,0.0,M,0.0,0000*76
$GPGSV,2,1,5,1,53,113,20.0,3,66,026,17.7,4,62,176,17.9,9,32,205,18.5*43
$GPGSV,2,2,5,19,35,302,14.5*6D
$GPRMC,163537.00,A,4124.060544,N,00209.468666,E,000.8,216.6,270426,,,A*52
$GPGGA,163538.00,4124.058119,N,00209.471173,E,1,05,2.11,94.86,M,0.0,M,0.0,0000*47
$GPGSV,2,1,5,1,53,113,20.0,3,66,026,14.4,4,62,176,17.9,9,32,205,18.5*43
$GPGSV,2,2,5,19,35,302,17.2*69
$GPRMC,163538.00,A,4124.058119,N,00209.471173,E,001.0,148.8,270426,,,A*5E
$GPGGA,163539.00,4124.063337,N,00209.468393,E,1,05,2.11,75.94,M,0.0,M,0.0,0000*48
$GPGSV,2,1,5,1,53,113,20.0,3,66,026,14.4,4,62,176,17.9,9,32,205,18.5*43
$GPGSV,2,2,5,19,35,302,17.2*69
$GPRMC,163539.00,A,4124.063337,N,00209.468393,E,003.7,022.5,270426,,,A*58
$GPGGA,163540.00,4124.063735,N,00209.467517,E,1,05,2.11,77.53,M,0.0,M,0.0,0000*4C
$GPGSV,2,1,5,1,53,113,19.9,3,66,026,14.4,4,62,176,17.9,9,32,205,18.5*40
$GPGSV,2,2,5,19,35,302,17.2*69
$GPRMC,163540.00,A,4124.063735,N,00209.467517,E,002.5,176.9,270426,,,A*5A
$GPGGA,163541.00,4124.060795,N,00209.474482,E,1,05,2.11,84.89,M,0.0,M,0.0,0000*40
$GPGSV,2,1,5,1,53,113,19.9,3,66,026,14.4,4,62,176,17.8,9,32,205,18.6*42
$GPGSV,2,2,5,19,35,302,14.4*6C
$GPRMC,163541.00,A,4124.060795,N,00209.474482,E,003.1,124.0,270426,,,A*56
$GPGGA,163542.00,4124.059281,N,00209.474887,E,1,05,2.11,77.80,M,0.0,M,0.0,0000*45
$GPGSV,2,1,5,1,53,113,19.8,3,66,027,14.4,4,62,176,17.9,9,32,205,18.5*40
$GPGSV,2,2,5,19,35,302,14.4*6C
$GPRMC,163542.00,A,4124.059281,N,00209.474887,E,003.1,187.1,270426,,,A*5E
$GPGGA,163543.00,4124.061518,N,00209.474508,E,1,05,2.11,78.39,M,0.0,M,0.0,0000*4F
$GPGSV,2,1,5,1,53,113,17.2,3,66,027,17.9,4,62,176,18.0,9,32,205,18.5*4C
$GPGSV,2,2,5,19,35,302,14.2*6A
$GPRMC,163543.00,A,4124.061518,N,00209.474508,E,007.1,285.6,270426,,,A*5B
$GPGGA,163544.00,4124.060172,N,00209.470125,E,1,05,2.11,105.61,M,0.0,M,0.0,0000*78
$GPGSV,2,1,5,1,53,113,17.3,3,66,027,17.9,4,62,176,18.1,9,32,205,18.5*4C
$GPGSV,2,2,5,19,35,302,14.2*6A
$GPRMC,163544.00,A,4124.060172,N,00209.470125,E,003.8,277.3,270426,,,A*5F
$GPGGA,163545.00,4124.060084,N,00209.468251,E,1,05,2.11,112.53,M,0.0,M,0.0,0000*7F
$GPGSV,2,1,5,1,53,113,17.3,3,66,027,17.9,4,62,176,18.1,9,32,205,18.4*4D
$GPGSV,2,2,5,19,35,302,14.2*6A
$GPRMC,163545.00,A,4124.060084,N,00209.468251,E,004.6,250.7,270426,,,A*57
$GPGGA,163546.00,4124.061029,N,00209.467042,E,1,05,2.11,95.13,M,0.0,M,0.0,0000*4F
$GPGSV,2,1,5,1,53,113,17.4,3,66,027,14.9,4,62,176,18.2,9,32,205,18.4*4A
$GPGSV,2,2,5,19,35,302,16.1*6B
$GPRMC,163546.00,A,4124.061029,N,00209.467042,E,006.0,088.2,270426,,,A*5B
$GPGGA,163547.00,4124.058489,N,00209.468409,E,1,05,2.10,78.19,M,0.0,M,0.0,0000*46
$GPGSV,2,1,5,1,53,113,17.4,3,66,027,14.9,4,62,176,18.2,9,32,205,18.3*4D
$GPGSV,2,2,5,19,35,302,16.1*6B
$GPRMC,163547.00,A,4124.058489,N,00209.468409,E,001.4,046.5,270426,,,A*5C
$GPGGA,163548.00,4124.057040,N,00209.470609,E,1,05,2.10,79.00,M,0.0,M,0.0,0000*45
$GPGSV,2,1,5,1,53,113,17.4,3,66,027,14.9,4,62,176,18.3,9,32,205,18.3*4C
$GPGSV,2,2,5,19,35,302,16.1*6B
$GPRMC,163548.00,A,4124.057040,N,00209.470609,E,003.5,089.7,270426,,,A*54
$GPGGA,163549.00,4124.060915,N,00209.483925,E,1,05,2.10,53.49,M,0.0,M,0.0,0000*41
$GPGSV,2,1,5,1,53,113,17.4,3,66,027,14.9,4,62,176,18.2,9,32,205,15.8*4B
$GPGSV,2,2,5,19,35,302,16.2*68
$GPRMC,163549.00,A,4124.060915,N,00209.483925,E,003.5,083.8,270426,,,A*50
$GPGGA,163550.00,4124.059230,N,00209.475129,E,1,05,2.10,82.25,M,0.0,M,0.0,0000*44
$GPGSV,2,1,5,1,53,113,17.4,3,66,027,14.8,4,62,176,18.3,9,32,205,15.8*4B
$GPGSV,2,2,5,19,35,302,16.2*68
$GPRMC,163550.00,A,4124.059230,N,00209.475129,E,004.7,260.1,270426,,,A*50
$GPGGA,163551.00,4124.056422,N,00209.474936,E,1,05,2.10,68.68,M,0.0,M,0.0,0000*45
$GPGSV,2,1,5,1,53,113,17.5,3,66,027,14.8,4,62,176,18.3,9,32,205,15.8*4A
$GPGSV,2,2,5,19,35,302,16.3*69
$GPRMC,163551.00,A,4124.056422,N,00209.474936,E,001.2,134.8,270426,,,A*57
$GPGGA,163552.00,4124.060371,N,00209.475662,E,1,05,2.10,60.96,M,0.0,M,0.0,0000*44
$GPGSV,2,1,5,1,53,113,17.5,3,66,027,14.8,4,62,176,18.3,9,32,205,15.8*4A
$GPGSV,2,2,5,19,35,302,16.3*69
$GPRMC,163552.00,A,4124.060371,N,00209.475662,E,009.8,170.0,270426,,,A*55
$GPGGA,163553.00,4124.057879,N,00209.473175,E,1,05,2.10,66.98,M,0.0,M,0.0,0000*4D
$GPGSV,2,1,5,1,53,113,17.5,3,66,027,14.8,4,62,176,18.4,9,32,205,15.8*4D
$GPGSV,2,2,5,19,35,302,16.4*6E
$GPRMC,163553.00,A,4124.057879,N,00209.473175,E,009.9,119.0,270426,,,A*5A
$GPGGA,163554.00,4124.060265,N,00209.477006,E,1,05,2.10,71.05,M,0.0,M,0.0,0000*4A
$GPGSV,2,1,5,1,53,113,17.5,3,66,027,17.5,4,62,176,18.4,9,32,205,15.8*43
$GPGSV,2,2,5,19,35,302,16.5*6F
$GPRMC,163554.00,A,4124.060265,N,00209.477006,E,010.3,080.5,270426,,,A*59
$GPGGA,163555.00,4124.051864,N,00209.480624,E,1,04,2.77,144.67,M,0.0,M,0.0,0000*7F
$GPGSV,1,1,4,1,53,113,14.4,3,66,027,17.5,4,62,176,18.5,9,32,205,14.1*4A
$GPRMC,163555.00,A,4124.051864,N,00209.480624,E,015.6,125.9,270426,,,A*5D
$GPGGA,163556.00,4124.050102,N,00209.484837,E,1,04,2.77,163.98,M,0.0,M,0.0,0000*79
$GPGSV,1,1,4,1,53,113,14.4,3,66,027,17.5,4,62,176,18.5,9,32,205,14.1*4A
$GPRMC,163556.00,A,4124.050102,N,00209.484837,E,006.5,060.0,270426,,,A*56
$GPGGA,163557.00,4124.056048,N,00209.472904,E,1,04,2.37,71.10,M,0.0,M,0.0,0000*4F
$GPGSV,1,1,4,1,53,113,14.4,3,66,027,17.6,4,62,176,18.7,19,35,302,18.0*76
$GPRMC,163557.00,A,4124.056048,N,00209.472904,E,002.3,096.3,270426,,,A*5E
$GPGGA,163558.00,4124.054561,N,00209.472685,E,1,04,2.37,67.32,M,0.0,M,0.0,0000*4D
$GPGSV,1,1,4,1,53,113,19.6,3,66,027,17.6,4,62,176,18.8,19,35,302,18.0*76
$GPRMC,163558.00,A,4124.054561,N,00209.472685,E,007.9,183.4,270426,,,A*56
$GPGGA,163559.00,4124.051047,N,00209.467740,E,1,04,2.37,69.88,M,0.0,M,0.0,0000*4B
$GPGSV,1,1,4,1,53,113,19.7,3,66,027,17.6,4,62,176,18.9,19,35,302,18.7*71
$GPRMC,163559.00,A,4124.051047,N,00209.467740,E,005.0,208.7,270426,,,A*57
$GPGGA,163600.00,4124.051270,N,00209.464857,E,1,04,2.37,82.19,M,0.0,M,0.0,0000*45
$GPGSV,1,1,4,1,53,113,19.6,3,66,027,17.6,4,62,176,18.9,19,35,302,18.7*70
$GPRMC,163600.00,A,4124.051270,N,00209.464857,E,006.1,333.0,270426,,,A*58
$GPGGA,163601.00,4124.051464,N,00209.461486,E,1,05,1.94,93.60,M,0.0,M,0.0,0000*47
$GPGSV,2,1,5,1,53,113,19.5,3,66,027,14.0,4,62,176,18.8,17,50,264,17.5*74
$GPGSV,2,2,5,19,35,302,18.7*63
$GPRMC,163601.00,A,4124.051464,N,00209.461486,E,004.0,019.1,270426,,,A*56
$GPGGA,163602.00,4124.051434,N,00209.462487,E,1,05,1.94,95.74,M,0.0,M,0.0,0000*40
$GPGSV,2,1,5,1,53,113,19.5,3,66,027,14.0,4,62,176,18.9,17,50,264,17.5*75
$GPGSV,2,2,5,19,35,302,18.6*62
$GPRMC,163602.00,A,4124.051434,N,00209.462487,E,002.4,160.2,270426,,,A*5C
$GPGGA,163603.00,4124.052714,N,00209.463678,E,1,05,1.94,106.02,M,0.0,M,0.0,0000*7A
$GPGSV,2,1,5,1,53,113,14.5,3,66,027,14.0,4,62,176,18.9,17,50,264,18.6*74
$GPGSV,2,2,5,19,35,302,18.6*62
$GPRMC,163603.00,A,4124.052714,N,00209.463678,E,001.9,210.9,270426,,,A*5D
$GPGGA,163604.00,4124.058651,N,00209.468812,E,1,05,1.94,81.96,M,0.0,M,0.0,0000*4D
$GPGSV,2,1,5,1,53,113,18.1,3,66,027,17.5,4,62,176,19.0,17,50,264,18.3*77
$GPGSV,2,2,5,19,35,302,18.4*60
$GPRMC,163604.00,A,4124.058651,N,00209.468812,E,007.4,120.1,270426,,,A*5A
$GPGGA,163605.00,4124.057024,N,00209.462659,E,1,05,1.93,102.30,M,0.0,M,0.0,0000*7D
$GPGSV,2,1,5,1,53,113,18.1,3,66,027,17.6,4,62,176,19.0,17,50,264,19.4*72
$GPGSV,2,2,5,19,35,302,18.3*67
$GPRMC,163605.00,A,4124.057024,N,00209.462659,E,022.3,110.6,270426,,,A*5F
$GPGGA,163606.00,4124.057350,N,00209.480097,E,1,05,1.93,27.04,M,0.0,M,0.0,0000*47
$GPGSV,2,1,5,1,53,113,13.7,3,66,027,17.6,4,62,176,19.1,17,50,264,19.4*7E
$GPGSV,2,2,5,19,35,302,13.5*6A
$GPRMC,163606.00,A,4124.057350,N,00209.480097,E,037.4,102.3,270426,,,A*51
$GPGGA,163607.00,,,,,1,04, Inf,,M,0.0,M,0.0,0000*29
$GPRMC,163607.00,A,,,,,,,270426,,,A*65
$GPGGA,163608.00,,,,,1,04, Inf,,M,0.0,M,0.0,0000*26
$GPRMC,163608.00,A,,,,,,,270426,,,A*6A
$GPGGA,163609.00,,,,,1,04, Inf,,M,0.0,M,0.0,0000*27
$GPRMC,163609.00,A,,,,,,,270426,,,A*6B
$GPGGA,163610.00,,,,,1,04, Inf,,M,0.0,M,0.0,0000*2F
$GPRMC,163610.00,A,,,,,,,270426,,,A*63
$GPGGA,163611.00,,,,,1,04, Inf,,M,0.0,M,0.0,0000*2E
$GPRMC,163611.00,A,,,,,,,270426,,,A*62
$GPGGA,163612.00,,,,,1,04, Inf,,M,0.0,M,0.0,0000*2D
$GPRMC,163612.00,A,,,,,,,270426,,,A*61
$GPGGA,163613.00,,,,,1,05, Inf,,M,0.0,M,0.0,0000*2D
$GPRMC,163613.00,A,,,,,,,270426,,,A*60
$GPGGA,163614.00,,,,,1,04, Inf,,M,0.0,M,0.0,0000*2B
$GPRMC,163614.00,A,,,,,,,270426,,,A*67
$GPGGA,163615.00,,,,,1,04, Inf,,M,0.0,M,0.0,0000*2A
$GPRMC,163615.00,A,,,,,,,270426,,,A*66
$GPGGA,163616.00,,,,,1,04, Inf,,M,0.0,M,0.0,0000*29
$GPRMC,163616.00,A,,,,,,,270426,,,A*65
$GPGGA,163617.00,,,,,1,05, Inf,,M,0.0,M,0.0,0000*29
$GPRMC,163617.00,A,,,,,,,270426,,,A*64
$GPGGA,163618.00,,,,,1,05, Inf,,M,0.0,M,0.0,0000*26
$GPRMC,163618.00,A,,,,,,,270426,,,A*6B
$GPGGA,163619.00,,,,,1,05, Inf,,M,0.0,M,0.0,0000*27
$GPRMC,163619.00,A,,,,,,,270426,,,A*6A
$GPGGA,163620.00,,,,,1,05, Inf,,M,0.0,M,0.0,0000*2D
$GPRMC,163620.00,A,,,,,,,270426,,,A*60
$GPGGA,163621.00,,,,,1,05, Inf,,M,0.0,M,0.0,0000*2C
$GPRMC,163621.00,A,,,,,,,270426,,,A*61
$GPGGA,163622.00,,,,,1,05, Inf,,M,0.0,M,0.0,0000*2F
$GPRMC,163622.00,A,,,,,,,270426,,,A*62
$GPGGA,163623.00,,,,,1,05, Inf,,M,0.0,M,0.0,0000*2E
$GPRMC,163623.00,A,,,,,,,270426,,,A*63
$GPGGA,163624.00,,,,,1,05, Inf,,M,0.0,M,0.0,0000*29
$GPRMC,163624.00,A,,,,,,,270426,,,A*64
$GPGGA,163625.00,,,,,1,05, Inf,,M,0.0,M,0.0,0000*28
$GPRMC,163625.00,A,,,,,,,270426,,,A*65
$GPGGA,163626.00,,,,,1,05, Inf,,M,0.0,M,0.0,0000*2B
$GPRMC,163626.00,A,,,,,,,270426,,,A*66
$GPGGA,163627.00,,,,,1,05, Inf,,M,0.0,M,0.0,0000*2A
$GPRMC,163627.00,A,,,,,,,270426,,,A*67
$GPGGA,163628.00,,,,,1,05, Inf,,M,0.0,M,0.0,0000*25
$GPRMC,163628.00,A,,,,,,,270426,,,A*68
$GPGGA,163629.00,,,,,1,05, Inf,,M,0.0,M,0.0,0000*24
$GPRMC,163629.00,A,,,,,,,270426,,,A*69
$GPGGA,163630.00,,,,,1,05, Inf,,M,0.0,M,0.0,0000*2C
$GPRMC,163630.00,A,,,,,,,270426,,,A*61
$GPGGA,163631.00,,,,,1,05, Inf,,M,0.0,M,0.0,0000*2D
$GPRMC,163631.00,A,,,,,,,270426,,,A*60
$GPGGA,163632.00,,,,,1,05, Inf,,M,0.0,M,0.0,0000*2E
$GPRMC,163632.00,A,,,,,,,270426,,,A*63
$GPGGA,163633.00,,,,,1,05, Inf,,M,0.0,M,0.0,0000*2F
$GPRMC,163633.00,A,,,,,,,270426,,,A*62
$GPGGA,163634.00,,,,,1,05, Inf,,M,0.0,M,0.0,0000*28
$GPRMC,163634.00,A,,,,,,,270426,,,A*65
$GPGGA,163635.00,,,,,1,05, Inf,,M,0.0,M,0.0,0000*29
$GPRMC,163635.00,A,,,,,,,270426,,,A*64
$GPGGA,163636.00,,,,,1,04, Inf,,M,0.0,M,0.0,0000*2B
$GPRMC,163636.00,A,,,,,,,270426,,,A*67
$GPGGA,163637.00,,,,,1,04, Inf,,M,0.0,M,0.0,0000*2A
$GPRMC,163637.00,A,,,,,,,270426,,,A*66
$GPGGA,163638.00,,,,,1,04, Inf,,M,0.0,M,0.0,0000*25
$GPRMC,163638.00,A,,,,,,,270426,,,A*69
$GPGGA,163639.00,,,,,1,04, Inf,,M,0.0,M,0.0,0000*24
$GPRMC,163639.00,A,,,,,,,270426,,,A*68
$GPGGA,163640.00,,,,,1,04, Inf,,M,0.0,M,0.0,0000*2A
$GPRMC,163640.00,A,,,,,,,270426,,,A*66
$GPGGA,163641.00,,,,,1,04, Inf,,M,0.0,M,0.0,0000*2B
$GPRMC,163641.00,A,,,,,,,270426,,,A*67
$GPGGA,163642.00,,,,,1,05, Inf,,M,0.0,M,0.0,0000*29
$GPRMC,163642.00,A,,,,,,,270426,,,A*64
$GPGGA,163643.00,,,,,1,05, Inf,,M,0.0,M,0.0,0000*28
$GPRMC,163643.00,A,,,,,,,270426,,,A*65
$GPGGA,163644.00,,,,,1,04, Inf,,M,0.0,M,0.0,0000*2E
$GPRMC,163644.00,A,,,,,,,270426,,,A*62
$GPGGA,163645.00,,,,,1,04, Inf,,M,0.0,M,0.0,0000*2F
$GPRMC,163645.00,A,,,,,,,270426,,,A*63
$GPGGA,163646.00,,,,,1,04, Inf,,M,0.0,M,0.0,0000*2C
$GPRMC,163646.00,A,,,,,,,270426,,,A*60
$GPGGA,163647.00,4124.063088,N,00209.460570,E,1,05,1.78,129.40,M,0.0,M,0.0,0000*7B
$GPGSV,2,1,5,1,53,114,19.7,4,62,176,18.4,9,32,205,14.6,17,50,264,14.3*77
$GPGSV,2,2,5,19,35,302,14.5*6D
$GPRMC,163647.00,A,4124.063088,N,00209.460570,E,001.9,038.6,270426,,,A*52
$GPGGA,163648.00,4124.062534,N,00209.460392,E,1,05,1.78,132.83,M,0.0,M,0.0,0000*78
$GPGSV,2,1,5,1,53,114,19.8,4,62,176,18.4,9,32,205,14.6,17,50,264,14.3*78
$GPGSV,2,2,5,19,35,302,14.6*6E
$GPRMC,163648.00,A,4124.062534,N,00209.460392,E,004.1,006.9,270426,,,A*5B
$GPGGA,163649.00,4124.063384,N,00209.460280,E,1,05,1.78,131.44,M,0.0,M,0.0,0000*7F
$GPGSV,2,1,5,1,53,114,19.8,4,62,176,18.5,9,32,205,14.6,17,50,264,14.3*79
$GPGSV,2,2,5,19,35,302,14.7*6F
$GPRMC,163649.00,A,4124.063384,N,00209.460280,E,001.6,022.0,270426,,,A*59
$GPGGA,163650.00,,,,,1,04, Inf,,M,0.0,M,0.0,0000*2B
$GPRMC,163650.00,A,,,,,,,270426,,,A*67
$GPGGA,163651.00,,,,,1,04, Inf,,M,0.0,M,0.0,0000*2A
$GPRMC,163651.00,A,,,,,,,270426,,,A*66
$GPGGA,163652.00,,,,,1,04, Inf,,M,0.0,M,0.0,0000*29
$GPRMC,163652.00,A,,,,,,,270426,,,A*65
$GPGGA,163653.00,,,,,1,04, Inf,,M,0.0,M,0.0,0000*28
$GPRMC,163653.00,A,,,,,,,270426,,,A*64
$GPGGA,163654.00,,,,,1,04, Inf,,M,0.0,M,0.0,0000*2F
$GPRMC,163654.00,A,,,,,,,270426,,,A*63
$GPGGA,163655.00,,,,,1,04, Inf,,M,0.0,M,0.0,0000*2E
$GPRMC,163655.00,A,,,,,,,270426,,,A*62
$GPGGA,163656.00,,,,,1,05, Inf,,M,0.0,M,0.0,0000*2C
$GPRMC,163656.00,A,,,,,,,270426,,,A*61
$GPGGA,163657.00,,,,,1,05, Inf,,M,0.0,M,0.0,0000*2D
$GPRMC,163657.00,A,,,,,,,270426,,,A*60
$GPGGA,163658.00,,,,,1,04, Inf,,M,0.0,M,0.0,0000*23
$GPRMC,163658.00,A,,,,,,,270426,,,A*6F
$GPGGA,163659.00,,,,,1,04, Inf,,M,0.0,M,0.0,0000*22
$GPRMC,163659.00,A,,,,,,,270426,,,A*6E
$GPGGA,163700.00,,,,,1,04, Inf,,M,0.0,M,0.0,0000*2F
$GPRMC,163700.00,A,,,,,,,270426,,,A*63
$GPGGA,163701.00,,,,,1,04, Inf,,M,0.0,M,0.0,0000*2E
$GPRMC,163701.00,A,,,,,,,270426,,,A*62
$GPGGA,163702.00,,,,,1,04, Inf,,M,0.0,M,0.0,0000*2D
$GPRMC,163702.00,A,,,,,,,270426,,,A*61
$GPGGA,163703.00,,,,,1,04, Inf,,M,0.0,M,0.0,0000*2C
$GPRMC,163703.00,A,,,,,,,270426,,,A*60
$GPGGA,163704.00,,,,,1,04, Inf,,M,0.0,M,0.0,0000*2B
$GPRMC,163704.00,A,,,,,,,270426,,,A*67
$GPGGA,163705.00,,,,,1,04, Inf,,M,0.0,M,0.0,0000*2A
$GPRMC,163705.00,A,,,,,,,270426,,,A*66
$GPGGA,163706.00,,,,,1,04, Inf,,M,0.0,M,0.0,0000*29
$GPRMC,163706.00,A,,,,,,,270426,,,A*65
$GPGGA,163707.00,,,,,1,04, Inf,,M,0.0,M,0.0,0000*28
$GPRMC,163707.00,A,,,,,,,270426,,,A*64
$GPGGA,163708.00,,,,,1,05, Inf,,M,0.0,M,0.0,0000*26
$GPRMC,163708.00,A,,,,,,,270426,,,A*6B
$GPGGA,163709.00,,,,,1,05, Inf,,M,0.0,M,0.0,0000*27
$GPRMC,163709.00,A,,,,,,,270426,,,A*6A
$GPGGA,163710.00,,,,,1,05, Inf,,M,0.0,M,0.0,0000*2F
$GPRMC,163710.00,A,,,,,,,270426,,,A*62
$GPGGA,163711.00,,,,,1,05, Inf,,M,0.0,M,0.0,0000*2E
$GPRMC,163711.00,A,,,,,,,270426,,,A*63
$GPGGA,163712.00,,,,,1,05, Inf,,M,0.0,M,0.0,0000*2D
$GPRMC,163712.00,A,,,,,,,270426,,,A*60
$GPGGA,163713.00,,,,,1,05, Inf,,M,0.0,M,0.0,0000*2C
$GPRMC,163713.00,A,,,,,,,270426,,,A*61
$GPGGA,163714.00,,,,,1,05, Inf,,M,0.0,M,0.0,0000*2B
$GPRMC,163714.00,A,,,,,,,270426,,,A*66
$GPGGA,163715.00,,,,,1,05, Inf,,M,0.0,M,0.0,0000*2A
$GPRMC,163715.00,A,,,,,,,270426,,,A*67
$GPGGA,163716.00,,,,,1,04, Inf,,M,0.0,M,0.0,0000*28
$GPRMC,163716.00,A,,,,,,,270426,,,A*64
$GPGGA,163717.00,,,,,1,04, Inf,,M,0.0,M,0.0,0000*29
$GPRMC,163717.00,A,,,,,,,270426,,,A*65
$GPGGA,163718.00,,,,,1,04, Inf,,M,0.0,M,0.0,0000*26
$GPRMC,163718.00,A,,,,,,,270426,,,A*6A
$GPGGA,163719.00,,,,,1,04, Inf,,M,0.0,M,0.0,0000*27
$GPRMC,163719.00,A,,,,,,,270426,,,A*6B
$GPGGA,163720.00,,,,,1,04, Inf,,M,0.0,M,0.0,0000*2D
$GPRMC,163720.00,A,,,,,,,270426,,,A*61
