$GPGGA,143446.00,,,,,1,00, Inf,,M,0.0,M,0.0,0000*28
$GPRMC,143446.00,A,,,,,,,260426,,,A*61
$GPGGA,143447.00,,,,,1,00, Inf,,M,0.0,M,0.0,0000*29
$GPRMC,143447.00,A,,,,,,,260426,,,A*60
$GPGGA,143448.00,,,,,1,00, Inf,,M,0.0,M,0.0,0000*26
$GPRMC,143448.00,A,,,,,,,260426,,,A*6F
$GPGGA,143449.00,,,,,1,00, Inf,,M,0.0,M,0.0,0000*27
$GPRMC,143449.00,A,,,,,,,260426,,,A*6E
$GPGGA,143450.00,,,,,1,00, Inf,,M,0.0,M,0.0,0000*2F
$GPRMC,143450.00,A,,,,,,,260426,,,A*66
$GPGGA,143451.00,,,,,1,00, Inf,,M,0.0,M,0.0,0000*2E
$GPRMC,143451.00,A,,,,,,,260426,,,A*67
$GPGGA,143452.00,,,,,1,00, Inf,,M,0.0,M,0.0,0000*2D
$GPRMC,143452.00,A,,,,,,,260426,,,A*64
$GPGGA,143453.00,,,,,1,00, Inf,,M,0.0,M,0.0,0000*2C
$GPRMC,143453.00,A,,,,,,,260426,,,A*65
$GPGGA,143454.00,,,,,1,00, Inf,,M,0.0,M,0.0,0000*2B
$GPRMC,143454.00,A,,,,,,,260426,,,A*62
$GPGGA,143455.00,,,,,1,00, Inf,,M,0.0,M,0.0,0000*2A
$GPRMC,143455.00,A,,,,,,,260426,,,A*63
$GPGGA,143456.00,,,,,1,00, Inf,,M,0.0,M,0.0,0000*29
$GPRMC,143456.00,A,,,,,,,260426,,,A*60
$GPGGA,143457.00,,,,,1,00, Inf,,M,0.0,M,0.0,0000*28
$GPRMC,143457.00,A,,,,,,,260426,,,A*61
$GPGGA,143458.00,,,,,1,06, Inf,,M,0.0,M,0.0,0000*21
$GPRMC,143458.00,A,,,,,,,260426,,,A*6E
$GPGGA,143459.00,,,,,1,00, Inf,,M,0.0,M,0.0,0000*26
$GPRMC,143459.00,A,,,,,,,260426,,,A*6F
$GPGGA,143500.00,,,,,1,00, Inf,,M,0.0,M,0.0,0000*2B
$GPRMC,143500.00,A,,,,,,,260426,,,A*62
$GPGGA,143501.00,,,,,1,00, Inf,,M,0.0,M,0.0,0000*2A
$GPRMC,143501.00,A,,,,,,,260426,,,A*63
$GPGGA,143502.00,,,,,1,08, Inf,,M,0.0,M,0.0,0000*21
$GPRMC,143502.00,A,,,,,,,260426,,,A*60
$GPGGA,143503.00,,,,,1,03, Inf,,M,0.0,M,0.0,0000*2B
$GPRMC,143503.00,A,,,,,,,260426,,,A*61
$GPGGA,143504.00,,,,,1,07, Inf,,M,0.0,M,0.0,0000*28
$GPRMC,143504.00,A,,,,,,,260426,,,A*66
$GPGGA,143505.00,4124.233175,N,00206.224910,E,1,06,1.30,416.01,M,0.0,M,0.0,0000*78
$GPGSV,2,1,5,1,67,324,32.8,2,67,064,34.1,3,51,238,39.5,14,22,286,36.4*7D
$GPGSV,2,2,5,32,30,055,33.8*68
$GPRMC,143505.00,A,4124.233175,N,00206.224910,E,,,260426,,,A*56
$GPGGA,143506.00,4124.233173,N,00206.224905,E,1,07,1.94,416.00,M,0.0,M,0.0,0000*77
$GPGSV,2,1,5,1,67,324,32.8,2,67,064,34.1,3,51,238,39.5,8,41,163,33.1*4D
$GPGSV,2,2,5,14,22,286,36.5*6B
$GPRMC,143506.00,A,4124.233173,N,00206.224905,E,000.0,,260426,,,A*79
$GPGGA,143507.00,,,,,1,00, Inf,,M,0.0,M,0.0,0000*2C
$GPRMC,143507.00,A,,,,,,,260426,,,A*65
$GPGGA,143508.00,,,,,1,00, Inf,,M,0.0,M,0.0,0000*23
$GPRMC,143508.00,A,,,,,,,260426,,,A*6A
$GPGGA,143509.00,,,,,1,02, Inf,,M,0.0,M,0.0,0000*20
$GPRMC,143509.00,A,,,,,,,260426,,,A*6B
$GPGGA,143510.00,,,,,1,10, Inf,,M,0.0,M,0.0,0000*2B
$GPRMC,143510.00,A,,,,,,,260426,,,A*63
$GPGGA,143511.00,4124.234378,N,00206.225439,E,1,09,1.00,420.03,M,0.0,M,0.0,0000*79
$GPGSV,2,1,7,1,67,324,32.5,2,67,064,30.7,3,51,238,39.9,8,41,163,31.2*4D
$GPGSV,2,2,7,14,22,286,36.9,22,20,302,31.7,32,30,055,33.6*67
$GLGSV,1,1,1,8,07,193,0.0*7E
$GPRMC,143511.00,A,4124.234378,N,00206.225439,E,,,260426,,,A*5C
$GPGGA,143512.00,4124.234381,N,00206.225447,E,1,09,1.03,420.03,M,0.0,M,0.0,0000*76
$GPGSV,2,1,5,3,51,238,40.0,8,41,163,33.5,14,22,286,37.0,22,20,302,34.4*44
$GPGSV,2,2,5,32,30,055,33.5*65
$GLGSV,1,1,1,6,50,047,0.0*7A
$GPRMC,143512.00,A,4124.234381,N,00206.225447,E,000.0,,260426,,,A*7E
$GPGGA,143513.00,4124.234388,N,00206.225451,E,1,12,0.92,420.02,M,0.0,M,0.0,0000*7B
$GPGSV,2,1,7,1,67,324,32.4,3,51,238,40.0,8,41,163,33.9,14,22,286,37.0*7A
$GPGSV,2,2,7,17,20,315,31.3,22,20,302,34.3,32,30,055,33.5*62
$GLGSV,1,1,2,6,50,047,0.0,7,53,168,25.0*6E
$GPRMC,143513.00,A,4124.234388,N,00206.225451,E,000.0,,260426,,,A*71
$GPGGA,143514.00,4124.234378,N,00206.225413,E,1,10,0.93,420.09,M,0.0,M,0.0,0000*7D
$GPGSV,2,1,6,1,67,324,32.4,3,51,238,40.1,8,41,163,33.2,14,22,286,37.1*70
$GPGSV,2,2,6,22,20,302,34.3,32,30,055,33.5*4F
$GLGSV,1,1,4,7,53,168,23.9,8,07,193,0.0,12,10,261,32.1,22,53,334,31.3*67
$GPRMC,143514.00,A,4124.234378,N,00206.225413,E,000.1,,260426,,,A*7E
$GPGGA,143515.00,,,,,1,01, Inf,,M,0.0,M,0.0,0000*2E
$GPRMC,143515.00,A,,,,,,,260426,,,A*66
$GPGGA,143516.00,,,,,1,07, Inf,,M,0.0,M,0.0,0000*2B
$GPRMC,143516.00,A,,,,,,,260426,,,A*65
$GPGGA,143517.00,4124.233816,N,00206.223779,E,1,09,1.21,418.31,M,0.0,M,0.0,0000*73
$GPGSV,2,1,6,2,67,064,33.3,3,51,238,40.2,8,41,163,33.4,14,22,286,37.4*72
$GPGSV,2,2,6,22,20,302,34.2,32,30,055,33.6*4D
$GPRMC,143517.00,A,4124.233816,N,00206.223779,E,,,260426,,,A*5F
$GPGGA,143518.00,4124.233822,N,00206.223763,E,1,12,0.96,418.31,M,0.0,M,0.0,0000*77
$GPGSV,2,1,7,1,67,324,31.7,2,67,064,31.9,3,51,238,40.2,8,41,163,33.4*42
$GPGSV,2,2,7,14,22,286,37.4,22,20,302,34.1,32,30,055,33.6*68
$GLGSV,1,1,2,6,50,047,0.0,7,54,168,24.5*6D
$GPRMC,143518.00,A,4124.233822,N,00206.223763,E,000.0,,260426,,,A*72
$GPGGA,143519.00,4124.233814,N,00206.223753,E,1,11,0.93,418.32,M,0.0,M,0.0,0000*75
$GPGSV,2,1,6,2,67,064,31.9,3,51,238,40.3,14,22,286,37.5,17,20,315,32.8*4D
$GPGSV,2,2,6,22,20,302,34.1,32,30,055,33.6*4E
$GLGSV,1,1,4,6,50,047,0.0,7,54,168,24.5,8,07,193,0.0,12,10,261,31.9*63
$GPRMC,143519.00,A,4124.233814,N,00206.223753,E,000.0,,260426,,,A*75
$GPGGA,143520.00,4124.233842,N,00206.223755,E,1,12,0.96,418.27,M,0.0,M,0.0,0000*78
$GPGSV,2,1,8,1,67,324,31.9,2,67,064,31.9,3,51,238,40.3,8,41,163,33.5*43
$GPGSV,2,2,8,14,22,286,37.5,17,20,315,32.5,22,20,302,34.1,32,30,055,33.6*4F
$GLGSV,1,1,2,6,50,047,0.0,8,07,193,0.0*53
$GPRMC,143520.00,A,4124.233842,N,00206.223755,E,000.1,,260426,,,A*7B
$GPGGA,143521.00,4124.233843,N,00206.223772,E,1,12,0.86,418.24,M,0.0,M,0.0,0000*7F
$GPGSV,2,1,8,1,67,324,32.7,2,67,064,32.0,3,51,238,40.4,8,41,163,33.6*40
$GPGSV,2,2,8,14,22,286,37.6,17,20,315,34.5,22,20,302,34.1,32,30,055,33.7*4B
$GLGSV,1,1,4,6,50,047,0.0,8,07,193,0.0,12,10,261,29.1,22,53,334,33.9*53
$GPRMC,143521.00,A,4124.233843,N,00206.223772,E,000.0,,260426,,,A*7F
$GPGGA,143522.00,,,,,1,00, Inf,,M,0.0,M,0.0,0000*2B
$GPRMC,143522.00,A,,,,,,,260426,,,A*62
$GPGGA,143523.00,,,,,1,00, Inf,,M,0.0,M,0.0,0000*2A
$GPRMC,143523.00,A,,,,,,,260426,,,A*63
$GPGGA,143524.00,,,,,1,00, Inf,,M,0.0,M,0.0,0000*2D
$GPRMC,143524.00,A,,,,,,,260426,,,A*64
$GPGGA,143525.00,,,,,1,00, Inf,,M,0.0,M,0.0,0000*2C
$GPRMC,143525.00,A,,,,,,,260426,,,A*65
$GPGGA,143526.00,,,,,1,06, Inf,,M,0.0,M,0.0,0000*29
$GPRMC,143526.00,A,,,,,,,260426,,,A*66
$GPGGA,143527.00,,,,,1,00, Inf,,M,0.0,M,0.0,0000*2E
$GPRMC,143527.00,A,,,,,,,260426,,,A*67
$GPGGA,143528.00,,,,,1,00, Inf,,M,0.0,M,0.0,0000*21
$GPRMC,143528.00,A,,,,,,,260426,,,A*68
$GPGGA,143529.00,,,,,1,09, Inf,,M,0.0,M,0.0,0000*29
$GPRMC,143529.00,A,,,,,,,260426,,,A*69
$GPGGA,143530.00,,,,,1,00, Inf,,M,0.0,M,0.0,0000*28
$GPRMC,143530.00,A,,,,,,,260426,,,A*61
$GPGGA,143531.00,,,,,1,02, Inf,,M,0.0,M,0.0,0000*2B
$GPRMC,143531.00,A,,,,,,,260426,,,A*60
$GPGGA,143532.00,,,,,1,06, Inf,,M,0.0,M,0.0,0000*2C
$GPRMC,143532.00,A,,,,,,,260426,,,A*63
$GPGGA,143533.00,4124.235075,N,00206.224237,E,1,10,1.12,413.65,M,0.0,M,0.0,0000*74
$GPGSV,2,1,5,2,67,064,32.0,3,51,238,41.1,14,22,285,37.8,22,20,302,33.8*48
$GPGSV,2,2,5,32,30,055,37.1*65
$GLGSV,1,1,1,6,50,047,0.0*7A
$GPRMC,143533.00,A,4124.235075,N,00206.224237,E,,,260426,,,A*5A
$GPGGA,143534.00,4124.235111,N,00206.224232,E,1,10,0.93,413.63,M,0.0,M,0.0,0000*7B
$GPGSV,2,1,5,2,67,064,31.5,3,51,238,41.1,14,22,285,37.8,22,20,302,32.3*44
$GPGSV,2,2,5,32,30,055,37.1*65
$GLGSV,2,1,5,6,50,047,0.0,7,54,168,22.6,8,07,193,0.0,12,10,261,33.9*66
$GLGSV,2,2,5,22,53,334,29.1*76
$GPRMC,143534.00,A,4124.235111,N,00206.224232,E,000.1,,260426,,,A*74
$GPGGA,143535.00,4124.235092,N,00206.224223,E,1,09,0.94,413.63,M,0.0,M,0.0,0000*7F
$GPGSV,1,1,4,3,51,238,41.0,14,22,285,37.7,22,20,302,33.6,32,30,055,37.1*7D
$GLGSV,2,1,5,6,50,047,0.0,7,54,168,24.0,8,07,193,0.0,12,10,261,31.1*6C
$GLGSV,2,2,5,22,53,334,0.0*4C
$GPRMC,143535.00,A,4124.235092,N,00206.224223,E,000.1,,260426,,,A*7F
$GPGGA,143536.00,4124.235093,N,00206.224216,E,1,09,0.94,413.62,M,0.0,M,0.0,0000*7A
$GPGSV,1,1,4,3,51,238,41.0,14,22,285,37.7,22,20,302,34.4,32,30,055,37.0*79
$GLGSV,2,1,5,6,50,047,0.0,7,54,168,24.0,8,07,193,0.0,12,10,261,31.0*6D
$GLGSV,2,2,5,22,53,334,26.1*79
$GPRMC,143536.00,A,4124.235093,N,00206.224216,E,000.0,,260426,,,A*7A
$GPGGA,143537.00,4124.235108,N,00206.224210,E,1,09,1.05,413.63,M,0.0,M,0.0,0000*76
$GPGSV,2,1,5,1,67,324,33.2,3,51,238,41.1,14,22,285,37.6,22,20,302,35.0*4F
$GPGSV,2,2,5,32,30,055,37.0*64
$GLGSV,1,1,3,6,50,047,0.0,8,07,193,0.0,12,10,261,31.0*79
$GPRMC,143537.00,A,4124.235108,N,00206.224210,E,000.1,,260426,,,A*7F
$GPGGA,143538.00,,,,,1,00, Inf,,M,0.0,M,0.0,0000*20
$GPRMC,143538.00,A,,,,,,,260426,,,A*69
$GPGGA,143539.00,,,,,1,00, Inf,,M,0.0,M,0.0,0000*21
$GPRMC,143539.00,A,,,,,,,260426,,,A*68
$GPGGA,143540.00,,,,,1,00, Inf,,M,0.0,M,0.0,0000*2F
$GPRMC,143540.00,A,,,,,,,260426,,,A*66
$GPGGA,143541.00,,,,,1,00, Inf,,M,0.0,M,0.0,0000*2E
$GPRMC,143541.00,A,,,,,,,260426,,,A*67
$GPGGA,143542.00,,,,,1,00, Inf,,M,0.0,M,0.0,0000*2D
$GPRMC,143542.00,A,,,,,,,260426,,,A*64
$GPGGA,143543.00,,,,,1,00, Inf,,M,0.0,M,0.0,0000*2C
$GPRMC,143543.00,A,,,,,,,260426,,,A*65
$GPGGA,143544.00,,,,,1,00, Inf,,M,0.0,M,0.0,0000*2B
$GPRMC,143544.00,A,,,,,,,260426,,,A*62
$GPGGA,143545.00,,,,,1,04, Inf,,M,0.0,M,0.0,0000*2E
$GPRMC,143545.00,A,,,,,,,260426,,,A*63
$GPGGA,143546.00,,,,,1,00, Inf,,M,0.0,M,0.0,0000*29
$GPRMC,143546.00,A,,,,,,,260426,,,A*60
$GPGGA,143547.00,,,,,1,00, Inf,,M,0.0,M,0.0,0000*28
$GPRMC,143547.00,A,,,,,,,260426,,,A*61
$GPGGA,143548.00,,,,,1,00, Inf,,M,0.0,M,0.0,0000*27
$GPRMC,143548.00,A,,,,,,,260426,,,A*6E
$GPGGA,143549.00,,,,,1,00, Inf,,M,0.0,M,0.0,0000*26
$GPRMC,143549.00,A,,,,,,,260426,,,A*6F
$GPGGA,143550.00,,,,,1,00, Inf,,M,0.0,M,0.0,0000*2E
$GPRMC,143550.00,A,,,,,,,260426,,,A*67
$GPGGA,143551.00,,,,,1,09, Inf,,M,0.0,M,0.0,0000*26
$GPRMC,143551.00,A,,,,,,,260426,,,A*66
$GPGGA,143552.00,,,,,1,01, Inf,,M,0.0,M,0.0,0000*2D
$GPRMC,143552.00,A,,,,,,,260426,,,A*65
$GPGGA,143553.00,,,,,1,10, Inf,,M,0.0,M,0.0,0000*2C
$GPRMC,143553.00,A,,,,,,,260426,,,A*64
$GPGGA,143554.00,4124.235351,N,00206.224743,E,1,06,1.33,414.37,M,0.0,M,0.0,0000*72
$GPGSV,1,1,3,3,51,239,39.8,8,41,163,34.0,14,22,285,34.1*6B
$GLGSV,1,1,3,6,50,047,0.0,8,07,193,0.0,22,53,334,31.2*7E
$GPRMC,143554.00,A,4124.235351,N,00206.224743,E,,,260426,,,A*58
$GPGGA,143555.00,4124.235344,N,00206.224748,E,1,10,1.33,414.39,M,0.0,M,0.0,0000*75
$GPGSV,2,1,5,3,51,239,39.8,8,41,163,34.1,14,22,285,34.1,22,20,302,31.4*44
$GPGSV,2,2,5,27,11,150,31.3*62
$GLGSV,1,1,1,6,50,047,0.0*7A
$GPRMC,143555.00,A,4124.235344,N,00206.224748,E,000.0,,260426,,,A*78
$GPGGA,143556.00,,,,,1,00, Inf,,M,0.0,M,0.0,0000*28
$GPRMC,143556.00,A,,,,,,,260426,,,A*61
$GPGGA,143557.00,,,,,1,08, Inf,,M,0.0,M,0.0,0000*21
$GPRMC,143557.00,A,,,,,,,260426,,,A*60
$GPGGA,143558.00,4124.233556,N,00206.222309,E,1,06,2.55,413.49,M,0.0,M,0.0,0000*78
$GPGSV,1,1,3,3,51,239,40.0,14,22,285,36.9,22,20,302,32.6*5D
$GLGSV,1,1,3,7,54,168,24.1,8,07,193,0.0,12,10,261,36.4*44
$GPRMC,143558.00,A,4124.233556,N,00206.222309,E,,,260426,,,A*5F
$GPGGA,143559.00,,,,,1,00, Inf,,M,0.0,M,0.0,0000*27
$GPRMC,143559.00,A,,,,,,,260426,,,A*6E
$GPGGA,143600.00,,,,,1,02, Inf,,M,0.0,M,0.0,0000*2A
$GPRMC,143600.00,A,,,,,,,260426,,,A*61
$GPGGA,143601.00,,,,,1,08, Inf,,M,0.0,M,0.0,0000*21
$GPRMC,143601.00,A,,,,,,,260426,,,A*60
$GPGGA,143602.00,4124.234072,N,00206.223773,E,1,08,1.78,420.06,M,0.0,M,0.0,0000*71
$GPGSV,2,1,5,3,51,239,40.1,8,41,163,34.4,14,22,285,37.0,17,20,315,32.0*43
$GPGSV,2,2,5,22,20,302,32.7*67
$GLGSV,1,1,3,7,54,168,21.8,8,07,193,0.0,12,10,261,36.2*4E
$GPRMC,143602.00,A,4124.234072,N,00206.223773,E,,,260426,,,A*5F
$GPGGA,143603.00,4124.234065,N,00206.223767,E,1,09,1.78,420.05,M,0.0,M,0.0,0000*71
$GPGSV,2,1,5,3,51,239,40.1,8,41,163,34.4,14,22,285,37.0,17,20,315,31.7*47
$GPGSV,2,2,5,22,20,302,32.6*66
$GLGSV,1,1,3,7,54,168,22.0,8,07,193,0.0,12,10,261,36.1*46
$GPRMC,143603.00,A,4124.234065,N,00206.223767,E,000.0,,260426,,,A*73
$GPGGA,143604.00,4124.234066,N,00206.223746,E,1,08,1.78,420.05,M,0.0,M,0.0,0000*77
$GPGSV,2,1,5,3,51,239,40.0,8,41,163,34.5,14,22,285,37.0,17,20,315,33.3*41
$GPGSV,2,2,5,22,20,302,32.5*65
$GLGSV,1,1,3,7,54,168,22.3,8,07,193,0.0,12,10,261,36.1*45
$GPRMC,143604.00,A,4124.234066,N,00206.223746,E,000.1,,260426,,,A*75
$GPGGA,143605.00,4124.234064,N,00206.223763,E,1,07,1.83,420.03,M,0.0,M,0.0,0000*7E
$GPGSV,1,1,4,3,51,239,40.0,8,41,163,34.6,14,22,285,37.0,17,20,315,33.3*40
$GLGSV,1,1,3,7,54,168,20.5,8,07,193,0.0,12,10,261,36.0*40
$GPRMC,143605.00,A,4124.234064,N,00206.223763,E,000.0,,260426,,,A*70
$GPGGA,143606.00,4124.234071,N,00206.223768,E,1,09,1.83,420.00,M,0.0,M,0.0,0000*7F
$GPGSV,2,1,5,3,51,239,39.9,8,41,163,34.7,14,22,285,37.1,17,20,315,33.2*44
$GPGSV,2,2,5,22,20,302,32.5*65
$GLGSV,1,1,2,7,54,168,20.6,8,07,193,0.0*6E
$GPRMC,143606.00,A,4124.234071,N,00206.223768,E,000.0,,260426,,,A*7C
$GPGGA,143607.00,4124.234076,N,00206.223787,E,1,09,1.64,419.97,M,0.0,M,0.0,0000*75
$GPGSV,2,1,5,3,51,239,39.7,8,41,163,34.8,14,22,285,37.1,17,20,315,29.4*48
$GPGSV,2,2,5,22,20,302,32.4*64
$GLGSV,1,1,4,7,54,168,20.6,8,07,193,0.0,12,10,261,33.2,22,53,334,27.5*6F
$GPRMC,143607.00,A,4124.234076,N,00206.223787,E,000.1,,260426,,,A*7A
$GPGGA,143608.00,4124.234088,N,00206.223823,E,1,06,2.02,419.90,M,0.0,M,0.0,0000*71
$GPGSV,1,1,3,3,51,239,39.7,8,41,163,34.7,14,22,285,37.1*60
$GLGSV,1,1,3,8,07,193,0.0,12,10,261,30.1,22,53,334,28.4*75
$GPRMC,143608.00,A,4124.234088,N,00206.223823,E,000.1,,260426,,,A*75
$GPGGA,143609.00,4124.234089,N,00206.223858,E,1,09,2.02,419.88,M,0.0,M,0.0,0000*7B
$GPGSV,2,1,6,1,67,325,31.3,3,51,239,39.7,8,41,163,34.7,14,22,285,37.2*7E
$GPGSV,2,2,6,22,20,302,35.0,32,30,055,35.8*46
$GPRMC,143609.00,A,4124.234089,N,00206.223858,E,000.1,,260426,,,A*79
$GPGGA,143610.00,4124.234106,N,00206.223867,E,1,10,0.97,419.85,M,0.0,M,0.0,0000*72
$GPGSV,2,1,7,2,67,065,33.1,3,51,239,39.7,8,41,163,34.6,14,22,285,37.2*7A
$GPGSV,2,2,7,17,20,315,33.2,22,20,302,35.0,32,30,055,35.8*68
$GLGSV,1,1,1,8,07,193,0.0*7E
$GPRMC,143610.00,A,4124.234106,N,00206.223867,E,000.1,,260426,,,A*7B
$GPGGA,143611.00,4124.234082,N,00206.223843,E,1,11,0.94,419.84,M,0.0,M,0.0,0000*7B
$GPGSV,2,1,7,2,67,065,35.0,3,51,239,39.7,8,41,163,31.4,14,22,285,37.2*7A
$GPGSV,2,2,7,17,20,315,33.1,22,20,302,35.1,32,30,055,35.8*6A
$GLGSV,1,1,2,6,50,047,0.0,7,54,168,26.0*6A
$GPRMC,143611.00,A,4124.234082,N,00206.223843,E,000.1,,260426,,,A*71
$GPGGA,143612.00,4124.234090,N,00206.223865,E,1,12,0.87,419.84,M,0.0,M,0.0,0000*7E
$GPGSV,2,1,7,2,67,065,36.0,3,51,239,39.8,8,41,163,29.0,14,22,285,37.2*7B
$GPGSV,2,2,7,17,20,315,33.0,22,20,302,35.1,32,30,055,35.8*6B
$GLGSV,1,1,4,6,50,047,0.0,7,54,168,26.1,8,07,193,0.0,12,10,261,33.9*67
$GPRMC,143612.00,A,4124.234090,N,00206.223865,E,000.1,,260426,,,A*75
$GPGGA,143613.00,4124.234082,N,00206.223869,E,1,11,0.89,419.85,M,0.0,M,0.0,0000*7C
$GPGSV,2,1,6,2,67,065,36.7,3,51,239,39.7,14,22,285,37.2,17,20,315,33.0*43
$GPGSV,2,2,6,22,20,302,35.2,32,30,055,35.8*44
$GLGSV,2,1,5,6,50,047,0.0,7,54,168,28.2,8,07,193,0.0,12,10,261,31.2*61
$GLGSV,2,2,5,22,53,334,31.0*7E
$GPRMC,143613.00,A,4124.234082,N,00206.223869,E,000.0,,260426,,,A*7A
$GPGGA,143614.00,4124.234082,N,00206.223873,E,1,10,0.96,419.83,M,0.0,M,0.0,0000*79
$GPGSV,2,1,6,2,67,065,36.7,3,51,239,39.7,14,22,285,37.3,17,20,315,33.0*42
$GPGSV,2,2,6,22,20,302,35.2,32,30,055,35.8*44
$GLGSV,1,1,4,6,50,047,0.0,8,07,194,0.0,12,10,261,28.0,22,53,334,31.1*5E
$GPRMC,143614.00,A,4124.234082,N,00206.223873,E,000.0,,260426,,,A*76
$GPGGA,143615.00,4124.234082,N,00206.223867,E,1,08,1.19,419.84,M,0.0,M,0.0,0000*75
$GPGSV,2,1,5,2,67,065,36.6,14,22,285,37.3,17,20,315,32.9,22,20,302,35.3*7C
$GPGSV,2,2,5,32,30,055,35.8*6E
$GLGSV,1,1,2,8,07,194,0.0,12,10,261,28.0*59
$GPRMC,143615.00,A,4124.234082,N,00206.223867,E,000.0,,260426,,,A*72
$GPGGA,143616.00,4124.234086,N,00206.223882,E,1,10,1.15,419.82,M,0.0,M,0.0,0000*7A
$GPGSV,2,1,6,2,67,065,36.5,3,51,239,39.7,14,22,285,37.3,17,20,315,32.9*48
$GPGSV,2,2,6,22,20,302,35.4,32,30,055,35.8*42
$GLGSV,1,1,2,8,07,194,0.0,12,10,261,31.1*50
$GPRMC,143616.00,A,4124.234086,N,00206.223882,E,000.0,,260426,,,A*7E
$GPGGA,143617.00,4124.234101,N,00206.223866,E,1,14,0.96,419.79,M,0.0,M,0.0,0000*75
$GPGSV,2,1,7,1,67,325,32.0,2,67,065,29.7,3,51,239,39.7,14,22,285,37.3*7B
$GPGSV,2,2,7,17,20,315,32.8,22,20,302,35.5,32,30,055,35.8*66
$GLGSV,1,1,3,6,50,047,0.0,7,54,168,28.8,8,07,194,0.0*40
$GPRMC,143617.00,A,4124.234101,N,00206.223866,E,000.1,,260426,,,A*7A
$GPGGA,143618.00,4124.234085,N,00206.223854,E,1,09,0.97,419.85,M,0.0,M,0.0,0000*78
$GPGSV,2,1,5,3,51,239,39.8,14,22,285,37.2,17,20,315,32.8,22,20,302,35.6*77
$GPGSV,2,2,5,32,30,055,35.9*6F
$GLGSV,1,1,4,6,50,047,0.0,8,07,194,0.0,12,10,261,30.9,22,53,334,0.0*6D
$GPRMC,143618.00,A,4124.234085,N,00206.223854,E,000.1,,260426,,,A*79
$GPGGA,143619.00,4124.234094,N,00206.223828,E,1,10,0.97,419.87,M,0.0,M,0.0,0000*78
$GPGSV,2,1,5,3,51,239,39.8,14,22,285,37.2,17,20,315,32.8,22,20,302,35.7*76
$GPGSV,2,2,5,32,30,055,36.0*65
$GLGSV,1,1,4,6,50,047,0.0,8,07,194,0.0,12,10,261,26.5,22,53,335,0.0*67
$GPRMC,143619.00,A,4124.234094,N,00206.223828,E,000.1,,260426,,,A*73
$GPGGA,143620.00,4124.234092,N,00206.223836,E,1,11,0.94,419.88,M,0.0,M,0.0,0000*76
$GPGSV,2,1,6,1,67,325,35.4,3,51,239,39.8,14,22,285,37.3,17,20,315,32.8*40
$GPGSV,2,2,6,22,20,302,35.7,32,30,055,36.0*4A
$GLGSV,1,1,3,6,50,047,0.0,7,54,168,26.8,8,07,194,0.0*4E
$GPRMC,143620.00,A,4124.234092,N,00206.223836,E,000.0,,260426,,,A*71
$GPGGA,143621.00,4124.234089,N,00206.223820,E,1,11,0.97,419.91,M,0.0,M,0.0,0000*71
$GPGSV,2,1,7,1,67,325,32.5,3,51,239,39.9,8,41,163,29.9,14,22,285,37.2*76
$GPGSV,2,2,7,17,20,315,32.8,22,20,302,35.8,32,30,055,36.0*60
$GLGSV,1,1,2,6,50,047,0.0,8,07,194,0.0*54
$GPRMC,143621.00,A,4124.234089,N,00206.223820,E,000.0,,260426,,,A*7D
$GPGGA,143622.00,4124.234086,N,00206.223833,E,1,12,0.99,419.90,M,0.0,M,0.0,0000*73
$GPGSV,2,1,5,1,67,325,32.8,3,51,239,39.9,14,22,285,37.2,22,20,302,35.9*4E
$GPGSV,2,2,5,32,30,055,36.0*65
$GLGSV,1,1,4,6,50,047,0.0,7,54,168,27.1,8,07,194,0.0,12,10,261,31.1*6B
$GPRMC,143622.00,A,4124.234086,N,00206.223833,E,000.0,,260426,,,A*73
$GPGGA,143623.00,4124.234093,N,00206.223855,E,1,12,0.91,419.89,M,0.0,M,0.0,0000*76
$GPGSV,2,1,6,1,67,325,32.9,3,51,239,39.9,14,22,285,37.2,17,20,315,32.8*4A
$GPGSV,2,2,6,22,20,302,36.0,32,30,055,36.0*4E
$GLGSV,2,1,5,6,50,047,0.0,8,07,194,0.0,12,10,261,27.3,21,45,091,32.2*58
$GLGSV,2,2,5,22,53,335,0.0*4D
$GPRMC,143623.00,A,4124.234093,N,00206.223855,E,000.1,,260426,,,A*77
$GPGGA,143624.00,4124.234098,N,00206.223871,E,1,12,0.87,419.86,M,0.0,M,0.0,0000*74
$GPGSV,2,1,6,1,67,325,33.9,3,51,239,39.9,14,22,285,37.2,17,20,315,32.7*44
$GPGSV,2,2,6,22,20,302,36.1,32,30,055,36.0*4F
$GLGSV,2,1,6,6,50,047,0.0,8,07,194,0.0,12,10,261,27.2,21,45,091,32.3*5B
$GLGSV,2,2,6,22,53,335,0.0,23,17,310,0.0*55
$GPRMC,143624.00,A,4124.234098,N,00206.223871,E,000.0,,260426,,,A*7C
$GPGGA,143625.00,4124.234096,N,00206.223905,E,1,10,0.93,419.87,M,0.0,M,0.0,0000*7F
$GPGSV,2,1,6,1,67,325,33.9,3,51,239,40.0,14,22,285,37.1,17,20,315,32.7*40
$GPGSV,2,2,6,22,20,302,36.1,32,30,055,36.1*4E
$GLGSV,1,1,4,6,50,047,0.0,8,07,194,0.0,12,10,261,21.1,23,17,310,0.0*62
$GPRMC,143625.00,A,4124.234096,N,00206.223905,E,000.1,,260426,,,A*70
$GPGGA,143626.00,4124.234107,N,00206.223921,E,1,10,0.93,419.85,M,0.0,M,0.0,0000*71
$GPGSV,2,1,6,1,67,325,34.3,3,51,239,37.4,14,22,285,37.2,17,20,315,35.5*4F
$GPGSV,2,2,6,22,20,302,38.9,32,30,055,36.2*4B
$GLGSV,1,1,4,6,50,047,0.0,8,07,194,0.0,12,10,261,21.2,23,17,310,0.0*61
$GPRMC,143626.00,A,4124.234107,N,00206.223921,E,000.1,,260426,,,A*7C
$GPGGA,143627.00,4124.234101,N,00206.223899,E,1,10,0.98,419.86,M,0.0,M,0.0,0000*7C
$GPGSV,2,1,7,1,67,325,31.8,2,67,065,32.8,3,51,239,37.5,14,22,285,37.2*78
$GPGSV,2,2,7,17,20,315,35.4,22,20,302,38.9,32,30,055,36.2*65
$GLGSV,1,1,2,8,07,194,0.0,12,10,261,21.2*52
$GPRMC,143627.00,A,4124.234101,N,00206.223899,E,000.1,,260426,,,A*79
$GPGGA,143628.00,4124.234066,N,00206.223847,E,1,09,0.98,419.89,M,0.0,M,0.0,0000*77
$GPGSV,2,1,6,1,67,325,34.4,3,51,239,37.6,14,22,285,37.1,17,20,315,32.4*4F
$GPGSV,2,2,6,22,20,302,38.8,32,30,055,36.3*4B
$GLGSV,1,1,3,8,07,194,0.0,12,10,261,27.8,23,18,310,0.0*4B
$GPRMC,143628.00,A,4124.234066,N,00206.223847,E,000.2,,260426,,,A*76
$GPGGA,143629.00,4124.234068,N,00206.223799,E,1,10,0.98,419.90,M,0.0,M,0.0,0000*74
$GPGSV,2,1,6,1,67,325,34.4,3,51,239,41.8,14,22,285,37.1,17,20,315,32.5*41
$GPGSV,2,2,6,22,20,302,35.0,32,30,055,36.4*49
$GLGSV,1,1,3,8,07,194,0.0,12,10,261,29.5,22,53,335,0.0*41
$GPRMC,143629.00,A,4124.234068,N,00206.223799,E,000.1,,260426,,,A*76
$GPGGA,143630.00,4124.234076,N,00206.223784,E,1,13,0.98,419.90,M,0.0,M,0.0,0000*7C
$GPGSV,2,1,7,1,67,325,34.3,2,67,065,33.3,3,51,239,41.6,14,22,285,37.2*7E
$GPGSV,2,2,7,17,20,315,32.5,22,20,302,34.9,32,30,055,36.3*6E
$GLGSV,1,1,3,6,50,047,0.0,7,54,168,25.4,8,07,194,0.0*41
$GPRMC,143630.00,A,4124.234076,N,00206.223784,E,000.0,,260426,,,A*7C
$GPGGA,143631.00,4124.234076,N,00206.223811,E,1,14,0.86,419.88,M,0.0,M,0.0,0000*7F
$GPGSV,2,1,7,1,67,325,34.2,2,67,065,33.7,3,51,239,41.6,14,22,285,37.2*7B
$GPGSV,2,2,7,17,20,315,35.8,22,20,302,35.0,32,30,055,36.2*6D
$GLGSV,2,1,6,6,50,047,0.0,7,54,168,27.5,8,07,194,0.0,12,10,261,30.0*6E
$GLGSV,2,2,6,13,13,307,36.6,22,53,335,0.0*67
$GPRMC,143631.00,A,4124.234076,N,00206.223811,E,000.1,,260426,,,A*7F
$GPGGA,143632.00,4124.234091,N,00206.223822,E,1,12,0.91,419.87,M,0.0,M,0.0,0000*7A
$GPGSV,2,1,7,1,67,325,30.9,2,67,065,30.1,3,51,239,41.6,14,22,285,37.1*72
$GPGSV,2,2,7,17,20,315,35.8,22,20,302,35.1,32,30,055,36.2*6C
$GLGSV,2,1,5,6,50,047,0.0,8,07,194,0.0,12,10,261,28.8,22,53,335,29.4*59
$GLGSV,2,2,5,23,18,310,0.0*44
$GPRMC,143632.00,A,4124.234091,N,00206.223822,E,000.1,,260426,,,A*75
$GPGGA,143633.00,4124.234090,N,00206.223824,E,1,11,0.92,419.88,M,0.0,M,0.0,0000*73
$GPGSV,2,1,6,1,67,325,31.0,3,51,239,41.6,14,22,285,37.0,17,20,315,35.8*45
$GPGSV,2,2,6,22,20,302,37.6,32,30,055,36.2*4B
$GLGSV,2,1,5,6,50,047,0.0,8,07,194,0.0,12,10,261,26.8,22,53,335,28.6*54
$GLGSV,2,2,5,23,18,310,0.0*44
$GPRMC,143633.00,A,4124.234090,N,00206.223824,E,000.0,,260426,,,A*72
$GPGGA,143634.00,4124.234096,N,00206.223797,E,1,12,0.92,419.90,M,0.0,M,0.0,0000*7F
$GPGSV,2,1,7,1,67,325,33.1,2,67,065,32.9,3,51,239,38.8,14,22,285,37.1*73
$GPGSV,2,2,7,17,20,315,33.1,22,20,302,33.5,32,30,055,32.5*62
$GLGSV,1,1,4,6,50,047,0.0,8,07,194,0.0,12,10,261,27.5,22,53,335,27.8*5B
$GPRMC,143634.00,A,4124.234096,N,00206.223797,E,000.1,,260426,,,A*75
$GPGGA,143635.00,4124.234087,N,00206.223800,E,1,10,1.19,419.92,M,0.0,M,0.0,0000*7D
$GPGSV,2,1,7,1,67,325,33.0,2,67,065,32.7,3,51,239,38.8,8,40,163,31.5*4C
$GPGSV,2,2,7,14,22,285,37.2,17,20,315,33.1,22,20,302,33.5*68
$GLGSV,1,1,2,6,50,047,0.0,8,07,194,0.0*54
$GPRMC,143635.00,A,4124.234087,N,00206.223800,E,000.0,,260426,,,A*74
$GPGGA,143636.00,4124.234095,N,00206.223796,E,1,10,1.13,419.89,M,0.0,M,0.0,0000*7D
$GPGSV,2,1,7,1,67,325,33.1,2,67,065,32.2,3,51,239,38.7,8,40,163,32.2*43
$GPGSV,2,2,7,14,22,285,37.3,17,20,315,33.2,22,20,302,33.5*6A
$GLGSV,1,1,3,6,50,047,0.0,8,07,194,0.0,12,10,261,26.2*7A
$GPRMC,143636.00,A,4124.234095,N,00206.223796,E,000.0,,260426,,,A*74
$GPGGA,143637.00,4124.234090,N,00206.223800,E,1,09,1.16,419.88,M,0.0,M,0.0,0000*75
$GPGSV,2,1,6,1,67,325,32.6,3,51,239,38.6,8,40,163,32.2,14,22,285,37.4*7C
$GPGSV,2,2,6,17,20,315,33.2,22,20,302,33.5*48
$GLGSV,1,1,3,6,50,047,0.0,8,07,194,0.0,12,10,261,28.1*77
$GPRMC,143637.00,A,4124.234090,N,00206.223800,E,000.0,,260426,,,A*70
$GPGGA,143638.00,4124.234097,N,00206.223792,E,1,11,1.16,419.87,M,0.0,M,0.0,0000*7F
$GPGSV,2,1,7,1,67,325,32.5,3,51,239,38.5,8,40,163,32.2,14,22,285,37.5*7C
$GPGSV,2,2,7,17,20,315,33.3,22,20,302,33.5,32,30,055,33.6*62
$GLGSV,1,1,2,6,50,046,0.0,8,07,194,0.0*55
$GPRMC,143638.00,A,4124.234097,N,00206.223792,E,000.0,,260426,,,A*7C
$GPGGA,143639.00,4124.234104,N,00206.223785,E,1,11,0.87,419.85,M,0.0,M,0.0,0000*78
$GPGSV,2,1,7,1,67,325,32.5,3,51,239,38.4,8,40,163,31.8,14,22,285,37.6*77
$GPGSV,2,2,7,17,20,315,33.3,22,20,302,33.6,32,30,055,34.5*65
$GLGSV,1,1,4,6,50,046,0.0,8,07,194,0.0,12,10,261,27.9,22,53,335,30.0*58
$GPRMC,143639.00,A,4124.234104,N,00206.223785,E,000.0,,260426,,,A*70
$GPGGA,143640.00,4124.234102,N,00206.223786,E,1,12,0.87,419.85,M,0.0,M,0.0,0000*70
$GPGSV,2,1,7,1,67,325,32.4,3,51,239,38.3,8,40,163,32.6,14,22,285,37.7*7D
$GPGSV,2,2,7,17,20,315,33.2,22,20,302,33.7,32,30,055,33.1*66
$GLGSV,1,1,4,6,50,046,0.0,8,07,194,0.0,12,10,261,26.8,13,13,306,33.8*55
$GPRMC,143640.00,A,4124.234102,N,00206.223786,E,000.0,,260426,,,A*7B
$GPGGA,143641.00,4124.234101,N,00206.223776,E,1,09,0.97,419.85,M,0.0,M,0.0,0000*76
$GPGSV,2,1,6,1,67,325,32.4,3,51,239,38.3,14,22,285,37.9,17,20,315,33.2*4C
$GPGSV,2,2,6,22,20,302,33.7,32,30,055,33.1*48
$GLGSV,1,1,3,6,49,046,0.0,8,07,194,0.0,12,10,261,28.9*76
$GPRMC,143641.00,A,4124.234101,N,00206.223776,E,000.0,,260426,,,A*76
$GPGGA,143642.00,4124.234094,N,00206.223789,E,1,09,0.97,419.85,M,0.0,M,0.0,0000*78
$GPGSV,2,1,6,1,67,325,32.3,3,51,239,38.2,14,22,285,40.5,17,20,315,33.2*46
$GPGSV,2,2,6,22,20,302,33.7,32,30,055,33.0*49
$GLGSV,1,1,3,6,49,046,0.0,8,07,194,0.0,12,10,261,29.1*7F
$GPRMC,143642.00,A,4124.234094,N,00206.223789,E,000.0,,260426,,,A*78
$GPGGA,143643.00,4124.234093,N,00206.223784,E,1,08,1.23,419.85,M,0.0,M,0.0,0000*7C
$GPGSV,2,1,5,1,67,325,32.3,3,51,239,38.2,14,22,285,40.5,17,20,315,33.3*44
$GPGSV,2,2,5,22,20,302,33.7*66
$GLGSV,1,1,3,6,49,046,0.0,8,07,194,0.0,12,10,261,29.1*7F
$GPRMC,143643.00,A,4124.234093,N,00206.223784,E,000.0,,260426,,,A*73
$GPGGA,143644.00,4124.234095,N,00206.223791,E,1,06,2.48,419.82,M,0.0,M,0.0,0000*7E
$GPGSV,2,1,5,1,67,325,31.4,3,51,239,38.1,14,22,285,40.5,17,20,315,33.3*43
$GPGSV,2,2,5,22,20,302,33.7*66
$GLGSV,1,1,1,6,49,046,0.0*73
$GPRMC,143644.00,A,4124.234095,N,00206.223791,E,000.0,,260426,,,A*76
$GPGGA,143645.00,4124.234101,N,00206.223798,E,1,09,2.48,419.78,M,0.0,M,0.0,0000*70
$GPGSV,2,1,6,1,67,325,31.9,3,51,239,38.1,8,40,163,33.8,14,22,285,40.5*7D
$GPGSV,2,2,6,17,20,315,33.2,22,20,302,33.7*4A
$GPRMC,143645.00,A,4124.234101,N,00206.223798,E,000.0,,260426,,,A*72
$GPGGA,143646.00,4124.234101,N,00206.223806,E,1,13,1.16,419.77,M,0.0,M,0.0,0000*77
$GPGSV,2,1,7,1,67,325,32.9,3,51,239,38.1,8,40,163,32.1,14,22,285,40.5*77
$GPGSV,2,2,7,17,20,315,33.2,22,20,302,33.7,32,30,055,31.7*62
$GLGSV,1,1,2,6,49,046,0.0,7,54,168,23.7*61
$GPRMC,143646.00,A,4124.234101,N,00206.223806,E,000.0,,260426,,,A*79
$GPGGA,143647.00,4124.234095,N,00206.223810,E,1,07,1.12,419.74,M,0.0,M,0.0,0000*7F
$GPGSV,2,1,6,1,67,325,32.3,3,51,239,38.0,8,40,163,30.4,14,22,285,40.5*7A
$GPGSV,2,2,6,17,20,315,33.2,32,30,055,32.0*4D
$GLGSV,1,1,1,6,49,046,0.0*73
$GPRMC,143647.00,A,4124.234095,N,00206.223810,E,000.0,,260426,,,A*73
$GPGGA,143648.00,4124.234095,N,00206.223830,E,1,10,1.12,419.69,M,0.0,M,0.0,0000*78
$GPGSV,2,1,7,1,67,325,31.2,3,51,239,38.0,8,40,163,30.4,14,22,285,40.5*79
$GPGSV,2,2,7,17,20,315,33.2,22,20,302,33.7,32,30,055,32.9*6F
$GPRMC,143648.00,A,4124.234095,N,00206.223830,E,000.1,,260426,,,A*7F
$GPGGA,143649.00,4124.234098,N,00206.223832,E,1,08,0.98,419.68,M,0.0,M,0.0,0000*7D
$GPGSV,2,1,5,3,51,239,38.0,14,22,285,40.5,17,20,315,33.2,22,20,302,33.8*7A
$GPGSV,2,2,5,32,30,055,32.8*69
$GLGSV,1,1,3,6,49,046,0.0,8,07,194,0.0,12,10,261,24.9*7A
$GPRMC,143649.00,A,4124.234098,N,00206.223832,E,000.0,,260426,,,A*70
$GPGGA,143650.00,4124.234088,N,00206.223834,E,1,09,0.98,419.66,M,0.0,M,0.0,0000*7D
$GPGSV,2,1,6,2,67,066,25.4,3,51,239,38.0,14,22,285,40.5,17,20,315,33.3*43
$GPGSV,2,2,6,22,20,302,33.7,32,30,055,32.7*4F
$GLGSV,1,1,2,6,49,046,0.0,8,07,194,0.0*5D
$GPRMC,143650.00,A,4124.234088,N,00206.223834,E,000.0,,260426,,,A*7F
$GPGGA,143651.00,4124.234084,N,00206.223826,E,1,07,1.02,419.64,M,0.0,M,0.0,0000*7D
$GPGSV,2,1,5,3,51,239,37.9,14,22,285,40.5,17,20,315,33.3,22,20,301,33.7*71
$GPGSV,2,2,5,32,30,055,32.7*66
$GLGSV,1,1,2,8,07,194,0.0,12,10,261,24.7*52
$GPRMC,143651.00,A,4124.234084,N,00206.223826,E,000.0,,260426,,,A*71
$GPGGA,143652.00,4124.234081,N,00206.223834,E,1,07,1.02,419.62,M,0.0,M,0.0,0000*7E
$GPGSV,2,1,5,3,51,239,37.9,14,22,285,40.5,17,20,315,36.0,22,20,301,33.7*77
$GPGSV,2,2,5,32,30,055,35.3*65
$GLGSV,1,1,2,8,07,194,0.0,12,10,261,24.8*5D
$GPRMC,143652.00,A,4124.234081,N,00206.223834,E,000.0,,260426,,,A*74
$GPGGA,143653.00,4124.234085,N,00206.223851,E,1,12,1.02,419.56,M,0.0,M,0.0,0000*7B
$GPGSV,2,1,7,1,67,326,33.4,2,67,066,34.5,3,51,239,38.0,14,22,285,40.4*71
$GPGSV,2,2,7,17,20,315,36.0,22,20,301,33.8,32,30,055,38.3*64
$GPRMC,143653.00,A,4124.234085,N,00206.223851,E,000.0,,260426,,,A*72
$GPGGA,143654.00,4124.234075,N,00206.223865,E,1,10,0.96,419.54,M,0.0,M,0.0,0000*78
$GPGSV,2,1,6,2,67,066,34.0,3,51,239,40.8,14,22,285,36.3,17,20,315,35.9*4B
$GPGSV,2,2,6,22,20,301,36.6,32,30,055,38.3*46
$GLGSV,1,1,4,6,49,046,0.0,8,07,194,0.0,12,10,261,30.0,22,54,335,27.1*5F
$GPRMC,143654.00,A,4124.234075,N,00206.223865,E,000.1,,260426,,,A*7C
$GPGGA,143655.00,4124.234078,N,00206.223868,E,1,11,0.96,419.52,M,0.0,M,0.0,0000*7E
$GPGSV,2,1,7,1,67,326,31.8,2,67,066,33.0,3,51,239,40.8,14,22,285,36.2*7D
$GPGSV,2,2,7,17,20,315,35.9,22,20,301,36.7,32,30,055,38.3*64
$GLGSV,1,1,3,6,49,046,0.0,8,07,194,0.0,12,10,261,30.0*76
$GPRMC,143655.00,A,4124.234078,N,00206.223868,E,000.0,,260426,,,A*7C
$GPGGA,143656.00,4124.234084,N,00206.223865,E,1,12,0.95,419.53,M,0.0,M,0.0,0000*72
$GPGSV,2,1,7,1,67,326,30.7,2,67,066,33.8,3,51,239,40.8,14,22,285,36.1*78
$GPGSV,2,2,7,17,20,315,35.8,22,20,301,36.7,32,30,055,38.3*65
$GLGSV,1,1,4,6,49,046,0.0,7,54,168,28.0,8,07,194,0.0,12,10,261,30.0*6C
$GPRMC,143656.00,A,4124.234084,N,00206.223865,E,000.0,,260426,,,A*71
$GPGGA,143657.00,4124.234088,N,00206.223862,E,1,11,0.95,419.54,M,0.0,M,0.0,0000*7C
$GPGSV,2,1,7,1,67,326,30.7,2,67,066,33.8,3,51,239,40.8,14,22,285,36.1*78
$GPGSV,2,2,7,17,20,315,35.7,22,20,301,36.7,32,30,055,38.3*6A
$GLGSV,1,1,4,6,49,046,0.0,8,07,194,0.0,12,10,261,30.0,22,54,335,0.0*6B
$GPRMC,143657.00,A,4124.234088,N,00206.223862,E,000.0,,260426,,,A*7B
$GPGGA,143658.00,4124.234093,N,00206.223836,E,1,11,0.95,419.53,M,0.0,M,0.0,0000*7F
$GPGSV,2,1,7,1,67,326,30.8,2,67,066,33.8,3,51,239,40.8,14,22,285,36.2*74
$GPGSV,2,2,7,17,20,315,35.7,22,20,301,36.6,32,30,055,38.4*6C
$GLGSV,1,1,4,6,49,046,0.0,8,07,194,0.0,12,10,261,30.1,22,54,335,0.0*6A
$GPRMC,143658.00,A,4124.234093,N,00206.223836,E,000.1,,260426,,,A*7E
$GPGGA,143659.00,4124.234088,N,00206.223834,E,1,13,0.95,419.53,M,0.0,M,0.0,0000*74
$GPGSV,2,1,7,1,67,326,33.9,2,67,066,33.8,3,51,239,40.9,14,22,285,36.3*76
$GPGSV,2,2,7,17,20,315,35.7,22,20,301,36.6,32,30,055,38.4*6C
$GLGSV,1,1,4,6,49,046,0.0,7,55,168,27.9,8,07,194,0.0,12,10,261,30.1*6A
$GPRMC,143659.00,A,4124.234088,N,00206.223834,E,000.0,,260426,,,A*76
$GPGGA,143700.00,4124.234089,N,00206.223863,E,1,12,0.91,419.51,M,0.0,M,0.0,0000*7D
$GPGSV,2,1,7,1,67,326,31.3,2,67,066,30.8,3,51,239,40.8,14,22,285,36.2*7D
$GPGSV,2,2,7,17,20,315,32.3,22,20,301,36.7,32,30,054,38.4*6F
$GLGSV,2,1,5,6,49,046,0.0,8,07,194,0.0,12,10,261,30.1,22,54,335,0.0*68
$GLGSV,2,2,5,23,18,310,0.0*44
$GPRMC,143700.00,A,4124.234089,N,00206.223863,E,000.1,,260426,,,A*79
$GPGGA,143701.00,4124.234086,N,00206.223845,E,1,14,0.95,419.53,M,0.0,M,0.0,0000*77
$GPGSV,2,1,8,1,67,326,31.8,2,67,066,30.9,3,51,239,40.8,8,40,163,31.8*47
$GPGSV,2,2,8,14,22,285,36.1,17,20,315,32.3,22,20,301,36.7,32,30,054,38.5*41
$GLGSV,1,1,3,6,49,046,0.0,7,55,168,28.0,8,07,194,0.0*40
$GPRMC,143701.00,A,4124.234086,N,00206.223845,E,000.0,,260426,,,A*72
$GPGGA,143702.00,4124.234092,N,00206.223835,E,1,14,0.91,419.53,M,0.0,M,0.0,0000*72
$GPGSV,2,1,8,1,67,326,34.3,2,67,066,34.3,3,51,239,40.8,14,22,285,36.1*7B
$GPGSV,2,2,8,17,20,315,32.4,22,20,301,36.6,27,11,150,25.2,32,30,054,38.5*4D
$GLGSV,1,1,4,6,49,046,0.0,8,07,194,0.0,12,10,261,30.1,13,13,306,31.6*5F
$GPRMC,143702.00,A,4124.234092,N,00206.223835,E,000.0,,260426,,,A*73
$GPGGA,143703.00,4124.234094,N,00206.223838,E,1,11,0.95,419.53,M,0.0,M,0.0,0000*79
$GPGSV,2,1,7,1,67,326,33.4,2,67,066,34.2,3,51,239,40.8,14,22,285,36.2*76
$GPGSV,2,2,7,17,20,315,32.4,22,20,301,36.6,32,30,054,38.5*68
$GLGSV,1,1,4,6,49,046,0.0,8,07,194,0.0,12,10,261,30.1,22,54,335,28.0*50
$GPRMC,143703.00,A,4124.234094,N,00206.223838,E,000.0,,260426,,,A*79
$GPGGA,143704.00,4124.234097,N,00206.223833,E,1,13,0.95,419.52,M,0.0,M,0.0,0000*75
$GPGSV,2,1,7,1,67,326,32.7,2,67,066,34.2,3,51,239,40.9,14,22,285,36.2*75
$GPGSV,2,2,7,17,20,315,32.5,22,20,301,36.6,32,30,054,38.5*69
$GLGSV,1,1,4,6,49,046,0.0,7,55,168,29.2,8,07,194,0.0,12,10,261,30.1*6F
$GPRMC,143704.00,A,4124.234097,N,00206.223833,E,000.0,,260426,,,A*76
$GPGGA,143705.00,4124.234103,N,00206.223844,E,1,13,0.88,419.51,M,0.0,M,0.0,0000*77
$GPGSV,2,1,7,1,67,326,32.6,2,67,066,34.2,3,51,239,40.9,14,22,285,36.1*77
$GPGSV,2,2,7,17,20,315,32.5,22,20,301,36.6,32,30,054,38.5*69
$GLGSV,2,1,5,6,49,046,0.0,7,55,168,28.1,8,07,194,0.0,12,10,261,30.1*6F
$GLGSV,2,2,5,21,44,091,36.0*70
$GPRMC,143705.00,A,4124.234103,N,00206.223844,E,000.0,,260426,,,A*7B
$GPGGA,143706.00,4124.234104,N,00206.223846,E,1,11,0.96,419.51,M,0.0,M,0.0,0000*7C
$GPGSV,2,1,7,2,67,066,34.1,3,51,239,40.9,8,40,163,33.7,14,22,285,36.0*7A
$GPGSV,2,2,7,17,20,315,32.4,22,20,301,36.6,32,30,054,38.4*69
$GLGSV,1,1,3,6,49,046,0.0,8,07,194,0.0,12,10,261,30.0*76
$GPRMC,143706.00,A,4124.234104,N,00206.223846,E,000.0,,260426,,,A*7D
$GPGGA,143707.00,4124.234107,N,00206.223844,E,1,10,0.96,419.54,M,0.0,M,0.0,0000*78
$GPGSV,2,1,6,2,67,066,34.1,3,51,239,40.9,14,22,285,36.0,17,20,315,32.4*42
$GPGSV,2,2,6,22,20,301,33.3,32,30,054,35.6*4F
$GLGSV,1,1,4,6,49,046,0.0,8,07,194,0.0,12,10,261,27.3,22,54,335,29.6*53
$GPRMC,143707.00,A,4124.234107,N,00206.223844,E,000.0,,260426,,,A*7D
$GPGGA,143708.00,4124.234061,N,00206.223916,E,1,12,0.96,419.55,M,0.0,M,0.0,0000*73
$GPGSV,2,1,7,1,67,326,34.7,2,67,066,34.2,3,51,239,40.8,14,22,285,36.1*71
$GPGSV,2,2,7,17,20,315,32.5,22,20,301,33.3,32,30,054,35.7*66
$GLGSV,1,1,3,6,49,046,0.0,8,07,194,0.0,12,10,261,27.2*72
$GPRMC,143708.00,A,4124.234061,N,00206.223916,E,000.3,,260426,,,A*76
$GPGGA,143709.00,4124.234071,N,00206.223865,E,1,09,1.02,419.53,M,0.0,M,0.0,0000*76
$GPGSV,2,1,6,1,67,326,35.4,3,52,239,38.2,14,22,285,39.3,17,20,315,32.5*48
$GPGSV,2,2,6,22,20,301,33.4,32,30,054,35.6*48
$GLGSV,1,1,3,8,08,194,0.0,12,10,261,24.6,22,54,335,0.0*47
$GPRMC,143709.00,A,4124.234071,N,00206.223865,E,000.1,,260426,,,A*71
$GPGGA,143710.00,4124.234059,N,00206.223844,E,1,08,1.02,419.54,M,0.0,M,0.0,0000*71
$GPGSV,2,1,6,1,67,326,32.7,3,52,239,38.2,14,22,285,39.3,17,20,315,32.6*4F
$GPGSV,2,2,6,22,20,301,33.5,32,30,054,35.5*4A
$GLGSV,1,1,2,8,08,194,0.0,12,10,261,28.6*50
$GPRMC,143710.00,A,4124.234059,N,00206.223844,E,000.1,,260426,,,A*70
$GPGGA,143711.00,4124.234072,N,00206.223832,E,1,09,1.02,419.48,M,0.0,M,0.0,0000*74
$GPGSV,2,1,6,1,67,326,35.5,3,52,239,38.1,14,22,285,39.2,17,20,315,32.6*48
$GPGSV,2,2,6,22,20,301,33.6,32,30,054,35.5*49
$GLGSV,1,1,2,8,08,194,0.0,12,10,261,29.1*56
$GPRMC,143711.00,A,4124.234072,N,00206.223832,E,000.1,,260426,,,A*79
$GPGGA,143712.00,4124.234079,N,00206.223830,E,1,11,1.02,419.47,M,0.0,M,0.0,0000*78
$GPGSV,2,1,7,1,67,326,35.5,2,67,066,35.2,3,52,239,38.1,14,22,285,39.2*7A
$GPGSV,2,2,7,17,20,315,35.1,22,20,301,33.6,32,30,054,35.6*61
$GLGSV,1,1,2,7,55,168,25.6,8,08,194,0.0*62
$GPRMC,143712.00,A,4124.234079,N,00206.223830,E,000.0,,260426,,,A*72
$GPGGA,143713.00,4124.234083,N,00206.223808,E,1,10,1.48,419.48,M,0.0,M,0.0,0000*77
$GPGSV,2,1,5,1,67,326,35.4,2,67,066,34.2,3,52,239,38.1,14,22,285,39.1*7B
$GPGSV,2,2,5,17,20,315,35.1*66
$GLGSV,1,1,4,6,49,046,0.0,7,55,168,24.9,8,08,194,0.0,12,10,261,32.2*67
$GPRMC,143713.00,A,4124.234083,N,00206.223808,E,000.1,,260426,,,A*7C
$GPGGA,143714.00,,,,,1,04, Inf,,M,0.0,M,0.0,0000*28
$GPRMC,143714.00,A,,,,,,,260426,,,A*65
$GPGGA,143715.00,,,,,1,11, Inf,,M,0.0,M,0.0,0000*2D
$GPRMC,143715.00,A,,,,,,,260426,,,A*64
$GPGGA,143716.00,4124.234430,N,00206.223758,E,1,12,0.92,415.90,M,0.0,M,0.0,0000*79
$GPGSV,2,1,7,1,67,326,35.3,2,67,066,33.8,3,52,239,38.1,14,22,285,39.0*72
$GPGSV,2,2,7,17,20,315,34.9,22,20,301,33.5,32,30,054,35.7*6A
$GLGSV,1,1,4,6,49,046,0.0,7,55,168,21.4,8,08,194,0.0,12,10,261,32.7*6A
$GPRMC,143716.00,A,4124.234430,N,00206.223758,E,,,260426,,,A*50
$GPGGA,143717.00,4124.234423,N,00206.223764,E,1,12,0.88,415.89,M,0.0,M,0.0,0000*76
$GPGSV,2,1,7,1,67,326,35.3,2,67,066,33.8,3,52,239,38.1,14,22,285,39.0*72
$GPGSV,2,2,7,17,20,315,34.8,22,20,301,33.6,32,30,054,35.7*68
$GLGSV,2,1,5,6,49,046,0.0,7,55,168,21.5,8,08,194,0.0,12,10,261,32.6*68
$GLGSV,2,2,5,22,54,335,29.8*79
$GPRMC,143717.00,A,4124.234423,N,00206.223764,E,000.0,,260426,,,A*72
$GPGGA,143718.00,4124.234426,N,00206.223744,E,1,11,0.95,415.88,M,0.0,M,0.0,0000*70
$GPGSV,2,1,7,1,67,326,35.3,2,67,066,33.8,3,52,239,38.1,14,22,285,39.0*72
$GPGSV,2,2,7,17,20,315,34.8,22,20,301,33.6,32,30,054,35.7*68
$GLGSV,1,1,4,6,49,046,0.0,8,08,194,0.0,12,10,261,32.5,22,54,335,29.8*50
$GPRMC,143718.00,A,4124.234426,N,00206.223744,E,000.1,,260426,,,A*7B
$GPGGA,143719.00,4124.234434,N,00206.223736,E,1,12,0.95,415.88,M,0.0,M,0.0,0000*74
$GPGSV,2,1,7,1,67,326,35.3,2,67,066,33.9,3,52,239,38.1,14,22,285,38.9*7B
$GPGSV,2,2,7,17,20,315,34.8,22,20,301,33.5,32,30,054,35.8*64
$GLGSV,1,1,4,6,49,046,0.0,7,55,168,24.6,8,08,194,0.0,12,10,261,32.4*6E
$GPRMC,143719.00,A,4124.234434,N,00206.223736,E,000.0,,260426,,,A*7D
$GPGGA,143720.00,4124.234426,N,00206.223737,E,1,11,0.95,415.88,M,0.0,M,0.0,0000*7F
$GPGSV,2,1,7,1,67,326,35.3,2,67,066,34.0,3,52,239,38.2,14,22,285,38.9*76
$GPGSV,2,2,7,17,20,315,34.7,22,20,301,33.5,32,30,054,35.8*6B
$GLGSV,1,1,4,6,49,046,0.0,8,08,194,0.0,12,10,261,32.3,22,54,335,29.7*59
$GPRMC,143720.00,A,4124.234426,N,00206.223737,E,000.0,,260426,,,A*75
$GPGGA,143721.00,4124.234430,N,00206.223731,E,1,12,0.95,415.87,M,0.0,M,0.0,0000*73
$GPGSV,2,1,7,1,67,326,35.2,2,67,066,34.1,3,52,239,38.2,14,22,285,38.9*76
$GPGSV,2,2,7,17,20,315,34.7,22,20,301,33.6,32,30,054,35.8*68
$GLGSV,1,1,4,6,49,046,0.0,7,55,168,24.6,8,08,194,0.0,12,10,261,32.2*68
$GPRMC,143721.00,A,4124.234430,N,00206.223731,E,000.0,,260426,,,A*75
$GPGGA,143722.00,4124.234440,N,00206.223716,E,1,11,0.95,415.88,M,0.0,M,0.0,0000*7E
$GPGSV,2,1,7,1,67,326,35.2,2,67,066,34.1,3,52,239,38.2,14,22,285,38.8*77
$GPGSV,2,2,7,17,20,315,34.6,22,20,301,33.5,32,30,054,35.7*65
$GLGSV,1,1,4,6,49,046,0.0,8,08,194,0.0,12,10,261,32.2,22,54,335,0.0*64
$GPRMC,143722.00,A,4124.234440,N,00206.223716,E,000.1,,260426,,,A*75
$GPGGA,143723.00,4124.234407,N,00206.223701,E,1,12,1.03,415.97,M,0.0,M,0.0,0000*79
$GPGSV,2,1,8,1,67,326,29.1,2,67,066,28.2,3,52,239,38.3,8,40,163,36.3*4E
$GPGSV,2,2,8,14,22,285,38.8,17,20,315,30.6,27,11,150,31.2,32,30,054,28.0*46
$GLGSV,1,1,1,7,55,168,24.5*41
$GPRMC,143723.00,A,4124.234407,N,00206.223701,E,000.1,,260426,,,A*71
$GPGGA,143724.00,4124.234392,N,00206.223685,E,1,07,2.01,416.02,M,0.0,M,0.0,0000*72
$GPGSV,1,1,4,1,67,326,33.5,3,52,239,38.3,8,40,163,34.4,14,22,285,33.7*7D
$GLGSV,1,1,3,8,08,194,0.0,12,10,261,32.3,22,54,335,0.0*45
$GPRMC,143724.00,A,4124.234392,N,00206.223685,E,000.1,,260426,,,A*70
$GPGGA,143725.00,4124.234382,N,00206.223703,E,1,11,2.01,415.97,M,0.0,M,0.0,0000*75
$GPGSV,2,1,6,1,67,326,31.9,3,52,239,38.2,8,40,163,33.1,14,22,285,33.7*71
$GPGSV,2,2,6,17,20,315,28.3,27,11,150,30.5*42
$GLGSV,1,1,1,6,49,046,0.0*73
$GPRMC,143725.00,A,4124.234382,N,00206.223703,E,000.1,,260426,,,A*7F
$GPGGA,143726.00,4124.234393,N,00206.223715,E,1,13,1.21,415.95,M,0.0,M,0.0,0000*70
$GPGSV,2,1,7,1,67,326,34.3,2,66,066,30.2,3,52,239,38.1,8,40,163,32.8*4A
$GPGSV,2,2,7,14,22,285,33.7,22,20,301,34.1,32,30,054,33.7*6F
$GLGSV,1,1,2,6,49,046,0.0,7,55,168,24.5*65
$GPRMC,143726.00,A,4124.234393,N,00206.223715,E,000.0,,260426,,,A*7A
$GPGGA,143727.00,4124.234412,N,00206.223714,E,1,13,0.86,415.93,M,0.0,M,0.0,0000*74
$GPGSV,2,1,8,1,67,326,35.0,2,66,066,31.3,3,52,239,38.1,8,40,163,32.8*47
$GPGSV,2,2,8,14,22,285,33.8,22,20,301,33.1,27,11,150,27.4,32,30,054,32.6*46
$GLGSV,1,1,4,6,49,046,0.0,7,55,168,24.5,8,08,194,0.0,12,10,261,32.2*6B
$GPRMC,143727.00,A,4124.234412,N,00206.223714,E,000.1,,260426,,,A*75
$GPGGA,143728.00,4124.234424,N,00206.223726,E,1,12,0.86,415.90,M,0.0,M,0.0,0000*7D
$GPGSV,2,1,7,1,67,326,35.0,2,66,066,32.8,3,52,239,38.2,8,40,163,32.8*43
$GPGSV,2,2,7,14,22,285,36.4,22,20,301,33.5,32,30,054,32.6*6A
$GLGSV,2,1,5,6,49,046,0.0,7,55,168,25.3,8,08,194,0.0,12,10,261,32.3*6F
$GLGSV,2,2,5,22,54,335,0.0*4A
$GPRMC,143728.00,A,4124.234424,N,00206.223726,E,000.1,,260426,,,A*7E
$GPGGA,143729.00,4124.234431,N,00206.223741,E,1,12,0.86,415.88,M,0.0,M,0.0,0000*70
$GPGSV,2,1,7,1,67,326,35.0,2,66,066,33.7,3,52,239,38.3,8,40,163,29.9*47
$GPGSV,2,2,7,14,22,285,36.5,22,20,301,33.5,32,30,054,32.6*6B
$GLGSV,2,1,5,6,49,046,0.0,7,55,168,26.6,8,08,194,0.0,12,10,261,32.2*68
$GLGSV,2,2,5,22,54,335,0.0*4A
$GPRMC,143729.00,A,4124.234431,N,00206.223741,E,000.0,,260426,,,A*7B
$GPGGA,143730.00,4124.234424,N,00206.223753,E,1,10,1.02,415.86,M,0.0,M,0.0,0000*7E
$GPGSV,2,1,6,1,67,326,34.9,2,66,066,35.1,3,52,239,41.1,14,22,285,36.6*71
$GPGSV,2,2,6,22,20,301,36.0,32,30,054,32.6*4E
$GLGSV,1,1,4,6,49,046,0.0,8,08,194,0.0,12,10,261,32.2,22,54,335,0.0*64
$GPRMC,143730.00,A,4124.234424,N,00206.223753,E,000.0,,260426,,,A*74
$GPGGA,143731.00,4124.234431,N,00206.223760,E,1,11,1.02,415.85,M,0.0,M,0.0,0000*79
$GPGSV,2,1,6,1,67,326,34.8,2,66,066,35.1,3,52,239,41.2,14,22,285,36.7*72
$GPGSV,2,2,6,22,20,301,36.0,32,30,054,32.7*4F
$GLGSV,1,1,4,6,49,046,0.0,8,08,194,0.0,12,10,261,32.1,13,13,306,35.1*51
$GPRMC,143731.00,A,4124.234431,N,00206.223760,E,000.0,,260426,,,A*71
$GPGGA,143732.00,4124.234432,N,00206.223763,E,1,12,0.95,415.83,M,0.0,M,0.0,0000*70
$GPGSV,2,1,6,1,67,326,34.7,2,66,066,35.0,3,52,239,41.2,14,22,285,36.7*7C
$GPGSV,2,2,6,22,20,301,35.9,32,30,054,32.7*45
$GLGSV,2,1,5,6,49,046,0.0,7,55,168,27.7,8,08,194,0.0,12,10,261,32.0*6A
$GLGSV,2,2,5,13,13,306,35.2*7F
$GPRMC,143732.00,A,4124.234432,N,00206.223763,E,000.0,,260426,,,A*72
$GPGGA,143733.00,4124.234446,N,00206.223769,E,1,12,0.95,415.81,M,0.0,M,0.0,0000*7A
$GPGSV,2,1,6,1,67,326,32.1,2,66,066,34.9,3,52,239,41.2,14,22,285,36.8*7B
$GPGSV,2,2,6,22,20,301,35.8,32,30,054,32.5*46
$GLGSV,2,1,5,6,49,046,0.0,8,08,194,0.0,12,10,261,32.0,13,13,306,35.2*51
$GLGSV,2,2,5,22,54,335,32.6*7D
$GPRMC,143733.00,A,4124.234446,N,00206.223769,E,000.1,,260426,,,A*7B
$GPGGA,143734.00,4124.234463,N,00206.223760,E,1,09,1.29,415.79,M,0.0,M,0.0,0000*78
$GPGSV,1,1,4,2,66,066,34.8,3,52,239,41.2,14,22,285,36.9,22,20,301,35.7*4C
$GLGSV,1,1,4,6,49,046,0.0,7,55,168,25.3,8,08,194,0.0,12,10,261,32.0*6E
$GPRMC,143734.00,A,4124.234463,N,00206.223760,E,000.1,,260426,,,A*72
$GPGGA,143735.00,4124.234462,N,00206.223766,E,1,11,1.20,415.78,M,0.0,M,0.0,0000*7F
$GPGSV,2,1,6,1,68,326,32.0,2,66,066,34.8,3,52,239,41.3,8,40,163,30.9*40
$GPGSV,2,2,6,14,22,285,37.0,22,20,301,35.7*40
$GLGSV,1,1,3,6,49,046,0.0,7,55,168,26.4,8,08,194,0.0*45
$GPRMC,143735.00,A,4124.234462,N,00206.223766,E,000.0,,260426,,,A*75
$GPGGA,143736.00,4124.234478,N,00206.223770,E,1,14,1.13,415.75,M,0.0,M,0.0,0000*78
$GPGSV,2,1,8,1,68,326,32.0,2,66,066,30.5,3,52,239,41.3,8,40,163,33.2*4F
$GPGSV,2,2,8,14,22,285,39.6,17,20,315,29.9,22,20,301,35.6,32,30,054,32.1*45
$GLGSV,1,1,3,6,49,046,0.0,7,55,168,23.8,8,08,194,0.0*4C
$GPRMC,143736.00,A,4124.234478,N,00206.223770,E,000.1,,260426,,,A*7B
$GPGGA,143737.00,4124.234475,N,00206.223758,E,1,11,0.91,415.74,M,0.0,M,0.0,0000*71
$GPGSV,2,1,7,1,68,326,32.1,2,66,066,30.6,3,52,239,41.4,8,40,163,33.0*47
$GPGSV,2,2,7,14,22,285,39.6,22,20,301,35.5,32,30,054,30.8*6D
$GLGSV,1,1,4,7,55,168,24.3,8,08,194,0.0,12,10,261,29.4,22,54,335,30.0*6F
$GPRMC,143737.00,A,4124.234475,N,00206.223758,E,000.0,,260426,,,A*7C
$GPGGA,143738.00,4124.234483,N,00206.223751,E,1,10,1.59,415.73,M,0.0,M,0.0,0000*7D
$GPGSV,2,1,6,1,68,326,32.1,2,66,066,30.7,3,52,239,41.4,8,40,163,32.8*4E
$GPGSV,2,2,6,14,22,285,39.6,22,20,301,35.5*4A
$GLGSV,1,1,3,7,55,168,25.1,8,08,194,0.0,12,10,261,29.4*42
$GPRMC,143738.00,A,4124.234483,N,00206.223751,E,000.0,,260426,,,A*73
$GPGGA,143739.00,4124.234485,N,00206.223743,E,1,09,1.63,415.71,M,0.0,M,0.0,0000*7A
$GPGSV,2,1,7,1,68,326,32.1,2,66,066,31.3,3,52,239,41.4,8,40,163,32.8*4A
$GPGSV,2,2,7,14,22,285,39.6,17,20,315,32.9,22,20,301,35.4*6F
$GLGSV,1,1,1,8,08,194,0.0*76
$GPRMC,143739.00,A,4124.234485,N,00206.223743,E,000.0,,260426,,,A*77
$GPGGA,143740.00,4124.234479,N,00206.223720,E,1,14,1.45,415.70,M,0.0,M,0.0,0000*7B
$GPGSV,3,1,9,1,68,326,32.0,2,66,066,31.5,3,52,239,41.4,8,40,163,32.8*42
$GPGSV,3,2,9,14,22,285,39.6,17,20,315,32.6,22,20,301,35.4,27,11,150,28.4*4E
$GPGSV,3,3,9,32,30,054,31.7*68
$GPRMC,143740.00,A,4124.234479,N,00206.223720,E,000.1,,260426,,,A*7E
$GPGGA,143741.00,4124.234476,N,00206.223641,E,1,06,2.38,415.71,M,0.0,M,0.0,0000*78
$GPGSV,1,1,4,3,52,239,41.3,8,40,163,32.8,14,22,284,39.6,22,20,301,35.2*45
$GLGSV,1,1,2,8,08,194,0.0,12,09,261,33.7*53
$GPRMC,143741.00,A,4124.234476,N,00206.223641,E,000.2,,260426,,,A*75
$GPGGA,143742.00,4124.234479,N,00206.223654,E,1,08,3.42,415.67,M,0.0,M,0.0,0000*75
$GPGSV,2,1,5,1,68,326,32.0,3,52,239,37.8,14,22,284,39.6,17,20,315,33.3*41
$GPGSV,2,2,5,22,20,301,32.5*66
$GPRMC,143742.00,A,4124.234479,N,00206.223654,E,000.0,,260426,,,A*7F
$GPGGA,143743.00,4124.234470,N,00206.223681,E,1,10,2.06,415.61,M,0.0,M,0.0,0000*7B
$GPGSV,2,1,5,1,68,326,32.2,3,52,239,38.0,14,22,284,39.5,17,20,315,31.6*40
$GPGSV,2,2,5,22,20,301,36.1*66
$GLGSV,1,1,2,6,49,046,0.0,8,08,194,0.0*52
$GPRMC,143743.00,A,4124.234470,N,00206.223681,E,000.1,,260426,,,A*7E
$GPGGA,143744.00,4124.234423,N,00206.223722,E,1,11,1.20,415.61,M,0.0,M,0.0,0000*74
$GPGSV,2,1,6,1,68,326,34.9,2,66,066,32.7,3,52,239,38.1,14,22,284,39.5*7C
$GPGSV,2,2,6,17,20,315,34.9,22,20,301,36.2*45
$GLGSV,1,1,3,6,49,046,0.0,8,08,194,0.0,12,09,261,29.3*7A
$GPRMC,143744.00,A,4124.234423,N,00206.223722,E,000.2,,260426,,,A*74
$GPGGA,143745.00,4124.234406,N,00206.223708,E,1,10,1.20,415.71,M,0.0,M,0.0,0000*7A
$GPGSV,2,1,6,1,68,326,30.7,3,52,239,41.9,14,22,284,39.4,17,20,315,33.8*4E
$GPGSV,2,2,6,22,20,301,36.2,32,30,054,30.0*48
$GLGSV,1,1,3,6,49,046,0.0,8,08,194,0.0,12,09,261,26.6*70
$GPRMC,143745.00,A,4124.234406,N,00206.223708,E,000.1,,260426,,,A*79
$GPGGA,143746.00,4124.234370,N,00206.223627,E,1,08,1.25,415.78,M,0.0,M,0.0,0000*76
$GPGSV,1,1,3,3,52,239,37.9,14,22,284,36.0,22,20,301,36.2*5C
$GLGSV,1,1,4,6,49,046,0.0,8,08,194,0.0,12,09,261,29.4,22,54,335,35.1*57
$GPRMC,143746.00,A,4124.234370,N,00206.223627,E,000.3,,260426,,,A*72
$GPGGA,143747.00,4124.234376,N,00206.223608,E,1,09,2.11,415.76,M,0.0,M,0.0,0000*77
$GPGSV,2,1,5,1,68,326,30.7,3,52,239,37.9,8,40,163,33.0,14,22,284,36.0*74
$GPGSV,2,2,5,22,20,301,36.2*65
$GLGSV,1,1,1,7,55,168,25.8*4D
$GPRMC,143747.00,A,4124.234376,N,00206.223608,E,000.1,,260426,,,A*7A
$GPGGA,143748.00,4124.234365,N,00206.223580,E,1,09,2.12,415.77,M,0.0,M,0.0,0000*7B
$GPGSV,2,1,6,1,68,326,33.8,3,52,239,38.0,8,40,163,33.5,14,22,284,36.0*78
$GPGSV,2,2,6,22,20,301,36.2,32,30,054,36.6*48
$GLGSV,1,1,2,7,55,168,25.3,8,08,194,0.0*67
$GPRMC,143748.00,A,4124.234365,N,00206.223580,E,000.1,,260426,,,A*74
$GPGGA,143749.00,4124.234384,N,00206.223533,E,1,13,0.95,415.72,M,0.0,M,0.0,0000*7E
$GPGSV,2,1,8,1,68,326,33.6,2,66,067,30.1,3,52,239,38.0,8,40,163,33.2*40
$GPGSV,2,2,8,14,22,284,36.0,17,20,315,29.4,22,20,301,36.1,32,30,054,35.2*40
$GLGSV,1,1,1,6,49,046,0.0*73
$GPRMC,143749.00,A,4124.234384,N,00206.223533,E,000.1,,260426,,,A*72
$GPGGA,143750.00,4124.234377,N,00206.223513,E,1,10,0.91,415.73,M,0.0,M,0.0,0000*7E
$GPGSV,2,1,6,1,68,326,30.3,3,52,239,38.0,8,40,163,31.6,14,22,284,36.0*71
$GPGSV,2,2,6,22,20,301,32.6,32,30,054,35.1*4C
$GLGSV,1,1,4,6,49,046,0.0,8,08,194,0.0,12,09,260,26.2,22,54,335,0.0*68
$GPRMC,143750.00,A,4124.234377,N,00206.223513,E,000.1,,260426,,,A*74
$GPGGA,143751.00,4124.234391,N,00206.223520,E,1,11,0.91,415.70,M,0.0,M,0.0,0000*75
$GPGSV,2,1,6,1,68,326,33.7,3,52,239,38.1,8,40,163,31.7,14,22,284,36.1*77
$GPGSV,2,2,6,22,20,301,32.6,32,30,054,35.1*4C
$GLGSV,1,1,4,6,49,046,0.0,7,55,168,25.4,8,08,194,0.0,12,09,260,30.2*60
$GPRMC,143751.00,A,4124.234391,N,00206.223520,E,000.1,,260426,,,A*7D
$GPGGA,143752.00,4124.234406,N,00206.223523,E,1,10,0.93,415.68,M,0.0,M,0.0,0000*76
$GPGSV,2,1,5,1,68,326,33.7,3,52,239,38.1,14,22,284,36.2,22,20,301,32.7*4C
$GPGSV,2,2,5,32,30,054,35.0*67
$GLGSV,2,1,5,6,49,046,0.0,7,55,168,25.4,8,08,194,0.0,12,09,260,33.2*61
$GLGSV,2,2,5,22,54,335,0.0*4A
$GPRMC,143752.00,A,4124.234406,N,00206.223523,E,000.1,,260426,,,A*74
$GPGGA,143753.00,4124.234419,N,00206.223528,E,1,11,0.93,415.67,M,0.0,M,0.0,0000*7C
$GPGSV,2,1,6,1,68,327,33.8,2,66,067,32.6,3,52,239,38.2,14,22,284,36.3*71
$GPGSV,2,2,6,22,20,301,32.7,32,30,054,35.0*4C
$GLGSV,1,1,4,6,49,046,0.0,7,55,168,25.4,8,08,194,0.0,12,09,260,33.2*63
$GPRMC,143753.00,A,4124.234419,N,00206.223528,E,000.0,,260426,,,A*71
$GPGGA,143754.00,4124.234440,N,00206.223513,E,1,11,0.92,415.67,M,0.0,M,0.0,0000*7E
$GPGSV,2,1,6,1,68,327,33.8,2,66,067,32.8,3,52,239,41.0,14,22,284,36.4*74
$GPGSV,2,2,6,22,20,301,32.8,32,30,054,30.0*46
$GLGSV,2,1,5,6,49,046,0.0,7,55,168,22.0,8,08,194,0.0,12,09,260,33.1*61
$GLGSV,2,2,5,22,54,335,0.0*4A
$GPRMC,143754.00,A,4124.234440,N,00206.223513,E,000.1,,260426,,,A*73
$GPGGA,143755.00,4124.234422,N,00206.223569,E,1,12,0.92,415.64,M,0.0,M,0.0,0000*76
$GPGSV,2,1,7,1,68,327,33.7,2,66,067,31.3,3,52,239,41.0,14,22,284,39.2*7B
$GPGSV,2,2,7,17,21,315,28.0,22,20,301,36.4,32,30,054,30.1*68
$GLGSV,1,1,4,6,49,046,0.0,7,55,168,26.1,8,08,194,0.0,12,09,260,33.2*65
$GPRMC,143755.00,A,4124.234422,N,00206.223569,E,000.2,,260426,,,A*78
$GPGGA,143756.00,,,,,1,02, Inf,,M,0.0,M,0.0,0000*28
$GPRMC,143756.00,A,,,,,,,260426,,,A*63
$GPGGA,143757.00,,,,,1,06, Inf,,M,0.0,M,0.0,0000*2D
$GPRMC,143757.00,A,,,,,,,260426,,,A*62
$GPGGA,143758.00,4124.234649,N,00206.224172,E,1,12,2.42,416.71,M,0.0,M,0.0,0000*75
$GPGSV,2,1,6,1,68,327,33.7,3,52,239,36.8,8,40,163,27.9,14,21,284,36.4*7E
$GPGSV,2,2,6,17,21,315,32.1,22,20,301,32.7*4B
$GPRMC,143758.00,A,4124.234649,N,00206.224172,E,,,260426,,,A*5F
$GPGGA,143759.00,4124.234641,N,00206.224160,E,1,10,0.97,416.69,M,0.0,M,0.0,0000*7E
$GPGSV,2,1,7,1,68,327,33.6,3,52,239,36.8,4,05,185,32.9,14,21,284,36.4*7F
$GPGSV,2,2,7,17,21,315,33.1,22,20,301,32.7,32,30,054,35.9*69
$GLGSV,1,1,2,6,49,046,0.0,8,08,194,0.0*52
$GPRMC,143759.00,A,4124.234641,N,00206.224160,E,000.0,,260426,,,A*7B
$GPGGA,143800.00,4124.234664,N,00206.224154,E,1,09,0.94,416.66,M,0.0,M,0.0,0000*79
$GPGSV,2,1,7,1,68,327,33.5,3,52,240,36.9,4,05,185,32.9,14,21,284,36.4*73
$GPGSV,2,2,7,17,21,315,33.1,22,20,301,32.7,32,30,054,31.3*67
$GLGSV,1,1,2,8,08,194,0.0,12,09,260,22.3*56
$GPRMC,143800.00,A,4124.234664,N,00206.224154,E,000.1,,260426,,,A*79
$GPGGA,143801.00,4124.234691,N,00206.224148,E,1,10,0.94,416.60,M,0.0,M,0.0,0000*71
$GPGSV,2,1,8,1,68,327,33.5,2,66,067,31.6,3,52,240,37.0,4,05,185,33.0*42
$GPGSV,2,2,8,14,21,284,36.5,17,21,315,33.1,22,20,301,32.8,32,30,054,31.4*46
$GLGSV,1,1,1,8,08,194,0.0*76
$GPRMC,143801.00,A,4124.234691,N,00206.224148,E,000.1,,260426,,,A*7F
$GPGGA,143802.00,4124.234671,N,00206.224133,E,1,11,0.92,416.65,M,0.0,M,0.0,0000*72
$GPGSV,2,1,8,1,68,327,33.4,2,66,067,31.9,3,52,240,37.0,4,05,185,33.1*4D
$GPGSV,2,2,8,14,21,284,36.5,17,21,315,33.2,22,20,301,32.8,32,30,054,31.5*44
$GLGSV,1,1,2,6,49,046,0.0,8,08,194,0.0*52
$GPRMC,143802.00,A,4124.234671,N,00206.224133,E,000.1,,260426,,,A*7E
$GPGGA,143803.00,4124.234674,N,00206.224142,E,1,11,0.87,416.64,M,0.0,M,0.0,0000*75
$GPGSV,2,1,8,1,68,327,33.4,2,66,067,32.4,3,52,240,37.1,4,05,185,33.2*41
$GPGSV,2,2,8,14,21,284,36.5,17,21,315,33.1,22,20,301,32.8,32,30,054,34.7*40
$GLGSV,1,1,3,6,49,046,0.0,8,08,194,0.0,12,09,260,11.6*75
$GPRMC,143803.00,A,4124.234674,N,00206.224142,E,000.0,,260426,,,A*7D
$GPGGA,143804.00,4124.234674,N,00206.224138,E,1,12,0.87,416.65,M,0.0,M,0.0,0000*7D
$GPGSV,2,1,8,1,68,327,33.4,2,66,067,33.7,3,52,240,37.2,4,05,185,33.2*40
$GPGSV,2,2,8,14,21,284,36.5,17,21,315,33.1,22,20,301,32.9,32,30,054,34.8*4E
$GLGSV,1,1,3,6,49,046,0.0,8,08,194,0.0,12,09,260,11.6*75
$GPRMC,143804.00,A,4124.234674,N,00206.224138,E,000.0,,260426,,,A*77
$GPGGA,143805.00,4124.234685,N,00206.224127,E,1,13,0.87,416.63,M,0.0,M,0.0,0000*7B
$GPGSV,2,1,8,1,68,327,33.3,2,66,067,32.6,3,52,240,37.2,4,05,185,33.2*47
$GPGSV,2,2,8,14,21,284,36.5,17,21,315,33.1,22,20,301,33.0,32,30,054,34.8*46
$GLGSV,1,1,4,6,49,046,0.0,8,08,194,0.0,12,09,260,18.6,22,54,335,0.0*61
$GPRMC,143805.00,A,4124.234685,N,00206.224127,E,000.1,,260426,,,A*77
$GPGGA,143806.00,4124.234699,N,00206.224119,E,1,12,0.87,416.65,M,0.0,M,0.0,0000*7F
$GPGSV,2,1,8,1,68,327,33.3,2,66,067,32.8,3,52,240,37.2,4,05,185,33.3*48
$GPGSV,2,2,8,14,21,284,36.5,17,21,315,33.0,22,20,301,33.0,32,30,054,34.9*46
$GLGSV,1,1,4,6,49,046,0.0,8,08,194,0.0,12,09,260,19.3,22,54,335,31.4*53
$GPRMC,143806.00,A,4124.234699,N,00206.224119,E,000.1,,260426,,,A*74
$GPGGA,143807.00,4124.234729,N,00206.224138,E,1,10,1.02,416.61,M,0.0,M,0.0,0000*7D
$GPGSV,2,1,6,1,68,327,33.4,2,66,067,32.8,3,52,240,37.2,4,05,185,33.4*46
$GPGSV,2,2,6,14,21,284,36.4,32,30,054,34.8*4A
$GLGSV,1,1,4,6,49,046,0.0,8,08,194,0.0,12,09,260,29.4,22,54,335,31.4*57
$GPRMC,143807.00,A,4124.234729,N,00206.224138,E,000.1,,260426,,,A*7C
$GPGGA,143808.00,4124.234748,N,00206.224134,E,1,12,1.02,416.60,M,0.0,M,0.0,0000*7A
$GPGSV,2,1,8,1,68,327,33.5,2,66,067,31.8,3,52,240,37.3,4,05,185,35.9*40
$GPGSV,2,2,8,8,40,163,30.6,14,21,284,36.5,22,20,301,31.0,32,30,054,34.8*7A
$GLGSV,1,1,2,6,49,046,0.0,8,08,194,0.0*52
$GPRMC,143808.00,A,4124.234748,N,00206.224134,E,000.1,,260426,,,A*78
$GPGGA,143809.00,4124.234750,N,00206.224145,E,1,14,0.93,416.58,M,0.0,M,0.0,0000*70
$GPGSV,2,1,8,1,68,327,33.6,2,66,067,29.8,3,52,240,40.9,4,05,185,35.9*40
$GPGSV,2,2,8,14,21,284,39.0,17,21,315,33.0,22,20,301,34.1,32,30,054,30.3*44
$GLGSV,1,1,3,6,49,046,0.0,7,55,168,27.4,8,08,194,0.0*44
$GPRMC,143809.00,A,4124.234750,N,00206.224145,E,000.0,,260426,,,A*77
$GPGGA,143810.00,4124.234726,N,00206.224062,E,1,12,1.07,416.63,M,0.0,M,0.0,0000*7F
$GPGSV,2,1,8,1,68,327,33.5,2,66,067,31.0,3,52,240,40.8,4,05,185,35.9*43
$GPGSV,2,2,8,8,40,163,29.1,14,21,284,38.9,17,21,315,31.7,22,20,301,33.1*7F
$GLGSV,1,1,3,6,49,046,0.0,7,55,168,26.8,8,08,194,0.0*49
$GPRMC,143810.00,A,4124.234726,N,00206.224062,E,000.2,,260426,,,A*78
$GPGGA,143811.00,4124.234736,N,00206.224065,E,1,09,1.15,416.58,M,0.0,M,0.0,0000*79
$GPGSV,2,1,6,1,68,327,33.5,3,52,240,40.8,4,05,185,35.9,14,21,284,38.8*77
$GPGSV,2,2,6,17,21,315,33.7,22,20,301,33.6*4C
$GLGSV,1,1,3,6,49,046,0.0,8,08,194,0.0,12,09,260,26.8*7F
$GPRMC,143811.00,A,4124.234736,N,00206.224065,E,000.0,,260426,,,A*7D
$GPGGA,143812.00,,,,,1,06, Inf,,M,0.0,M,0.0,0000*23
$GPRMC,143812.00,A,,,,,,,260426,,,A*6C
$GPGGA,143813.00,,,,,1,09, Inf,,M,0.0,M,0.0,0000*2D
$GPRMC,143813.00,A,,,,,,,260426,,,A*6D
$GPGGA,143814.00,4124.233817,N,00206.224512,E,1,09,1.66,414.33,M,0.0,M,0.0,0000*79
$GPGSV,2,1,6,1,68,327,33.5,3,52,240,40.8,4,05,185,35.8,14,21,284,38.8*76
$GPGSV,2,2,6,17,21,315,30.0,22,20,301,33.5*4B
$GLGSV,1,1,3,8,08,194,0.0,12,09,260,26.2,22,54,336,0.0*4B
$GPRMC,143814.00,A,4124.233817,N,00206.224512,E,,,260426,,,A*58
$GPGGA,143815.00,4124.233815,N,00206.224492,E,1,08,1.84,414.32,M,0.0,M,0.0,0000*7F
$GPGSV,2,1,5,1,68,327,33.5,3,52,240,40.8,4,05,185,35.8,14,21,284,38.7*7A
$GPGSV,2,2,5,22,20,301,33.4*66
$GLGSV,1,1,3,8,08,194,0.0,12,09,260,26.9,22,54,336,0.0*40
$GPRMC,143815.00,A,4124.233815,N,00206.224492,E,000.1,,260426,,,A*7D
$GPGGA,143816.00,4124.233814,N,00206.224477,E,1,10,1.84,414.32,M,0.0,M,0.0,0000*7F
$GPGSV,2,1,6,1,68,327,33.5,2,66,067,31.0,3,52,240,40.9,4,05,185,35.7*42
$GPGSV,2,2,6,14,21,284,38.6,22,20,301,33.3*49
$GLGSV,1,1,2,8,08,194,0.0,12,09,260,30.1*57
$GPRMC,143816.00,A,4124.233814,N,00206.224477,E,000.0,,260426,,,A*75
$GPGGA,143817.00,4124.233817,N,00206.224469,E,1,10,1.54,414.32,M,0.0,M,0.0,0000*7F
$GPGSV,2,1,6,1,68,327,33.6,2,66,067,31.7,3,52,240,40.9,4,05,185,35.7*46
$GPGSV,2,2,6,14,21,284,38.6,22,20,301,33.2*48
$GLGSV,1,1,3,7,55,168,24.2,8,08,194,0.0,12,09,260,28.2*4E
$GPRMC,143817.00,A,4124.233817,N,00206.224469,E,000.0,,260426,,,A*78
$GPGGA,143818.00,4124.233815,N,00206.224461,E,1,13,1.48,414.31,M,0.0,M,0.0,0000*77
$GPGSV,2,1,8,1,68,327,33.6,2,66,067,31.5,3,52,240,40.9,4,05,185,35.7*4A
$GPGSV,2,2,8,8,40,163,31.6,14,21,284,38.5,17,21,315,28.1,22,20,301,33.1*73
$GLGSV,1,1,2,7,55,168,23.8,8,08,194,0.0*6A
$GPRMC,143818.00,A,4124.233815,N,00206.224461,E,000.0,,260426,,,A*7D
$GPGGA,143819.00,4124.233823,N,00206.224450,E,1,10,1.50,414.31,M,0.0,M,0.0,0000*7B
$GPGSV,2,1,7,1,68,327,33.6,2,66,067,30.4,3,52,240,40.9,4,05,185,35.7*45
$GPGSV,2,2,7,8,40,163,31.8,14,21,284,38.5,22,20,301,30.2*55
$GLGSV,1,1,3,8,08,194,0.0,12,09,260,28.4,22,54,336,0.0*43
$GPRMC,143819.00,A,4124.233823,N,00206.224450,E,000.0,,260426,,,A*7B
$GPGGA,143820.00,4124.233816,N,00206.224444,E,1,11,1.50,414.32,M,0.0,M,0.0,0000*70
$GPGSV,2,1,7,1,68,327,33.7,2,66,067,33.3,3,52,240,40.9,4,05,185,35.7*40
$GPGSV,2,2,7,8,40,163,30.8,14,21,284,38.5,22,20,301,31.6*51
$GLGSV,1,1,3,7,55,168,23.7,8,08,194,0.0,12,09,260,28.4*4A
$GPRMC,143820.00,A,4124.233816,N,00206.224444,E,000.0,,260426,,,A*72
$GPGGA,143821.00,4124.233828,N,00206.224443,E,1,11,1.48,414.30,M,0.0,M,0.0,0000*70
$GPGSV,2,1,7,1,68,327,33.8,2,66,067,32.1,3,52,240,40.9,4,05,185,35.7*4C
$GPGSV,2,2,7,14,21,284,38.6,17,21,315,30.5,22,20,301,31.2*61
$GLGSV,1,1,3,7,55,168,23.6,8,08,194,0.0,12,09,260,28.5*4A
$GPRMC,143821.00,A,4124.233828,N,00206.224443,E,000.0,,260426,,,A*79
$GPGGA,143822.00,4124.233836,N,00206.224433,E,1,14,1.36,414.30,M,0.0,M,0.0,0000*77
$GPGSV,2,1,8,1,68,327,33.9,2,66,067,30.9,3,52,240,40.9,4,05,184,35.7*49
$GPGSV,2,2,8,8,40,163,30.5,14,21,284,38.6,17,21,315,30.7,22,20,301,31.3*7D
$GLGSV,1,1,3,6,49,046,0.0,7,55,168,23.6,8,08,194,0.0*42
$GPRMC,143822.00,A,4124.233836,N,00206.224433,E,000.0,,260426,,,A*72
$GPGGA,143823.00,4124.233836,N,00206.224422,E,1,14,1.03,414.29,M,0.0,M,0.0,0000*78
$GPGSV,2,1,8,1,68,327,33.9,2,66,067,32.1,3,52,240,40.9,4,05,184,35.7*43
$GPGSV,2,2,8,8,40,163,29.7,14,21,284,38.7,17,21,315,30.6,22,20,301,31.6*72
$GLGSV,2,1,5,7,55,168,23.6,8,08,194,0.0,12,09,260,31.8,21,44,092,37.8*60
$GLGSV,2,2,5,22,54,336,0.0*49
$GPRMC,143823.00,A,4124.233836,N,00206.224422,E,000.0,,260426,,,A*73
$GPGGA,143824.00,4124.233845,N,00206.224424,E,1,12,1.05,414.29,M,0.0,M,0.0,0000*7D
$GPGSV,2,1,7,1,68,327,34.0,2,66,067,32.0,3,52,240,40.8,4,05,184,35.7*42
$GPGSV,2,2,7,14,21,284,38.7,17,21,315,31.4,22,20,301,32.1*60
$GLGSV,2,1,5,7,55,168,23.6,8,08,194,0.0,12,09,260,31.9,21,44,092,37.7*6E
$GLGSV,2,2,5,22,54,336,0.0*49
$GPRMC,143824.00,A,4124.233845,N,00206.224424,E,000.0,,260426,,,A*76
$GPGGA,143825.00,4124.233850,N,00206.224424,E,1,11,1.36,414.29,M,0.0,M,0.0,0000*7B
$GPGSV,2,1,7,1,68,327,34.0,2,66,067,30.9,3,52,240,40.8,4,05,184,35.8*46
$GPGSV,2,2,7,14,21,284,38.8,17,21,315,31.0,22,20,301,32.2*68
$GLGSV,1,1,4,7,55,168,21.0,8,08,194,0.0,12,09,260,31.9,22,54,336,0.0*54
$GPRMC,143825.00,A,4124.233850,N,00206.224424,E,000.0,,260426,,,A*73
$GPGGA,143826.00,4124.233849,N,00206.224416,E,1,11,1.36,414.29,M,0.0,M,0.0,0000*71
$GPGSV,2,1,7,1,68,327,34.1,2,66,067,30.6,3,52,240,40.8,4,05,184,35.8*48
$GPGSV,2,2,7,14,21,284,38.8,17,21,315,30.5,22,20,301,32.2*6C
$GLGSV,1,1,4,7,55,168,21.0,8,08,194,0.0,12,09,260,31.9,22,54,336,0.0*54
$GPRMC,143826.00,A,4124.233849,N,00206.224416,E,000.0,,260426,,,A*79
$GPGGA,143827.00,4124.233854,N,00206.224403,E,1,10,1.62,414.29,M,0.0,M,0.0,0000*78
$GPGSV,2,1,6,1,68,327,34.2,3,52,240,40.8,4,05,184,35.8,14,21,284,38.9*76
$GPGSV,2,2,6,17,21,315,31.5,22,20,301,32.2*49
$GLGSV,1,1,4,7,55,168,20.9,8,08,194,0.0,12,09,260,32.0,22,54,336,0.0*56
$GPRMC,143827.00,A,4124.233854,N,00206.224403,E,000.0,,260426,,,A*70
$GPGGA,143828.00,4124.233859,N,00206.224404,E,1,09,1.80,414.29,M,0.0,M,0.0,0000*79
$GPGSV,2,1,5,1,68,327,34.3,3,52,240,40.8,4,05,184,35.8,14,21,284,39.0*7C
$GPGSV,2,2,5,22,20,301,32.2*61
$GLGSV,1,1,4,7,55,168,21.0,8,08,194,0.0,12,09,260,32.0,22,54,336,0.0*5E
$GPRMC,143828.00,A,4124.233859,N,00206.224404,E,000.0,,260426,,,A*75
