$GPGGA,143446.00,,,,,1,17,0.71,,M,0.0,M,0.0,0000*57
$GPGSV,3,1,9,1,67,324,33.6,2,67,064,33.6,3,50,238,33.7,8,41,163,30.0*44
$GPGSV,3,2,9,14,22,286,30.7,17,19,315,28.0,22,20,302,31.6,27,12,150,22.7*4D
$GPGSV,3,3,9,32,30,055,33.3*6F
$GLGSV,2,1,8,6,50,047,0.0,7,53,168,23.3,8,06,193,0.0,12,11,262,26.3*65
$GLGSV,2,2,8,13,14,307,32.4,21,45,090,34.3,22,53,334,0.0,23,17,310,0.0*53
$GPRMC,143446.00,A,,,,,,,260426,,,A*61
$GPGGA,143447.00,4124.234520,N,00206.225063,E,1,17,0.71,412.81,M,0.0,M,0.0,0000*78
$GPGSV,3,1,9,1,67,324,33.7,2,67,064,29.6,3,51,238,35.2,8,41,163,31.5*48
$GPGSV,3,2,9,14,22,286,35.1,17,19,315,28.5,22,20,302,31.8,27,12,150,27.0*47
$GPGSV,3,3,9,32,30,055,32.4*69
$GLGSV,2,1,8,6,50,047,0.0,7,53,168,22.0,8,06,193,0.0,12,11,262,28.0*6A
$GLGSV,2,2,8,13,14,307,27.3,21,45,090,28.1,22,53,334,0.0,23,17,310,0.0*5F
$GPRMC,143447.00,A,4124.234520,N,00206.225063,E,002.4,019.9,260426,,,A*59
$GPGGA,143448.00,4124.234267,N,00206.224855,E,1,17,0.71,412.80,M,0.0,M,0.0,0000*7E
$GPGSV,3,1,9,1,67,324,33.7,2,67,064,26.1,3,51,238,39.4,8,41,163,31.6*49
$GPGSV,3,2,9,14,22,286,34.5,17,19,315,31.9,22,20,302,34.4,27,12,150,28.4*44
$GPGSV,3,3,9,32,30,055,33.5*69
$GLGSV,2,1,8,6,50,047,0.0,7,53,168,28.3,8,06,193,0.0,12,11,262,27.0*6C
$GLGSV,2,2,8,13,14,307,31.2,21,45,090,33.2,22,53,334,0.0,23,17,310,0.0*50
$GPRMC,143448.00,A,4124.234267,N,00206.224855,E,000.7,014.7,260426,,,A*5C
$GPGGA,143449.00,4124.233801,N,00206.224686,E,1,17,0.71,412.13,M,0.0,M,0.0,0000*78
$GPGSV,3,1,9,1,67,324,33.7,2,67,064,29.3,3,51,238,39.3,8,41,163,35.0*41
$GPGSV,3,2,9,14,22,286,36.1,17,19,315,30.8,22,20,302,33.0,27,12,150,30.4*48
$GPGSV,3,3,9,32,30,055,31.0*6E
$GLGSV,2,1,8,6,50,047,0.0,7,53,168,26.1,8,06,193,0.0,12,11,262,32.2*66
$GLGSV,2,2,8,13,14,307,27.6,21,45,090,33.2,22,53,334,0.0,23,17,310,0.0*53
$GPRMC,143449.00,A,4124.233801,N,00206.224686,E,000.3,,260426,,,A*78
$GPGGA,143450.00,4124.233389,N,00206.223823,E,1,17,0.71,413.63,M,0.0,M,0.0,0000*7B
$GPGSV,3,1,9,1,67,324,33.1,2,67,064,28.8,3,51,238,39.4,8,41,163,32.2*4F
$GPGSV,3,2,9,14,22,286,36.0,17,19,315,32.7,22,20,302,29.8,27,12,150,29.2*49
$GPGSV,3,3,9,32,30,055,27.4*6D
$GLGSV,2,1,8,6,50,047,0.0,7,53,168,26.1,8,06,193,0.0,12,11,262,36.4*64
$GLGSV,2,2,8,13,14,307,26.3,21,45,090,33.3,22,53,334,0.0,23,17,310,0.0*56
$GPRMC,143450.00,A,4124.233389,N,00206.223823,E,001.0,229.6,260426,,,A*5E
$GPGGA,143451.00,4124.233699,N,00206.224183,E,1,17,0.71,413.78,M,0.0,M,0.0,0000*70
$GPGSV,3,1,9,1,67,324,33.2,2,67,064,31.0,3,51,238,36.1,8,41,163,29.1*4F
$GPGSV,3,2,9,14,22,286,36.0,17,19,315,30.0,22,20,302,30.5,27,12,150,30.5*46
$GPGSV,3,3,9,32,30,055,30.1*6E
$GLGSV,2,1,8,6,50,047,0.0,7,53,168,26.6,8,06,193,0.0,12,10,262,32.3*61
$GLGSV,2,2,8,13,14,307,29.9,21,45,090,37.1,22,53,334,0.0,23,17,310,0.0*55
$GPRMC,143451.00,A,4124.233699,N,00206.224183,E,000.3,,260426,,,A*7C
$GPGGA,143452.00,4124.233949,N,00206.223954,E,1,17,0.71,413.81,M,0.0,M,0.0,0000*72
$GPGSV,3,1,9,1,67,324,32.0,2,67,064,33.2,3,51,238,36.2,8,41,163,37.0*41
$GPGSV,3,2,9,14,22,286,35.9,17,19,315,25.6,22,20,302,27.2,27,12,150,27.7*4B
$GPGSV,3,3,9,32,30,055,35.1*6B
$GLGSV,2,1,8,6,50,047,0.0,7,53,168,23.7,8,06,193,0.0,12,10,262,24.9*68
$GLGSV,2,2,8,13,14,307,32.8,21,45,090,37.2,22,53,334,0.0,23,17,310,0.0*5D
$GPRMC,143452.00,A,4124.233949,N,00206.223954,E,000.3,,260426,,,A*78
$GPGGA,143453.00,4124.233977,N,00206.223899,E,1,17,0.71,413.71,M,0.0,M,0.0,0000*71
$GPGSV,3,1,9,1,67,324,34.3,2,67,064,32.1,3,51,238,36.2,8,41,163,36.4*43
$GPGSV,3,2,9,14,22,286,35.9,17,19,315,25.6,22,20,302,30.3,27,12,150,28.5*41
$GPGSV,3,3,9,32,30,055,36.0*69
$GLGSV,2,1,8,6,50,047,0.0,7,53,168,23.2,8,06,193,0.0,12,10,262,29.5*6C
$GLGSV,2,2,8,13,14,307,32.3,21,45,090,37.1,22,53,334,0.0,23,17,310,0.0*55
$GPRMC,143453.00,A,4124.233977,N,00206.223899,E,000.3,,260426,,,A*74
$GPGGA,143454.00,4124.234027,N,00206.224066,E,1,17,0.71,413.55,M,0.0,M,0.0,0000*74
$GPGSV,3,1,9,1,67,324,32.7,2,67,064,32.0,3,51,238,33.6,8,41,163,29.5*4E
$GPGSV,3,2,9,14,22,286,36.0,17,19,315,26.1,22,20,302,32.8,27,12,150,29.7*45
$GPGSV,3,3,9,32,30,055,36.0*69
$GLGSV,2,1,8,6,50,047,0.0,7,53,168,24.9,8,06,193,0.0,12,10,262,29.4*61
$GLGSV,2,2,8,13,14,307,31.6,21,45,090,37.1,22,53,334,0.0,23,17,310,0.0*53
$GPRMC,143454.00,A,4124.234027,N,00206.224066,E,000.2,,260426,,,A*76
$GPGGA,143455.00,4124.234006,N,00206.224001,E,1,17,0.71,414.57,M,0.0,M,0.0,0000*72
$GPGSV,3,1,9,1,67,324,32.7,2,67,064,33.3,3,51,238,33.7,8,41,163,26.4*43
$GPGSV,3,2,9,14,22,286,36.1,17,19,315,29.0,22,20,302,33.5,27,12,150,29.1*40
$GPGSV,3,3,9,32,30,055,36.0*69
$GLGSV,2,1,8,6,50,047,0.0,7,53,168,28.1,8,06,193,0.0,12,10,262,34.8*65
$GLGSV,2,2,8,13,14,307,31.7,21,45,090,37.0,22,53,334,0.0,23,17,310,0.0*53
$GPRMC,143455.00,A,4124.234006,N,00206.224001,E,000.2,,260426,,,A*75
$GPGGA,143456.00,4124.233548,N,00206.223547,E,1,17,0.71,415.17,M,0.0,M,0.0,0000*7C
$GPGSV,3,1,9,1,67,324,35.8,2,67,064,27.5,3,51,238,39.6,8,41,163,29.3*4B
$GPGSV,3,2,9,14,22,286,36.1,17,19,315,29.8,22,20,302,31.1,27,12,150,30.3*44
$GPGSV,3,3,9,32,30,055,35.9*63
$GLGSV,2,1,8,6,50,047,0.0,7,53,168,24.8,8,06,193,0.0,12,10,262,37.8*63
$GLGSV,2,2,8,13,14,307,29.0,21,45,090,37.1,22,53,334,0.0,23,17,310,0.0*5C
$GPRMC,143456.00,A,4124.233548,N,00206.223547,E,000.4,,260426,,,A*78
$GPGGA,143457.00,4124.233580,N,00206.223925,E,1,17,0.71,415.47,M,0.0,M,0.0,0000*74
$GPGSV,3,1,9,1,67,324,35.7,2,67,064,26.8,3,51,238,39.5,8,41,163,27.9*4F
$GPGSV,3,2,9,14,22,286,36.2,17,19,315,29.3,22,20,302,30.6,27,12,150,33.0*4A
$GPGSV,3,3,9,32,30,055,34.3*68
$GLGSV,2,1,8,6,50,047,0.0,7,53,168,27.6,8,06,193,0.0,12,10,262,37.7*61
$GLGSV,2,2,8,13,14,307,29.1,21,45,090,37.2,22,53,334,0.0,23,17,310,0.0*5E
$GPRMC,143457.00,A,4124.233580,N,00206.223925,E,000.2,,260426,,,A*73
$GPGGA,143458.00,4124.233749,N,00206.223764,E,1,17,0.71,415.57,M,0.0,M,0.0,0000*76
$GPGSV,3,1,9,1,67,324,35.7,2,67,064,32.3,3,51,238,39.4,8,41,163,29.3*44
$GPGSV,3,2,9,14,22,286,36.2,17,19,315,25.7,22,20,302,33.9,27,12,150,30.9*44
$GPGSV,3,3,9,32,30,055,33.4*68
$GLGSV,2,1,8,6,50,047,0.0,7,53,168,26.2,8,06,193,0.0,12,10,262,27.6*64
$GLGSV,2,2,8,13,14,307,29.1,21,45,090,37.2,22,53,334,0.0,23,17,310,0.0*5E
$GPRMC,143458.00,A,4124.233749,N,00206.223764,E,000.1,,260426,,,A*73
$GPGGA,143459.00,4124.233790,N,00206.223745,E,1,17,0.71,416.28,M,0.0,M,0.0,0000*7B
$GPGSV,3,1,9,1,67,324,35.6,2,67,064,32.6,3,51,238,39.3,8,41,163,33.4*4B
$GPGSV,3,2,9,14,22,286,36.2,17,19,315,25.5,22,20,302,32.5,27,12,150,27.4*40
$GPGSV,3,3,9,32,30,055,33.4*68
$GLGSV,2,1,8,6,50,047,0.0,7,53,168,24.8,8,06,193,0.0,12,10,262,27.7*6D
$GLGSV,2,2,8,13,14,307,29.1,21,45,090,37.2,22,53,334,0.0,23,17,310,0.0*5E
$GPRMC,143459.00,A,4124.233790,N,00206.223745,E,000.1,,260426,,,A*75
$GPGGA,143500.00,4124.233775,N,00206.223609,E,1,17,0.71,416.74,M,0.0,M,0.0,0000*7D
$GPGSV,3,1,9,1,67,324,35.5,2,67,064,33.4,3,51,238,39.3,8,41,163,34.1*49
$GPGSV,3,2,9,14,22,286,36.2,17,19,315,25.4,22,20,302,33.4,27,12,150,26.9*4D
$GPGSV,3,3,9,32,30,055,32.9*64
$GLGSV,2,1,8,6,50,047,0.0,7,53,168,22.6,8,06,193,0.0,12,10,262,27.8*6A
$GLGSV,2,2,8,13,14,307,29.2,21,45,090,37.1,22,53,334,0.0,23,17,310,0.0*5E
$GPRMC,143500.00,A,4124.233775,N,00206.223609,E,000.2,,260426,,,A*79
$GPGGA,143501.00,4124.233696,N,00206.223590,E,1,17,0.71,417.07,M,0.0,M,0.0,0000*76
$GPGSV,3,1,9,1,67,324,32.8,2,67,064,33.2,3,51,238,39.4,8,41,163,35.0*42
$GPGSV,3,2,9,14,22,286,36.2,17,19,315,27.4,22,20,302,33.9,27,12,150,27.0*4A
$GPGSV,3,3,9,32,30,055,33.0*6C
$GLGSV,2,1,8,6,50,047,0.0,7,53,168,19.3,8,06,193,0.0,12,10,262,27.8*67
$GLGSV,2,2,8,13,14,307,33.0,21,45,090,37.1,22,53,334,30.4,23,17,310,0.0*60
$GPRMC,143501.00,A,4124.233696,N,00206.223590,E,000.2,,260426,,,A*77
$GPGGA,143502.00,4124.233488,N,00206.223347,E,1,17,0.71,417.13,M,0.0,M,0.0,0000*71
$GPGSV,3,1,9,1,67,324,32.8,2,67,064,34.1,3,51,238,39.5,8,41,163,33.3*42
$GPGSV,3,2,9,14,22,286,36.3,17,19,315,27.4,22,20,302,33.9,27,12,150,28.8*4C
$GPGSV,3,3,9,32,30,055,32.7*6A
$GLGSV,2,1,8,6,50,047,0.0,7,53,168,20.8,8,07,193,0.0,12,10,262,27.8*67
$GLGSV,2,2,8,13,14,307,32.9,21,45,090,37.1,22,53,334,30.4,23,17,310,0.0*68
$GPRMC,143502.00,A,4124.233488,N,00206.223347,E,000.3,,260426,,,A*74
$GPGGA,143503.00,4124.233687,N,00206.223359,E,1,17,0.71,417.11,M,0.0,M,0.0,0000*70
$GPGSV,3,1,9,1,67,324,32.8,2,67,064,34.1,3,51,238,39.5,8,41,163,33.3*42
$GPGSV,3,2,9,14,22,286,36.3,17,19,315,25.0,22,20,302,31.1,27,12,150,28.0*48
$GPGSV,3,3,9,32,30,055,33.9*65
$GLGSV,2,1,8,6,50,047,0.0,7,53,168,22.7,8,07,193,0.0,12,10,262,27.9*6B
$GLGSV,2,2,8,13,14,307,32.8,21,45,090,37.1,22,53,334,30.4,23,17,310,0.0*69
$GPRMC,143503.00,A,4124.233687,N,00206.223359,E,000.2,,260426,,,A*76
$GPGGA,143504.00,4124.233592,N,00206.223717,E,1,17,0.71,417.46,M,0.0,M,0.0,0000*7C
$GPGSV,3,1,9,1,67,324,32.8,2,67,064,34.2,3,51,238,39.4,8,41,163,30.2*42
$GPGSV,3,2,9,14,22,286,36.4,17,19,315,24.7,22,20,302,31.2,27,12,150,27.9*4C
$GPGSV,3,3,9,32,30,055,33.9*65
$GLGSV,2,1,8,6,50,047,0.0,7,53,168,19.9,8,07,193,0.0,12,10,262,28.8*63
$GLGSV,2,2,8,13,14,307,30.0,21,45,090,37.1,22,53,334,29.5,23,17,310,0.0*6A
$GPRMC,143504.00,A,4124.233592,N,00206.223717,E,000.1,,260426,,,A*7B
$GPGGA,143505.00,4124.233457,N,00206.224152,E,1,17,0.71,417.54,M,0.0,M,0.0,0000*76
$GPGSV,3,1,9,1,67,324,32.8,2,67,064,34.1,3,51,238,39.5,8,41,163,32.2*42
$GPGSV,3,2,9,14,22,286,36.4,17,19,315,27.0,22,20,302,31.2,27,12,150,27.2*43
$GPGSV,3,3,9,32,30,055,33.8*64
$GLGSV,2,1,8,6,50,047,0.0,7,53,168,19.9,8,07,193,0.0,12,10,262,29.6*6C
$GLGSV,2,2,8,13,14,307,30.0,21,45,090,37.1,22,53,334,31.3,23,17,310,0.0*65
$GPRMC,143505.00,A,4124.233457,N,00206.224152,E,000.4,,260426,,,A*77
$GPGGA,143506.00,4124.233321,N,00206.224486,E,1,17,0.71,417.38,M,0.0,M,0.0,0000*75
$GPGSV,3,1,9,1,67,324,32.8,2,67,064,34.1,3,51,238,39.5,8,41,163,33.1*40
$GPGSV,3,2,9,14,22,286,36.5,17,19,315,27.9,22,20,302,31.3,27,12,150,27.4*4C
$GPGSV,3,3,9,32,30,055,33.8*64
$GLGSV,2,1,8,6,50,047,0.0,7,53,168,20.0,8,07,193,0.0,12,10,262,28.6*6E
$GLGSV,2,2,8,13,14,307,30.1,21,45,090,37.0,22,53,334,0.0,23,17,310,0.0*54
$GPRMC,143506.00,A,4124.233321,N,00206.224486,E,000.5,,260426,,,A*7F
$GPGGA,143507.00,4124.232967,N,00206.224479,E,1,17,0.71,417.24,M,0.0,M,0.0,0000*70
$GPGSV,3,1,9,1,67,324,32.8,2,67,064,34.0,3,51,238,39.6,8,41,163,34.5*41
$GPGSV,3,2,9,14,22,286,36.6,17,19,315,28.4,22,20,302,31.4,27,12,150,29.8*48
$GPGSV,3,3,9,32,30,055,33.7*6B
$GLGSV,2,1,8,6,50,047,0.0,7,53,168,20.2,8,07,193,0.0,12,10,262,33.4*64
$GLGSV,2,2,8,13,14,307,30.0,21,45,090,37.0,22,53,334,0.0,23,17,310,0.0*55
$GPRMC,143507.00,A,4124.232967,N,00206.224479,E,000.5,142.4,260426,,,A*5A
$GPGGA,143508.00,4124.233264,N,00206.224859,E,1,17,0.71,417.32,M,0.0,M,0.0,0000*7F
$GPGSV,3,1,9,1,67,324,32.8,2,67,064,30.6,3,51,238,39.7,8,41,163,34.0*47
$GPGSV,3,2,9,14,22,286,36.6,17,19,315,28.2,22,20,302,31.4,27,12,150,27.5*4D
$GPGSV,3,3,9,32,30,055,33.6*6A
$GLGSV,2,1,8,6,50,047,0.0,7,53,168,23.8,8,07,193,0.0,12,10,262,32.5*6D
$GLGSV,2,2,8,13,14,307,29.4,21,45,090,36.9,22,53,334,0.0,23,17,310,0.0*51
$GPRMC,143508.00,A,4124.233264,N,00206.224859,E,000.5,,260426,,,A*7F
$GPGGA,143509.00,4124.233698,N,00206.224970,E,1,17,0.71,417.28,M,0.0,M,0.0,0000*78
$GPGSV,3,1,9,1,67,324,32.7,2,67,064,30.7,3,51,238,39.8,8,41,163,32.3*43
$GPGSV,3,2,9,14,22,286,36.8,17,19,315,29.5,22,20,302,31.5,27,12,150,27.5*44
$GPGSV,3,3,9,32,30,055,33.6*6A
$GLGSV,2,1,8,6,50,047,0.0,7,53,168,23.8,8,07,193,0.0,12,10,262,29.1*63
$GLGSV,2,2,8,13,14,307,31.4,21,45,090,36.8,22,53,334,0.0,23,17,310,0.0*59
$GPRMC,143509.00,A,4124.233698,N,00206.224970,E,000.5,,260426,,,A*73
$GPGGA,143510.00,4124.233761,N,00206.224952,E,1,17,0.71,417.92,M,0.0,M,0.0,0000*76
$GPGSV,3,1,9,1,67,324,32.6,2,67,064,30.7,3,51,238,39.8,8,41,163,31.8*4A
$GPGSV,3,2,9,14,22,286,36.8,17,19,315,30.2,22,20,302,31.6,27,12,150,26.6*4A
$GPGSV,3,3,9,32,30,055,33.6*6A
$GLGSV,2,1,8,6,50,047,0.0,7,53,168,26.3,8,07,193,0.0,12,10,262,29.1*6D
$GLGSV,2,2,8,13,14,307,32.2,21,45,090,36.9,22,53,334,0.0,23,17,310,0.0*5D
$GPRMC,143510.00,A,4124.233761,N,00206.224952,E,000.4,,260426,,,A*7D
$GPGGA,143511.00,4124.234138,N,00206.225178,E,1,17,0.71,418.43,M,0.0,M,0.0,0000*78
$GPGSV,3,1,9,1,67,324,32.5,2,67,064,30.7,3,51,238,39.9,8,41,163,31.2*42
$GPGSV,3,2,9,14,22,286,36.9,17,19,315,31.6,22,20,302,31.7,27,12,150,26.1*48
$GPGSV,3,3,9,32,30,055,33.6*6A
$GLGSV,2,1,8,6,50,047,0.0,7,53,168,24.7,8,07,193,0.0,12,10,261,32.1*62
$GLGSV,2,2,8,13,14,307,32.3,21,45,090,33.5,22,53,334,31.2,23,17,310,0.0*65
$GPRMC,143511.00,A,4124.234138,N,00206.225178,E,000.6,036.7,260426,,,A*5E
$GPGGA,143512.00,4124.234370,N,00206.225574,E,1,16,0.74,418.83,M,0.0,M,0.0,0000*75
$GPGSV,3,1,9,1,67,324,32.5,2,67,064,30.2,3,51,238,40.0,8,41,163,33.5*45
$GPGSV,3,2,9,14,22,286,37.0,17,19,315,30.2,22,20,302,34.4,27,12,150,26.3*41
$GPGSV,3,3,9,32,30,055,33.5*69
$GLGSV,2,1,7,6,50,047,0.0,7,53,168,24.3,8,07,193,0.0,12,10,261,32.1*69
$GLGSV,2,2,7,13,14,307,32.4,22,53,334,31.3,23,17,310,0.0*4C
$GPRMC,143512.00,A,4124.234370,N,00206.225574,E,000.8,042.3,260426,,,A*52
$GPGGA,143513.00,4124.234289,N,00206.225470,E,1,16,0.74,419.11,M,0.0,M,0.0,0000*7C
$GPGSV,3,1,9,1,67,324,32.4,2,67,064,30.3,3,51,238,40.0,8,41,163,33.9*49
$GPGSV,3,2,9,14,22,286,37.0,17,20,315,31.3,22,20,302,34.3,27,12,150,25.9*45
$GPGSV,3,3,9,32,30,055,33.5*69
$GLGSV,2,1,7,6,50,047,0.0,7,53,168,25.0,8,07,193,0.0,12,10,261,32.1*6B
$GLGSV,2,2,7,13,14,307,32.3,22,53,334,31.3,23,17,310,0.0*4B
$GPRMC,143513.00,A,4124.234289,N,00206.225470,E,000.5,,260426,,,A*77
$GPGGA,143514.00,4124.234371,N,00206.225474,E,1,16,0.74,419.51,M,0.0,M,0.0,0000*7D
$GPGSV,3,1,9,1,67,324,32.4,2,67,064,31.1,3,51,238,40.1,8,41,163,33.2*40
$GPGSV,3,2,9,14,22,286,37.1,17,20,315,31.7,22,20,302,34.3,27,12,150,26.5*4F
$GPGSV,3,3,9,32,30,055,33.5*69
$GLGSV,2,1,7,6,50,047,0.0,7,53,168,23.9,8,07,193,0.0,12,10,261,32.1*64
$GLGSV,2,2,7,13,14,307,29.8,22,53,334,31.3,23,17,310,0.0*4A
$GPRMC,143514.00,A,4124.234371,N,00206.225474,E,000.4,,260426,,,A*73
$GPGGA,143515.00,4124.234335,N,00206.225171,E,1,17,0.71,419.81,M,0.0,M,0.0,0000*75
$GPGSV,3,1,9,1,67,324,31.8,2,67,064,31.8,3,51,238,40.1,8,41,163,33.2*46
$GPGSV,3,2,9,14,22,286,37.2,17,20,315,30.3,22,20,302,34.2,27,12,150,27.0*4C
$GPGSV,3,3,9,32,30,055,33.5*69
$GLGSV,2,1,8,6,50,047,0.0,7,53,168,24.5,8,07,193,0.0,12,10,261,31.9*6B
$GLGSV,2,2,8,13,14,307,29.8,21,45,090,36.0,22,53,334,31.4,23,17,310,0.0*62
$GPRMC,143515.00,A,4124.234335,N,00206.225171,E,000.2,,260426,,,A*74
$GPGGA,143516.00,4124.234283,N,00206.224623,E,1,17,0.71,420.01,M,0.0,M,0.0,0000*79
$GPGSV,3,1,9,1,67,324,32.6,2,67,064,32.5,3,51,238,40.2,8,41,163,33.3*47
$GPGSV,3,2,9,14,22,286,37.3,17,20,315,30.3,22,20,302,34.2,27,12,150,25.7*48
$GPGSV,3,3,9,32,30,055,33.6*6A
$GLGSV,2,1,8,6,50,047,0.0,7,54,168,24.5,8,07,193,0.0,12,10,261,31.9*6C
$GLGSV,2,2,8,13,14,307,29.8,21,45,090,36.0,22,53,334,0.0,23,17,310,0.0*54
$GPRMC,143516.00,A,4124.234283,N,00206.224623,E,000.3,,260426,,,A*7B
$GPGGA,143517.00,4124.234137,N,00206.224333,E,1,17,0.71,420.04,M,0.0,M,0.0,0000*75
$GPGSV,3,1,9,1,67,324,33.0,2,67,064,33.3,3,51,238,40.2,8,41,163,33.4*40
$GPGSV,3,2,9,14,22,286,37.4,17,20,315,30.2,22,20,302,34.2,27,12,150,25.7*4E
$GPGSV,3,3,9,32,30,055,33.6*6A
$GLGSV,2,1,8,6,50,047,0.0,7,54,168,24.5,8,07,193,0.0,12,10,261,31.9*6C
$GLGSV,2,2,8,13,14,307,29.9,21,45,090,36.1,22,53,334,34.1,23,17,310,0.0*62
$GPRMC,143517.00,A,4124.234137,N,00206.224333,E,000.4,,260426,,,A*75
$GPGGA,143518.00,4124.233869,N,00206.223984,E,1,17,0.71,420.20,M,0.0,M,0.0,0000*78
$GPGSV,3,1,9,1,67,324,31.7,2,67,064,31.9,3,51,238,40.2,8,41,163,33.4*4D
$GPGSV,3,2,9,14,22,286,37.4,17,20,315,31.7,22,20,302,34.1,27,12,150,26.7*4A
$GPGSV,3,3,9,32,30,055,33.6*6A
$GLGSV,2,1,8,6,50,047,0.0,7,54,168,24.5,8,07,193,0.0,12,10,261,31.9*6C
$GLGSV,2,2,8,13,14,307,29.9,21,45,090,36.1,22,53,334,34.0,23,17,310,0.0*63
$GPRMC,143518.00,A,4124.233869,N,00206.223984,E,000.6,245.1,260426,,,A*50
$GPGGA,143519.00,4124.233642,N,00206.223725,E,1,17,0.71,420.13,M,0.0,M,0.0,0000*7B
$GPGSV,3,1,9,1,67,324,30.0,2,67,064,31.9,3,51,238,40.3,8,41,163,33.4*4A
$GPGSV,3,2,9,14,22,286,37.5,17,20,315,32.8,22,20,302,34.1,27,12,150,26.9*49
$GPGSV,3,3,9,32,30,055,33.6*6A
$GLGSV,2,1,8,6,50,047,0.0,7,54,168,24.5,8,07,193,0.0,12,10,261,31.9*6C
$GLGSV,2,2,8,13,14,307,30.0,21,45,090,36.0,22,53,334,34.0,23,17,310,0.0*63
$GPRMC,143519.00,A,4124.233642,N,00206.223725,E,000.6,235.7,260426,,,A*52
$GPGGA,143520.00,4124.233776,N,00206.223689,E,1,17,0.71,420.03,M,0.0,M,0.0,0000*71
$GPGSV,3,1,9,1,67,324,31.9,2,67,064,31.9,3,51,238,40.3,8,41,163,33.5*43
$GPGSV,3,2,9,14,22,286,37.5,17,20,315,32.5,22,20,302,34.1,27,12,150,26.2*4F
$GPGSV,3,3,9,32,30,055,33.6*6A
$GLGSV,2,1,8,6,50,047,0.0,7,54,168,24.5,8,07,193,0.0,12,10,261,29.1*6D
$GLGSV,2,2,8,13,14,307,33.7,21,45,090,36.1,22,53,334,34.0,23,17,310,0.0*66
$GPRMC,143520.00,A,4124.233776,N,00206.223689,E,000.4,,260426,,,A*76
$GPGGA,143521.00,4124.233966,N,00206.223631,E,1,17,0.71,420.04,M,0.0,M,0.0,0000*7B
$GPGSV,3,1,9,1,67,324,32.7,2,67,064,32.0,3,51,238,40.4,8,41,163,33.6*40
$GPGSV,3,2,9,14,22,286,37.6,17,20,315,34.5,22,20,302,34.1,27,12,150,26.9*41
$GPGSV,3,3,9,32,30,055,33.7*6B
$GLGSV,2,1,8,6,50,047,0.0,7,54,168,24.5,8,07,193,0.0,12,10,261,29.1*6D
$GLGSV,2,2,8,13,14,307,33.8,21,45,090,36.1,22,53,334,33.9,23,17,310,0.0*67
$GPRMC,143521.00,A,4124.233966,N,00206.223631,E,000.4,,260426,,,A*7B
$GPGGA,143522.00,4124.234211,N,00206.223775,E,1,17,0.71,420.07,M,0.0,M,0.0,0000*76
$GPGSV,3,1,9,1,67,324,32.2,2,67,064,32.0,3,51,238,40.4,8,41,163,33.6*45
$GPGSV,3,2,9,14,22,286,37.7,17,20,315,33.2,22,20,302,34.1,27,12,150,27.5*4D
$GPGSV,3,3,9,32,30,055,33.7*6B
$GLGSV,2,1,8,6,50,047,0.0,7,54,168,24.4,8,07,193,0.0,12,10,261,29.2*6F
$GLGSV,2,2,8,13,14,307,33.8,21,45,090,36.0,22,53,334,0.0,23,17,310,0.0*5F
$GPRMC,143522.00,A,4124.234211,N,00206.223775,E,000.3,,260426,,,A*72
$GPGGA,143523.00,4124.234204,N,00206.223788,E,1,17,0.71,420.12,M,0.0,M,0.0,0000*75
$GPGSV,3,1,9,1,67,324,31.7,2,67,064,32.1,3,51,238,40.5,8,41,163,33.7*42
$GPGSV,3,2,9,14,22,286,37.7,17,20,315,33.3,22,20,302,34.1,27,12,150,29.6*41
$GPGSV,3,3,9,32,30,055,33.8*64
$GLGSV,2,1,8,6,50,047,0.0,7,54,168,24.4,8,07,193,0.0,12,10,261,29.2*6F
$GLGSV,2,2,8,13,14,307,33.8,21,45,090,36.0,22,53,334,0.0,23,17,310,0.0*5F
$GPRMC,143523.00,A,4124.234204,N,00206.223788,E,000.2,,260426,,,A*74
$GPGGA,143524.00,4124.234233,N,00206.223661,E,1,17,0.71,420.20,M,0.0,M,0.0,0000*71
$GPGSV,3,1,9,1,67,324,30.2,2,67,064,32.2,3,51,238,40.5,8,41,163,33.7*45
$GPGSV,3,2,9,14,22,286,37.8,17,20,315,33.2,22,20,302,34.0,27,12,150,28.5*4C
$GPGSV,3,3,9,32,30,055,33.9*65
$GLGSV,2,1,8,6,50,047,0.0,7,54,168,24.3,8,07,193,0.0,12,10,261,32.2*62
$GLGSV,2,2,8,13,14,307,33.8,21,45,090,36.0,22,53,334,0.0,23,17,310,0.0*5F
$GPRMC,143524.00,A,4124.234233,N,00206.223661,E,000.2,,260426,,,A*71
$GPGGA,143525.00,4124.234346,N,00206.223381,E,1,17,0.71,420.27,M,0.0,M,0.0,0000*7F
$GPGSV,3,1,9,1,67,324,31.7,2,67,064,32.2,3,51,238,40.5,8,41,163,33.7*41
$GPGSV,3,2,9,14,22,286,37.9,17,20,315,32.5,22,20,302,34.0,27,12,150,26.9*49
$GPGSV,3,3,9,32,30,055,33.9*65
$GLGSV,2,1,8,6,50,047,0.0,7,54,168,24.3,8,07,193,0.0,12,10,261,32.1*61
$GLGSV,2,2,8,13,14,307,33.8,21,45,090,36.0,22,53,334,0.0,23,17,310,0.0*5F
$GPRMC,143525.00,A,4124.234346,N,00206.223381,E,000.3,,260426,,,A*79
$GPGGA,143526.00,4124.234283,N,00206.223685,E,1,17,0.71,420.20,M,0.0,M,0.0,0000*72
$GPGSV,3,1,9,1,67,324,31.7,2,67,064,35.5,3,51,238,40.5,8,41,163,28.1*4D
$GPGSV,3,2,9,14,22,286,37.9,17,20,315,31.2,22,20,302,33.9,27,12,150,26.5*4F
$GPGSV,3,3,9,32,30,055,34.0*6B
$GLGSV,2,1,8,6,50,047,0.0,7,54,168,24.3,8,07,193,0.0,12,10,261,29.2*68
$GLGSV,2,2,8,13,14,307,33.7,21,45,090,35.9,22,53,334,0.0,23,17,310,0.0*5A
$GPRMC,143526.00,A,4124.234283,N,00206.223685,E,000.1,,260426,,,A*71
$GPGGA,143527.00,4124.234230,N,00206.223824,E,1,17,0.71,419.99,M,0.0,M,0.0,0000*76
$GPGSV,3,1,9,1,67,324,31.3,2,67,064,35.5,3,51,238,40.4,8,41,163,23.7*45
$GPGSV,3,2,9,14,22,286,38.0,17,20,315,30.1,22,20,302,33.8,27,12,150,27.4*4A
$GPGSV,3,3,9,32,30,055,34.1*6A
$GLGSV,2,1,8,6,50,047,0.0,7,54,168,24.4,8,07,193,0.0,12,10,261,26.1*63
$GLGSV,2,2,8,13,14,307,33.6,21,45,090,35.8,22,53,334,0.0,23,17,310,0.0*5A
$GPRMC,143527.00,A,4124.234230,N,00206.223824,E,000.1,,260426,,,A*7D
$GPGGA,143528.00,4124.234137,N,00206.224376,E,1,17,0.71,419.53,M,0.0,M,0.0,0000*70
$GPGSV,3,1,9,1,67,324,32.4,2,67,064,35.5,3,51,238,36.8,8,41,163,22.6*4C
$GPGSV,3,2,9,14,22,286,38.0,17,20,315,28.5,22,20,302,33.7,27,12,150,26.8*45
$GPGSV,3,3,9,32,30,055,34.2*69
$GLGSV,2,1,8,6,50,047,0.0,7,54,168,24.5,8,07,193,0.0,12,10,261,22.7*60
$GLGSV,2,2,8,13,14,307,33.6,21,45,090,35.7,22,53,334,0.0,23,17,310,0.0*55
$GPRMC,143528.00,A,4124.234137,N,00206.224376,E,000.4,,260426,,,A*78
$GPGGA,143529.00,4124.233925,N,00206.224486,E,1,17,0.71,419.24,M,0.0,M,0.0,0000*75
$GPGSV,3,1,9,1,67,324,31.6,2,67,064,35.6,3,51,238,36.9,8,41,163,24.2*4D
$GPGSV,3,2,9,14,22,286,38.0,17,20,315,31.6,22,20,302,33.7,27,12,150,27.0*47
$GPGSV,3,3,9,32,30,055,34.2*69
$GLGSV,2,1,8,6,50,047,0.0,7,54,168,25.3,8,07,193,0.0,12,10,261,24.3*65
$GLGSV,2,2,8,13,14,307,33.6,21,45,090,35.6,22,53,334,0.0,23,17,310,0.0*54
$GPRMC,143529.00,A,4124.233925,N,00206.224486,E,000.4,,260426,,,A*7D
$GPGGA,143530.00,4124.233979,N,00206.224464,E,1,17,0.71,418.88,M,0.0,M,0.0,0000*7F
$GPGSV,3,1,9,1,67,324,32.1,2,67,064,35.6,3,51,238,36.9,8,41,163,21.1*4F
$GPGSV,3,2,9,14,22,286,38.0,17,20,315,31.3,22,20,302,33.7,27,12,150,27.4*46
$GPGSV,3,3,9,32,30,055,34.3*68
$GLGSV,2,1,8,6,50,047,0.0,7,54,168,26.7,8,07,193,0.0,12,10,261,22.9*6E
$GLGSV,2,2,8,13,14,307,33.6,21,45,090,35.6,22,53,334,33.8,23,17,310,0.0*6C
$GPRMC,143530.00,A,4124.233979,N,00206.224464,E,000.3,,260426,,,A*77
$GPGGA,143531.00,4124.234078,N,00206.224915,E,1,17,0.71,418.21,M,0.0,M,0.0,0000*79
$GPGSV,3,1,9,1,67,324,30.3,2,67,064,32.0,3,51,238,40.9,8,41,163,33.5*48
$GPGSV,3,2,9,14,22,285,38.0,17,20,315,30.9,22,20,302,33.7,27,12,150,31.1*4C
$GPGSV,3,3,9,32,30,055,34.3*68
$GLGSV,2,1,8,6,50,047,0.0,7,54,168,24.8,8,07,193,0.0,12,10,261,31.2*6A
$GLGSV,2,2,8,13,14,307,33.6,21,45,090,35.6,22,53,334,29.2,23,17,310,0.0*6D
$GPRMC,143531.00,A,4124.234078,N,00206.224915,E,000.4,,260426,,,A*75
$GPGGA,143532.00,4124.234297,N,00206.224545,E,1,17,0.71,418.12,M,0.0,M,0.0,0000*70
$GPGSV,3,1,9,1,67,324,32.8,2,67,064,32.0,3,51,238,38.3,8,41,163,29.0*4A
$GPGSV,3,2,9,14,22,285,37.9,17,20,315,28.0,22,20,302,33.8,27,12,150,28.3*4F
$GPGSV,3,3,9,32,30,055,34.2*69
$GLGSV,2,1,8,6,50,047,0.0,7,54,168,28.3,8,07,193,0.0,12,10,261,31.2*6D
$GLGSV,2,2,8,13,14,307,30.6,21,45,090,35.8,22,53,334,29.2,23,17,310,0.0*60
$GPRMC,143532.00,A,4124.234297,N,00206.224545,E,000.2,,260426,,,A*7A
$GPGGA,143533.00,4124.234805,N,00206.224492,E,1,17,0.71,417.78,M,0.0,M,0.0,0000*78
$GPGSV,3,1,9,1,67,324,30.5,2,67,064,32.0,3,51,238,41.1,8,41,163,29.7*4E
$GPGSV,3,2,9,14,22,285,37.8,17,20,315,26.0,22,20,302,33.8,27,12,150,26.0*4D
$GPGSV,3,3,9,32,30,055,37.1*69
$GLGSV,2,1,8,6,50,047,0.0,7,54,168,23.1,8,07,193,0.0,12,10,261,33.9*6D
$GLGSV,2,2,8,13,14,307,36.1,21,45,090,38.3,22,53,334,29.1,23,17,310,0.0*64
$GPRMC,143533.00,A,4124.234805,N,00206.224492,E,000.5,005.2,260426,,,A*5F
$GPGGA,143534.00,4124.235185,N,00206.224097,E,1,17,0.71,417.27,M,0.0,M,0.0,0000*74
$GPGSV,3,1,9,1,67,324,30.5,2,67,064,31.5,3,51,238,41.1,8,41,163,25.7*44
$GPGSV,3,2,9,14,22,285,37.8,17,20,315,25.5,22,20,302,32.3,27,12,150,28.9*46
$GPGSV,3,3,9,32,30,055,37.1*69
$GLGSV,2,1,8,6,50,047,0.0,7,54,168,22.6,8,07,193,0.0,12,10,261,33.9*6B
$GLGSV,2,2,8,13,14,307,32.3,21,45,090,38.3,22,53,334,29.1,23,17,310,0.0*62
$GPRMC,143534.00,A,4124.235185,N,00206.224097,E,000.7,343.1,260426,,,A*59
$GPGGA,143535.00,4124.235234,N,00206.224002,E,1,17,0.71,416.89,M,0.0,M,0.0,0000*75
$GPGSV,3,1,9,1,67,324,30.6,2,67,064,30.5,3,51,238,41.0,8,41,163,27.0*42
$GPGSV,3,2,9,14,22,285,37.7,17,20,315,24.0,22,20,302,33.6,27,12,150,27.4*4B
$GPGSV,3,3,9,32,30,055,37.1*69
$GLGSV,2,1,8,6,50,047,0.0,7,54,168,24.0,8,07,193,0.0,12,10,261,31.1*61
$GLGSV,2,2,8,13,14,307,35.1,21,45,090,38.4,22,53,334,0.0,23,17,310,0.0*5A
$GPRMC,143535.00,A,4124.235234,N,00206.224002,E,000.6,338.3,260426,,,A*52
$GPGGA,143536.00,4124.235260,N,00206.224101,E,1,17,0.71,416.64,M,0.0,M,0.0,0000*76
$GPGSV,3,1,9,1,67,324,31.3,2,67,064,30.1,3,51,238,41.0,8,41,163,27.2*40
$GPGSV,3,2,9,14,22,285,37.7,17,20,315,29.1,22,20,302,34.4,27,12,150,26.6*41
$GPGSV,3,3,9,32,30,055,37.0*68
$GLGSV,2,1,8,6,50,047,0.0,7,54,168,24.0,8,07,193,0.0,12,10,261,31.0*60
$GLGSV,2,2,8,13,14,307,35.1,21,45,090,38.4,22,53,334,26.1,23,17,310,0.0*6F
$GPRMC,143536.00,A,4124.235260,N,00206.224101,E,000.4,,260426,,,A*75
$GPGGA,143537.00,4124.234900,N,00206.224409,E,1,17,0.71,416.51,M,0.0,M,0.0,0000*70
$GPGSV,3,1,9,1,67,324,33.2,2,67,064,32.4,3,51,238,41.1,8,41,163,31.4*44
$GPGSV,3,2,9,14,22,285,37.6,17,20,315,29.4,22,20,302,35.0,27,12,150,24.9*4D
$GPGSV,3,3,9,32,30,055,37.0*68
$GLGSV,2,1,8,6,50,047,0.0,7,54,168,24.1,8,07,193,0.0,12,10,261,31.0*61
$GLGSV,2,2,8,13,14,307,35.1,21,45,090,38.4,22,53,334,29.2,23,17,310,0.0*63
$GPRMC,143537.00,A,4124.234900,N,00206.224409,E,000.1,,260426,,,A*70
$GPGGA,143538.00,4124.234582,N,00206.224950,E,1,17,0.71,416.42,M,0.0,M,0.0,0000*7A
$GPGSV,3,1,9,1,67,324,33.0,2,67,064,30.6,3,51,238,41.1,8,41,163,30.3*40
$GPGSV,3,2,9,14,22,285,37.5,17,20,315,28.6,22,20,302,35.5,27,12,150,24.2*43
$GPGSV,3,3,9,32,30,055,36.9*60
$GLGSV,2,1,8,6,50,047,0.0,7,54,168,24.9,8,07,193,0.0,12,10,261,31.0*69
$GLGSV,2,2,8,13,14,307,35.2,21,45,090,38.4,22,53,334,29.2,23,17,310,0.0*60
$GPRMC,143538.00,A,4124.234582,N,00206.224950,E,000.5,,260426,,,A*7C
$GPGGA,143539.00,4124.234674,N,00206.225256,E,1,17,0.71,416.31,M,0.0,M,0.0,0000*79
$GPGSV,3,1,9,1,67,324,31.7,2,67,064,29.0,3,51,238,41.0,8,41,163,30.0*49
$GPGSV,3,2,9,14,22,285,37.5,17,20,315,28.6,22,20,302,32.7,27,12,150,27.6*41
$GPGSV,3,3,9,32,30,055,36.8*61
$GLGSV,2,1,8,6,50,047,0.0,7,54,168,24.3,8,07,193,0.0,12,10,261,31.1*62
$GLGSV,2,2,8,13,14,307,35.2,21,45,090,38.2,22,53,334,29.1,23,17,310,0.0*65
$GPRMC,143539.00,A,4124.234674,N,00206.225256,E,000.5,091.0,260426,,,A*5D
$GPGGA,143540.00,4124.234871,N,00206.224952,E,1,17,0.71,416.33,M,0.0,M,0.0,0000*70
$GPGSV,3,1,9,1,67,324,30.4,2,67,064,32.7,3,51,238,41.0,8,41,163,27.3*43
$GPGSV,3,2,9,14,22,285,37.5,17,20,315,28.3,22,20,302,35.7,27,12,150,25.7*40
$GPGSV,3,3,9,32,30,055,36.7*6E
$GLGSV,2,1,8,6,50,047,0.0,7,54,168,21.9,8,07,193,0.0,12,10,261,35.6*6E
$GLGSV,2,2,8,13,14,307,35.1,21,45,090,38.2,22,53,334,29.1,23,17,310,0.0*66
$GPRMC,143540.00,A,4124.234871,N,00206.224952,E,000.2,,260426,,,A*77
$GPGGA,143541.00,4124.235074,N,00206.224482,E,1,17,0.71,416.41,M,0.0,M,0.0,0000*78
$GPGSV,3,1,9,1,67,324,31.7,2,67,064,33.8,3,51,238,41.0,8,41,163,24.7*48
$GPGSV,3,2,9,14,22,285,37.4,17,20,315,27.2,22,20,302,35.7,27,12,150,25.1*49
$GPGSV,3,3,9,32,30,055,36.7*6E
$GLGSV,2,1,8,6,50,047,0.0,7,54,168,24.7,8,07,193,0.0,12,10,261,35.6*65
$GLGSV,2,2,8,13,14,307,35.1,21,45,090,38.2,22,53,334,0.0,23,17,310,0.0*5C
$GPRMC,143541.00,A,4124.235074,N,00206.224482,E,000.3,,260426,,,A*7B
$GPGGA,143542.00,4124.235155,N,00206.223674,E,1,17,0.71,416.31,M,0.0,M,0.0,0000*72
$GPGSV,3,1,9,1,67,324,30.3,2,67,064,29.1,3,51,238,41.0,8,41,163,24.6*4E
$GPGSV,3,2,9,14,22,285,37.5,17,20,315,25.7,22,20,302,35.7,27,12,150,27.7*4B
$GPGSV,3,3,9,32,30,055,36.6*6F
$GLGSV,2,1,8,6,50,047,0.0,7,54,168,25.9,8,07,193,0.0,12,10,261,35.6*6A
$GLGSV,2,2,8,13,14,307,35.1,21,45,090,38.2,22,53,334,0.0,23,17,310,0.0*5C
$GPRMC,143542.00,A,4124.235155,N,00206.223674,E,000.6,292.6,260426,,,A*52
$GPGGA,143543.00,4124.235291,N,00206.223298,E,1,17,0.71,416.40,M,0.0,M,0.0,0000*78
$GPGSV,3,1,9,1,67,324,31.5,2,67,065,31.2,3,51,238,41.0,8,41,163,19.1*4B
$GPGSV,3,2,9,14,22,285,37.5,17,20,315,24.0,22,20,302,35.7,27,12,150,26.3*48
$GPGSV,3,3,9,32,30,055,36.6*6F
$GLGSV,2,1,8,6,50,047,0.0,7,54,168,26.2,8,07,193,0.0,12,10,261,35.5*61
$GLGSV,2,2,8,13,14,307,35.1,21,45,090,38.2,22,53,334,0.0,23,17,310,0.0*5C
$GPRMC,143543.00,A,4124.235291,N,00206.223298,E,000.7,292.5,260426,,,A*5C
$GPGGA,143544.00,4124.235205,N,00206.223398,E,1,17,0.71,416.26,M,0.0,M,0.0,0000*73
$GPGSV,3,1,9,1,67,324,32.2,2,67,065,28.4,3,51,238,41.0,8,41,163,25.5*4A
$GPGSV,3,2,9,14,22,285,37.5,17,20,315,24.7,22,20,302,35.7,27,12,150,27.6*4B
$GPGSV,3,3,9,32,30,055,36.6*6F
$GLGSV,2,1,8,6,50,047,0.0,7,54,168,25.9,8,07,193,0.0,12,10,261,29.0*61
$GLGSV,2,2,8,13,14,307,30.0,21,45,090,38.3,22,53,334,0.0,23,17,310,0.0*59
$GPRMC,143544.00,A,4124.235205,N,00206.223398,E,000.4,,260426,,,A*76
$GPGGA,143545.00,4124.235304,N,00206.223400,E,1,17,0.71,416.35,M,0.0,M,0.0,0000*76
$GPGSV,3,1,9,1,67,325,31.4,2,67,065,30.9,3,51,238,41.0,8,41,163,25.3*4C
$GPGSV,3,2,9,14,22,285,37.5,17,20,315,28.3,22,20,302,35.7,27,12,150,24.8*4E
$GPGSV,3,3,9,32,30,055,36.5*6C
$GLGSV,2,1,8,6,50,047,0.0,7,54,168,24.6,8,07,193,0.0,12,10,261,29.1*6E
$GLGSV,2,2,8,13,14,307,30.0,21,45,090,38.3,22,53,334,0.0,23,17,310,0.0*59
$GPRMC,143545.00,A,4124.235304,N,00206.223400,E,000.4,,260426,,,A*71
$GPGGA,143546.00,4124.235185,N,00206.224026,E,1,17,0.71,416.42,M,0.0,M,0.0,0000*79
$GPGSV,3,1,9,1,67,325,34.8,2,67,065,31.7,3,51,238,40.9,8,41,163,36.2*41
$GPGSV,3,2,9,14,22,285,37.4,17,20,315,27.9,22,20,302,35.6,27,12,150,26.9*48
$GPGSV,3,3,9,32,30,055,33.8*64
$GLGSV,2,1,8,6,50,047,0.0,7,54,168,23.2,8,07,193,0.0,12,10,261,29.1*6D
$GLGSV,2,2,8,13,14,307,34.4,21,45,091,38.3,22,53,334,0.0,23,17,310,0.0*58
$GPRMC,143546.00,A,4124.235185,N,00206.224026,E,000.1,,260426,,,A*7B
$GPGGA,143547.00,4124.235209,N,00206.224450,E,1,17,0.71,416.30,M,0.0,M,0.0,0000*7F
$GPGSV,3,1,9,1,67,325,32.9,2,67,065,32.6,3,51,238,40.9,8,41,163,32.9*4B
$GPGSV,3,2,9,14,22,285,34.4,17,20,315,32.2,22,20,302,32.5,27,12,150,28.7*40
$GPGSV,3,3,9,32,30,055,30.4*6B
$GLGSV,2,1,8,6,50,047,0.0,7,54,168,21.9,8,07,193,0.0,12,10,261,29.1*64
$GLGSV,2,2,8,13,14,307,30.7,21,45,091,38.3,22,53,334,29.5,23,17,310,0.0*61
$GPRMC,143547.00,A,4124.235209,N,00206.224450,E,000.3,,260426,,,A*7A
$GPGGA,143548.00,4124.235047,N,00206.224652,E,1,17,0.71,416.39,M,0.0,M,0.0,0000*71
$GPGSV,3,1,9,1,67,325,31.3,2,67,065,29.6,3,51,238,36.8,8,41,163,33.0*40
$GPGSV,3,2,9,14,22,285,34.4,17,20,315,29.4,22,20,302,32.5,27,12,150,28.2*49
$GPGSV,3,3,9,32,30,055,31.1*6F
$GLGSV,2,1,8,6,50,047,0.0,7,54,168,21.5,8,07,193,0.0,12,10,261,33.5*67
$GLGSV,2,2,8,13,14,307,27.7,21,45,091,38.4,22,53,334,23.7,23,17,310,0.0*68
$GPRMC,143548.00,A,4124.235047,N,00206.224652,E,000.4,,260426,,,A*7A
$GPGGA,143549.00,4124.234625,N,00206.225044,E,1,17,0.71,416.33,M,0.0,M,0.0,0000*79
$GPGSV,3,1,9,1,67,325,31.4,2,67,065,27.1,3,51,238,36.8,8,41,163,36.8*43
$GPGSV,3,2,9,14,22,285,31.1,17,20,315,30.5,22,20,302,29.1,27,11,150,36.0*40
$GPGSV,3,3,9,32,30,055,34.5*6E
$GLGSV,2,1,8,6,50,047,0.0,7,54,168,24.2,8,07,193,0.0,12,10,261,33.5*65
$GLGSV,2,2,8,13,14,307,25.5,21,45,091,38.3,22,53,334,29.4,23,17,310,0.0*66
$GPRMC,143549.00,A,4124.234625,N,00206.225044,E,000.6,128.1,260426,,,A*5E
$GPGGA,143550.00,4124.234455,N,00206.225338,E,1,17,0.71,416.36,M,0.0,M,0.0,0000*79
$GPGSV,3,1,9,1,67,325,29.7,2,67,065,24.5,3,51,238,39.4,8,41,163,37.6*42
$GPGSV,3,2,9,14,22,285,34.1,17,20,315,28.5,22,20,302,30.3,27,11,150,36.4*42
$GPGSV,3,3,9,32,30,055,34.7*6C
$GLGSV,2,1,8,6,50,047,0.0,7,54,168,21.4,8,07,193,0.0,12,10,261,33.5*66
$GLGSV,2,2,8,13,14,307,27.5,21,45,091,38.2,22,53,334,29.6,23,17,310,0.0*67
$GPRMC,143550.00,A,4124.234455,N,00206.225338,E,000.7,127.3,260426,,,A*57
$GPGGA,143551.00,4124.234487,N,00206.225279,E,1,17,0.71,416.19,M,0.0,M,0.0,0000*7E
$GPGSV,3,1,9,1,67,325,31.4,2,67,065,30.6,3,51,238,39.5,8,41,163,37.5*4C
$GPGSV,3,2,9,14,22,285,34.1,17,20,315,27.2,22,20,302,32.0,27,11,150,31.9*41
$GPGSV,3,3,9,32,30,055,36.2*6B
$GLGSV,2,1,8,6,50,047,0.0,7,54,168,21.5,8,07,193,0.0,12,10,261,33.5*67
$GLGSV,2,2,8,13,14,307,29.7,21,45,091,38.1,22,53,334,28.4,23,17,310,0.0*6B
$GPRMC,143551.00,A,4124.234487,N,00206.225279,E,000.5,,260426,,,A*76
$GPGGA,143552.00,4124.234561,N,00206.224815,E,1,17,0.71,416.09,M,0.0,M,0.0,0000*74
$GPGSV,3,1,9,1,67,325,31.1,2,67,065,31.0,3,51,238,39.6,8,41,163,33.8*44
$GPGSV,3,2,9,14,22,285,34.1,17,20,315,29.7,22,20,302,32.5,27,11,150,30.2*45
$GPGSV,3,3,9,32,30,055,36.1*68
$GLGSV,2,1,8,6,50,047,0.0,7,54,168,21.6,8,07,193,0.0,12,10,261,33.3*62
$GLGSV,2,2,8,13,14,307,30.5,21,45,091,38.1,22,53,334,0.0,23,17,310,0.0*5F
$GPRMC,143552.00,A,4124.234561,N,00206.224815,E,000.2,,260426,,,A*7A
$GPGGA,143553.00,4124.234693,N,00206.224554,E,1,17,0.71,416.11,M,0.0,M,0.0,0000*7A
$GPGSV,3,1,9,1,67,325,31.5,2,67,065,31.1,3,51,239,39.7,8,41,163,33.9*40
$GPGSV,3,2,9,14,22,285,34.1,17,20,315,31.5,22,20,302,33.3,27,11,150,30.5*4E
$GPGSV,3,3,9,32,30,055,36.0*69
$GLGSV,2,1,8,6,50,047,0.0,7,54,168,24.3,8,07,193,0.0,12,10,261,33.3*62
$GLGSV,2,2,8,13,14,307,32.7,21,45,091,38.1,22,53,334,31.8,23,17,310,0.0*65
$GPRMC,143553.00,A,4124.234693,N,00206.224554,E,000.2,,260426,,,A*7D
$GPGGA,143554.00,4124.234926,N,00206.224718,E,1,17,0.71,415.96,M,0.0,M,0.0,0000*7A
$GPGSV,3,1,9,1,67,325,30.2,2,67,065,27.9,3,51,239,39.8,8,41,163,34.0*48
$GPGSV,3,2,9,14,22,285,34.1,17,20,315,30.3,22,20,302,32.6,27,11,150,31.9*40
$GPGSV,3,3,9,32,30,055,31.1*6F
$GLGSV,2,1,8,6,50,047,0.0,7,54,168,24.2,8,07,193,0.0,12,10,261,36.9*6C
$GLGSV,2,2,8,13,14,307,33.1,21,45,091,38.1,22,53,334,31.2,23,17,310,0.0*68
$GPRMC,143554.00,A,4124.234926,N,00206.224718,E,000.2,,260426,,,A*71
$GPGGA,143555.00,4124.235096,N,00206.224571,E,1,17,0.71,415.81,M,0.0,M,0.0,0000*73
$GPGSV,3,1,9,1,67,325,30.0,2,67,065,31.1,3,51,239,39.8,8,41,163,34.1*44
$GPGSV,3,2,9,14,22,285,34.1,17,20,315,29.9,22,20,302,31.4,27,11,150,31.3*49
$GPGSV,3,3,9,32,30,055,33.2*6E
$GLGSV,2,1,8,6,50,047,0.0,7,54,168,24.2,8,07,193,0.0,12,10,261,33.6*66
$GLGSV,2,2,8,13,14,307,33.2,21,45,091,38.1,22,53,334,29.8,23,17,310,0.0*68
$GPRMC,143555.00,A,4124.235096,N,00206.224571,E,000.3,,260426,,,A*7F
$GPGGA,143556.00,4124.235367,N,00206.224775,E,1,17,0.71,415.61,M,0.0,M,0.0,0000*75
$GPGSV,3,1,9,1,67,325,29.7,2,67,065,28.3,3,51,239,39.9,8,41,163,34.1*40
$GPGSV,3,2,9,14,22,285,34.2,17,20,315,30.8,22,20,302,32.7,27,11,150,30.5*44
$GPGSV,3,3,9,32,30,055,28.4*62
$GLGSV,2,1,8,6,50,047,0.0,7,54,168,24.2,8,07,193,0.0,12,10,261,33.7*67
$GLGSV,2,2,8,13,14,307,33.1,21,45,091,38.1,22,53,334,32.1,23,17,310,0.0*68
$GPRMC,143556.00,A,4124.235367,N,00206.224775,E,000.4,,260426,,,A*70
$GPGGA,143557.00,4124.235565,N,00206.224822,E,1,17,0.71,415.37,M,0.0,M,0.0,0000*7E
$GPGSV,3,1,9,1,67,325,30.2,2,67,065,26.9,3,51,239,40.0,8,41,163,34.2*4D
$GPGSV,3,2,9,14,22,285,34.3,17,20,315,31.9,22,20,302,32.6,27,11,150,31.7*47
$GPGSV,3,3,9,32,30,055,29.7*60
$GLGSV,2,1,8,6,50,047,0.0,7,54,168,24.1,8,07,193,0.0,12,10,261,36.4*62
$GLGSV,2,2,8,13,14,307,29.2,21,45,091,38.1,22,53,334,32.0,23,17,310,0.0*61
$GPRMC,143557.00,A,4124.235565,N,00206.224822,E,000.5,,260426,,,A*79
$GPGGA,143558.00,4124.235087,N,00206.224205,E,1,16,0.71,415.19,M,0.0,M,0.0,0000*7A
$GPGSV,2,1,8,1,67,325,29.2,3,51,239,40.0,8,41,163,34.2,14,22,285,36.9*7E
$GPGSV,2,2,8,17,20,315,32.6,22,20,302,32.6,27,11,150,31.0,32,30,055,25.1*46
$GLGSV,2,1,8,6,50,047,0.0,7,54,168,24.1,8,07,193,0.0,12,10,261,36.4*62
$GLGSV,2,2,8,13,14,307,29.2,21,45,091,38.2,22,53,334,0.0,23,17,310,0.0*53
$GPRMC,143558.00,A,4124.235087,N,00206.224205,E,000.3,,260426,,,A*76
$GPGGA,143559.00,4124.234456,N,00206.223667,E,1,16,0.71,415.05,M,0.0,M,0.0,0000*78
$GPGSV,2,1,8,1,67,325,29.6,3,51,239,40.1,8,41,163,34.3,14,22,285,36.9*7A
$GPGSV,2,2,8,17,20,315,30.4,22,20,302,32.7,27,11,150,29.7,32,30,055,25.1*49
$GLGSV,2,1,8,6,50,047,0.0,7,54,168,24.1,8,07,193,0.0,12,10,261,36.3*65
$GLGSV,2,2,8,13,14,307,28.2,21,45,091,38.2,22,53,334,29.3,23,17,310,0.0*6A
$GPRMC,143559.00,A,4124.234456,N,00206.223667,E,000.7,227.5,260426,,,A*51
$GPGGA,143600.00,4124.234634,N,00206.224336,E,1,16,0.71,414.83,M,0.0,M,0.0,0000*78
$GPGSV,2,1,8,1,67,325,29.8,3,51,239,40.1,8,41,163,34.3,14,22,285,36.9*74
$GPGSV,2,2,8,17,20,315,32.4,22,20,302,32.7,27,11,150,29.3,32,30,055,23.1*49
$GLGSV,2,1,8,6,50,047,0.0,7,54,168,24.4,8,07,193,0.0,12,10,261,36.3*60
$GLGSV,2,2,8,13,14,307,29.7,21,45,091,38.1,22,53,334,30.9,23,17,310,0.0*6F
$GPRMC,143600.00,A,4124.234634,N,00206.224336,E,000.2,,260426,,,A*77
$GPGGA,143601.00,4124.234555,N,00206.224308,E,1,16,0.71,414.77,M,0.0,M,0.0,0000*7B
$GPGSV,2,1,8,1,67,325,30.8,3,51,239,40.1,8,41,163,34.4,14,22,285,37.0*73
$GPGSV,2,2,8,17,20,315,32.1,22,20,302,32.7,27,11,150,29.1,32,30,055,23.1*4E
$GLGSV,2,1,8,6,50,047,0.0,7,54,168,23.8,8,07,193,0.0,12,10,261,36.3*6B
$GLGSV,2,2,8,13,14,307,29.1,21,45,091,38.1,22,53,334,30.7,23,17,310,0.0*67
$GPRMC,143601.00,A,4124.234555,N,00206.224308,E,000.2,,260426,,,A*7F
$GPGGA,143602.00,4124.234003,N,00206.223947,E,1,15,0.84,414.60,M,0.0,M,0.0,0000*77
$GPGSV,2,1,7,1,67,325,29.9,3,51,239,40.1,8,41,163,34.4,14,22,285,37.0*75
$GPGSV,2,2,7,17,20,315,32.0,22,20,302,32.7,27,11,150,28.9*65
$GLGSV,2,1,8,6,50,047,0.0,7,54,168,21.8,8,07,193,0.0,12,10,261,36.2*68
$GLGSV,2,2,8,13,14,307,28.2,21,45,091,38.2,22,53,334,30.4,23,17,310,0.0*65
$GPRMC,143602.00,A,4124.234003,N,00206.223947,E,000.6,201.7,260426,,,A*52
$GPGGA,143603.00,4124.233975,N,00206.224289,E,1,15,0.84,414.55,M,0.0,M,0.0,0000*71
$GPGSV,2,1,7,1,67,325,29.9,3,51,239,40.1,8,41,163,34.4,14,22,285,37.0*75
$GPGSV,2,2,7,17,20,315,31.7,22,20,302,32.6,27,11,150,28.4*6D
$GLGSV,2,1,8,6,50,047,0.0,7,54,168,22.0,8,07,193,0.0,12,10,261,36.1*60
$GLGSV,2,2,8,13,14,307,29.7,21,45,091,38.2,22,53,334,30.7,23,17,310,0.0*62
$GPRMC,143603.00,A,4124.233975,N,00206.224289,E,000.4,,260426,,,A*7A
$GPGGA,143604.00,4124.233713,N,00206.224518,E,1,14,0.94,414.54,M,0.0,M,0.0,0000*76
$GPGSV,2,1,7,1,67,325,30.1,3,51,239,40.0,8,41,163,34.5,14,22,285,37.0*75
$GPGSV,2,2,7,17,20,315,33.3,22,20,302,32.5,27,11,150,27.6*65
$GLGSV,2,1,7,6,50,047,0.0,7,54,168,22.3,8,07,193,0.0,12,10,261,36.1*6C
$GLGSV,2,2,7,13,14,307,28.3,22,53,334,0.0,23,17,310,0.0*71
$GPRMC,143604.00,A,4124.233713,N,00206.224518,E,000.5,169.0,260426,,,A*5D
$GPGGA,143605.00,4124.233497,N,00206.224659,E,1,15,0.84,414.62,M,0.0,M,0.0,0000*7B
$GPGSV,2,1,7,1,67,325,30.3,3,51,239,40.0,8,41,163,34.6,14,22,285,37.0*74
$GPGSV,2,2,7,17,20,315,33.3,22,20,302,32.5,27,11,150,28.2*6E
$GLGSV,2,1,8,6,50,047,0.0,7,54,168,20.5,8,07,193,0.0,12,10,261,36.0*66
$GLGSV,2,2,8,13,14,307,30.9,21,45,091,38.2,22,53,334,30.4,23,17,310,0.0*67
$GPRMC,143605.00,A,4124.233497,N,00206.224659,E,000.6,164.8,260426,,,A*53
$GPGGA,143606.00,4124.233323,N,00206.224567,E,1,15,0.84,414.75,M,0.0,M,0.0,0000*78
$GPGSV,2,1,7,1,67,325,29.8,3,51,239,39.9,8,41,163,34.7,14,22,285,37.1*70
$GPGSV,2,2,7,17,20,315,33.2,22,20,302,32.5,27,11,150,28.1*6C
$GLGSV,2,1,8,6,50,047,0.0,7,54,168,20.6,8,07,193,0.0,12,10,261,35.9*6F
$GLGSV,2,2,8,13,14,307,30.1,21,45,091,38.2,22,53,334,27.4,23,17,310,0.0*69
$GPRMC,143606.00,A,4124.233323,N,00206.224567,E,000.6,173.8,260426,,,A*50
$GPGGA,143607.00,4124.233461,N,00206.224859,E,1,16,0.71,414.76,M,0.0,M,0.0,0000*72
$GPGSV,2,1,8,1,67,325,31.1,3,51,239,39.7,8,41,163,34.8,14,22,285,37.1*7E
$GPGSV,2,2,8,17,20,315,29.4,22,20,302,32.4,27,11,150,25.7,32,30,055,21.0*4B
$GLGSV,2,1,8,6,50,047,0.0,7,54,168,20.6,8,07,193,0.0,12,10,261,33.2*62
$GLGSV,2,2,8,13,14,307,29.3,21,45,091,38.3,22,53,334,27.5,23,17,310,0.0*63
$GPRMC,143607.00,A,4124.233461,N,00206.224859,E,000.4,,260426,,,A*71
$GPGGA,143608.00,4124.233096,N,00206.223538,E,1,16,0.71,415.32,M,0.0,M,0.0,0000*7D
$GPGSV,2,1,8,1,67,325,30.9,3,51,239,39.7,8,41,163,34.7,14,22,285,37.1*78
$GPGSV,2,2,8,17,20,315,29.4,22,20,302,32.4,27,11,150,25.5,32,30,055,33.2*48
$GLGSV,2,1,8,6,50,047,0.0,7,54,168,20.7,8,07,193,0.0,12,10,261,30.1*63
$GLGSV,2,2,8,13,14,307,30.6,21,45,091,38.3,22,53,334,28.4,23,17,310,0.0*60
$GPRMC,143608.00,A,4124.233096,N,00206.223538,E,000.7,223.0,260426,,,A*51
$GPGGA,143609.00,4124.232820,N,00206.222855,E,1,17,0.71,415.73,M,0.0,M,0.0,0000*7B
$GPGSV,3,1,9,1,67,325,31.3,2,67,065,35.3,3,51,239,39.7,8,41,163,34.7*49
$GPGSV,3,2,9,14,22,285,37.2,17,20,315,33.4,22,20,302,35.0,27,11,150,25.2*4B
$GPGSV,3,3,9,32,30,055,35.8*62
$GLGSV,2,1,8,6,50,047,0.0,7,54,168,20.8,8,07,193,0.0,12,10,261,30.1*6C
$GLGSV,2,2,8,13,14,307,32.8,21,45,091,35.4,22,53,334,28.7,23,17,310,0.0*65
$GPRMC,143609.00,A,4124.232820,N,00206.222855,E,000.9,230.1,260426,,,A*5E
$GPGGA,143610.00,4124.232776,N,00206.222680,E,1,17,0.71,415.99,M,0.0,M,0.0,0000*7D
$GPGSV,3,1,9,1,67,325,29.5,2,67,065,33.1,3,51,239,39.7,8,41,163,34.6*43
$GPGSV,3,2,9,14,22,285,37.2,17,20,315,33.2,22,20,302,35.0,27,11,150,27.6*4B
$GPGSV,3,3,9,32,30,055,35.8*62
$GLGSV,2,1,8,6,50,047,0.0,7,54,168,26.1,8,07,193,0.0,12,10,261,34.0*66
$GLGSV,2,2,8,13,14,307,35.2,21,45,091,35.4,22,53,334,0.0,23,17,310,0.0*55
$GPRMC,143610.00,A,4124.232776,N,00206.222680,E,000.8,232.8,260426,,,A*56
$GPGGA,143611.00,4124.233002,N,00206.222590,E,1,17,0.71,416.22,M,0.0,M,0.0,0000*78
$GPGSV,3,1,9,1,67,325,30.1,2,67,065,35.0,3,51,239,39.7,8,41,163,31.4*4F
$GPGSV,3,2,9,14,22,285,37.2,17,20,315,33.1,22,20,302,35.1,27,11,150,25.7*4A
$GPGSV,3,3,9,32,30,055,35.8*62
$GLGSV,2,1,8,6,50,047,0.0,7,54,168,26.0,8,07,193,0.0,12,10,261,33.9*69
$GLGSV,2,2,8,13,14,307,33.7,21,45,091,35.4,22,53,334,28.8,23,17,310,0.0*64
$GPRMC,143611.00,A,4124.233002,N,00206.222590,E,000.5,253.1,260426,,,A*53
$GPGGA,143612.00,4124.233288,N,00206.222606,E,1,17,0.71,416.36,M,0.0,M,0.0,0000*72
$GPGSV,3,1,9,1,67,325,28.8,2,67,065,36.0,3,51,239,39.8,8,41,163,29.0*4E
$GPGSV,3,2,9,14,22,285,37.2,17,20,315,33.0,22,20,302,35.1,27,11,150,27.4*4A
$GPGSV,3,3,9,32,30,055,35.8*62
$GLGSV,2,1,8,6,50,047,0.0,7,54,168,26.1,8,07,193,0.0,12,10,261,33.9*68
$GLGSV,2,2,8,13,14,307,33.8,21,45,091,35.3,22,53,334,30.9,23,17,310,0.0*64
$GPRMC,143612.00,A,4124.233288,N,00206.222606,E,000.4,,260426,,,A*76
$GPGGA,143613.00,4124.233622,N,00206.222618,E,1,17,0.71,416.22,M,0.0,M,0.0,0000*7D
$GPGSV,3,1,9,1,67,325,29.5,2,67,065,36.7,3,51,239,39.7,8,41,163,26.9*4C
$GPGSV,3,2,9,14,22,285,37.2,17,20,315,33.0,22,20,302,35.2,27,11,150,25.7*48
$GPGSV,3,3,9,32,30,055,35.8*62
$GLGSV,2,1,8,6,50,047,0.0,7,54,168,28.2,8,07,193,0.0,12,10,261,31.2*6C
$GLGSV,2,2,8,13,14,307,33.8,21,45,091,35.4,22,53,334,31.0,23,17,310,0.0*6B
$GPRMC,143613.00,A,4124.233622,N,00206.222618,E,000.4,,260426,,,A*7C
$GPGGA,143614.00,4124.233907,N,00206.222635,E,1,17,0.71,416.30,M,0.0,M,0.0,0000*7E
$GPGSV,3,1,9,1,67,325,30.7,2,67,065,36.7,3,51,239,39.7,8,41,163,28.1*40
$GPGSV,3,2,9,14,22,285,37.3,17,20,315,33.0,22,20,302,35.2,27,11,150,26.2*4F
$GPGSV,3,3,9,32,30,055,35.8*62
$GLGSV,2,1,8,6,50,047,0.0,7,54,168,28.3,8,07,194,0.0,12,10,261,28.0*60
$GLGSV,2,2,8,13,14,307,33.7,21,45,091,35.4,22,53,334,31.1,23,17,310,0.0*65
$GPRMC,143614.00,A,4124.233907,N,00206.222635,E,000.5,340.7,260426,,,A*53
$GPGGA,143615.00,4124.234248,N,00206.222518,E,1,17,0.71,416.37,M,0.0,M,0.0,0000*73
$GPGSV,3,1,9,1,67,325,31.3,2,67,065,36.6,3,51,239,39.7,8,41,163,25.0*48
$GPGSV,3,2,9,14,22,285,37.3,17,20,315,32.9,22,20,302,35.3,27,11,150,25.8*4F
$GPGSV,3,3,9,32,30,055,35.8*62
$GLGSV,2,1,8,6,50,047,0.0,7,54,168,28.7,8,07,194,0.0,12,10,261,28.0*64
$GLGSV,2,2,8,13,14,307,33.6,21,45,091,35.4,22,53,334,31.2,23,17,310,0.0*67
$GPRMC,143615.00,A,4124.234248,N,00206.222518,E,000.7,342.3,260426,,,A*5D
$GPGGA,143616.00,4124.234670,N,00206.222790,E,1,17,0.71,416.47,M,0.0,M,0.0,0000*7A
$GPGSV,3,1,9,1,67,325,32.9,2,67,065,36.5,3,51,239,39.7,8,41,163,22.3*46
$GPGSV,3,2,9,14,22,285,37.3,17,20,315,32.9,22,20,302,35.4,27,11,150,26.1*42
$GPGSV,3,3,9,32,30,055,35.8*62
$GLGSV,2,1,8,6,50,047,0.0,7,54,168,29.3,8,07,194,0.0,12,10,261,31.1*68
$GLGSV,2,2,8,13,14,307,33.7,21,45,091,35.4,22,53,334,0.0,23,17,310,0.0*56
$GPRMC,143616.00,A,4124.234670,N,00206.222790,E,000.8,001.4,260426,,,A*5F
$GPGGA,143617.00,4124.234905,N,00206.223720,E,1,17,0.71,416.65,M,0.0,M,0.0,0000*7C
$GPGSV,3,1,9,1,67,325,32.0,2,67,065,29.7,3,51,239,39.7,8,41,163,20.9*4B
$GPGSV,3,2,9,14,22,285,37.3,17,20,315,32.8,22,20,302,35.5,27,11,150,27.1*43
$GPGSV,3,3,9,32,30,055,35.8*62
$GLGSV,2,1,8,6,50,047,0.0,7,54,168,28.8,8,07,194,0.0,12,10,261,31.0*63
$GLGSV,2,2,8,13,14,307,33.8,21,45,091,35.3,22,53,334,0.0,23,17,310,0.0*5E
$GPRMC,143617.00,A,4124.234905,N,00206.223720,E,001.0,036.2,260426,,,A*52
$GPGGA,143618.00,4124.235167,N,00206.223974,E,1,16,0.73,416.81,M,0.0,M,0.0,0000*78
$GPGSV,2,1,8,1,67,325,29.9,2,67,065,33.3,3,51,239,39.8,14,22,285,37.2*76
$GPGSV,2,2,8,17,20,315,32.8,22,20,302,35.6,27,11,150,24.2,32,30,055,35.9*40
$GLGSV,2,1,8,6,50,047,0.0,7,54,168,29.8,8,07,194,0.0,12,10,261,30.9*6A
$GLGSV,2,2,8,13,13,307,36.6,21,45,091,35.3,22,53,334,0.0,23,17,310,0.0*52
$GPRMC,143618.00,A,4124.235167,N,00206.223974,E,001.0,036.6,260426,,,A*5B
$GPGGA,143619.00,4124.235337,N,00206.224133,E,1,17,0.71,417.12,M,0.0,M,0.0,0000*7A
$GPGSV,3,1,9,1,67,325,31.1,2,67,065,26.9,3,51,239,39.8,8,41,163,20.8*46
$GPGSV,3,2,9,14,22,285,37.2,17,20,315,32.8,22,20,302,35.7,27,11,150,25.7*44
$GPGSV,3,3,9,32,30,055,36.0*69
$GLGSV,2,1,8,6,50,047,0.0,7,54,168,26.8,8,07,194,0.0,12,10,261,26.5*6E
$GLGSV,2,2,8,13,13,307,36.7,21,45,091,32.3,22,53,335,0.0,23,17,310,0.0*55
$GPRMC,143619.00,A,4124.235337,N,00206.224133,E,000.9,036.1,260426,,,A*5E
$GPGGA,143620.00,4124.235273,N,00206.224256,E,1,17,0.71,417.32,M,0.0,M,0.0,0000*73
$GPGSV,3,1,9,1,67,325,35.4,2,67,065,28.2,3,51,239,39.8,8,41,163,33.3*4B
$GPGSV,3,2,9,14,22,285,37.3,17,20,315,32.8,22,20,302,35.7,27,11,150,29.1*4F
$GPGSV,3,3,9,32,30,055,36.0*69
$GLGSV,2,1,8,6,50,047,0.0,7,54,168,26.8,8,07,194,0.0,12,10,261,31.1*6C
$GLGSV,2,2,8,13,13,307,36.6,21,45,091,32.2,22,53,335,0.0,23,17,310,0.0*55
$GPRMC,143620.00,A,4124.235273,N,00206.224256,E,000.7,044.0,260426,,,A*5F
$GPGGA,143621.00,4124.235496,N,00206.224003,E,1,17,0.71,417.44,M,0.0,M,0.0,0000*7C
$GPGSV,3,1,9,1,67,325,32.5,2,67,065,23.2,3,51,239,39.9,8,41,163,29.9*46
$GPGSV,3,2,9,14,22,285,37.2,17,20,315,32.8,22,20,302,35.8,27,11,150,28.4*45
$GPGSV,3,3,9,32,30,055,36.0*69
$GLGSV,2,1,8,6,50,047,0.0,7,54,168,26.5,8,07,194,0.0,12,10,261,31.2*62
$GLGSV,2,2,8,13,13,307,36.6,21,45,091,32.3,22,53,335,0.0,23,17,310,0.0*54
$GPRMC,143621.00,A,4124.235496,N,00206.224003,E,000.6,017.6,260426,,,A*50
$GPGGA,143622.00,4124.235596,N,00206.223855,E,1,17,0.71,417.77,M,0.0,M,0.0,0000*72
$GPGSV,3,1,9,1,67,325,32.8,2,67,065,22.6,3,51,239,39.9,8,41,163,29.6*41
$GPGSV,3,2,9,14,22,285,37.2,17,20,315,32.8,22,20,302,35.9,27,11,150,28.2*42
$GPGSV,3,3,9,32,30,055,36.0*69
$GLGSV,2,1,8,6,50,047,0.0,7,54,168,27.1,8,07,194,0.0,12,10,261,31.1*64
$GLGSV,2,2,8,13,13,307,36.5,21,45,091,32.3,22,53,335,0.0,23,17,310,0.0*57
$GPRMC,143622.00,A,4124.235596,N,00206.223855,E,000.5,,260426,,,A*73
$GPGGA,143623.00,4124.235455,N,00206.223818,E,1,16,0.71,418.04,M,0.0,M,0.0,0000*7E
$GPGSV,2,1,8,1,67,325,32.9,3,51,239,39.9,8,41,163,27.9,14,22,285,37.2*7B
$GPGSV,2,2,8,17,20,315,32.8,22,20,302,36.0,27,11,150,28.6,32,30,055,36.0*47
$GLGSV,2,1,8,6,50,047,0.0,7,54,168,27.7,8,07,194,0.0,12,10,261,27.3*67
$GLGSV,2,2,8,13,13,307,36.4,21,45,091,32.2,22,53,335,0.0,23,17,310,0.0*57
$GPRMC,143623.00,A,4124.235455,N,00206.223818,E,000.2,,260426,,,A*72
$GPGGA,143624.00,4124.235164,N,00206.223728,E,1,17,0.71,418.27,M,0.0,M,0.0,0000*72
$GPGSV,3,1,9,1,67,325,33.9,2,67,065,20.6,3,51,239,39.9,8,41,163,28.5*41
$GPGSV,3,2,9,14,22,285,37.2,17,20,315,32.7,22,20,302,36.1,27,11,150,29.4*41
$GPGSV,3,3,9,32,30,055,36.0*69
$GLGSV,2,1,8,6,50,047,0.0,7,54,168,27.6,8,07,194,0.0,12,10,261,27.2*67
$GLGSV,2,2,8,13,13,307,31.8,21,45,091,32.3,22,53,335,0.0,23,17,310,0.0*5D
$GPRMC,143624.00,A,4124.235164,N,00206.223728,E,000.1,,260426,,,A*7D
$GPGGA,143625.00,4124.235071,N,00206.223474,E,1,17,0.71,418.02,M,0.0,M,0.0,0000*7B
$GPGSV,3,1,9,1,67,325,33.9,2,67,065,30.1,3,51,239,40.0,8,41,163,25.7*4F
$GPGSV,3,2,9,14,22,285,37.1,17,20,315,32.7,22,20,302,36.1,27,11,150,25.3*49
$GPGSV,3,3,9,32,30,055,36.1*68
$GLGSV,2,1,8,6,50,047,0.0,7,54,168,28.8,8,07,194,0.0,12,10,261,21.1*63
$GLGSV,2,2,8,13,13,307,31.8,21,45,091,32.4,22,53,335,0.0,23,17,310,0.0*5A
$GPRMC,143625.00,A,4124.235071,N,00206.223474,E,000.2,,260426,,,A*70
$GPGGA,143626.00,4124.234951,N,00206.223345,E,1,17,0.71,417.91,M,0.0,M,0.0,0000*72
$GPGSV,3,1,9,1,67,325,34.3,2,67,065,35.8,3,51,239,37.4,8,41,163,22.6*4C
$GPGSV,3,2,9,14,22,285,37.2,17,20,315,35.5,22,20,302,38.9,27,11,150,27.9*41
$GPGSV,3,3,9,32,30,055,36.2*6B
$GLGSV,2,1,8,6,50,047,0.0,7,54,168,30.0,8,07,194,0.0,12,10,261,21.2*61
$GLGSV,2,2,8,13,13,307,31.8,21,45,091,32.5,22,53,335,0.0,23,17,310,0.0*5B
$GPRMC,143626.00,A,4124.234951,N,00206.223345,E,000.3,,260426,,,A*7D
$GPGGA,143627.00,4124.234796,N,00206.223294,E,1,17,0.71,417.85,M,0.0,M,0.0,0000*7E
$GPGSV,3,1,9,1,67,325,31.8,2,67,065,32.8,3,51,239,37.5,8,40,163,24.8*4D
$GPGSV,3,2,9,14,22,285,37.2,17,20,315,35.4,22,20,302,38.9,27,11,150,27.8*41
$GPGSV,3,3,9,32,30,055,36.2*6B
$GLGSV,2,1,8,6,50,047,0.0,7,54,168,30.0,8,07,194,0.0,12,10,261,21.2*61
$GLGSV,2,2,8,13,13,307,29.0,21,45,091,32.6,22,53,335,0.0,23,18,310,0.0*56
$GPRMC,143627.00,A,4124.234796,N,00206.223294,E,000.3,,260426,,,A*74
$GPGGA,143628.00,4124.234833,N,00206.223406,E,1,17,0.71,418.13,M,0.0,M,0.0,0000*7C
$GPGSV,3,1,9,1,67,325,34.4,2,67,065,27.7,3,51,239,37.6,8,40,163,23.2*41
$GPGSV,3,2,9,14,22,285,37.1,17,20,315,32.4,22,20,302,38.8,27,11,150,27.7*4B
$GPGSV,3,3,9,32,30,055,36.3*6A
$GLGSV,2,1,8,6,50,047,0.0,7,54,168,30.1,8,07,194,0.0,12,10,261,27.8*6C
$GLGSV,2,2,8,13,13,307,36.7,21,45,091,35.4,22,53,335,0.0,23,18,310,0.0*5A
$GPRMC,143628.00,A,4124.234833,N,00206.223406,E,000.2,,260426,,,A*77
$GPGGA,143629.00,4124.235067,N,00206.223915,E,1,17,0.71,418.49,M,0.0,M,0.0,0000*75
$GPGSV,3,1,9,1,67,325,34.4,2,67,065,33.5,3,51,239,41.8,8,40,163,28.4*44
$GPGSV,3,2,9,14,22,285,37.1,17,20,315,32.5,22,20,302,35.0,27,11,150,27.3*4B
$GPGSV,3,3,9,32,30,055,36.4*6D
$GLGSV,2,1,8,6,50,047,0.0,7,54,168,30.0,8,07,194,0.0,12,10,261,29.5*6E
$GLGSV,2,2,8,13,13,307,36.7,21,45,091,35.4,22,53,335,0.0,23,18,310,0.0*5A
$GPRMC,143629.00,A,4124.235067,N,00206.223915,E,000.3,,260426,,,A*70
$GPGGA,143630.00,4124.235609,N,00206.224302,E,1,17,0.71,418.68,M,0.0,M,0.0,0000*7B
$GPGSV,3,1,9,1,67,325,34.3,2,67,065,33.3,3,51,239,41.6,8,40,163,30.2*44
$GPGSV,3,2,9,14,22,285,37.2,17,20,315,32.5,22,20,302,34.9,27,11,150,24.3*43
$GPGSV,3,3,9,32,30,055,36.3*6A
$GLGSV,2,1,8,6,50,047,0.0,7,54,168,25.4,8,07,194,0.0,12,10,261,29.7*6C
$GLGSV,2,2,8,13,13,307,33.5,21,45,091,35.4,22,53,335,0.0,23,18,310,0.0*5D
$GPRMC,143630.00,A,4124.235609,N,00206.224302,E,000.6,044.1,260426,,,A*57
$GPGGA,143631.00,4124.235836,N,00206.224853,E,1,17,0.71,418.78,M,0.0,M,0.0,0000*76
$GPGSV,3,1,9,1,67,325,34.2,2,67,065,33.7,3,51,239,41.6,8,40,163,26.8*4C
$GPGSV,3,2,9,14,22,285,37.2,17,20,315,35.8,22,20,302,35.0,27,11,150,22.5*41
$GPGSV,3,3,9,32,30,055,36.2*6B
$GLGSV,2,1,8,6,50,047,0.0,7,54,168,27.5,8,07,194,0.0,12,10,261,30.0*60
$GLGSV,2,2,8,13,13,307,36.6,21,45,091,35.4,22,53,335,0.0,23,18,310,0.0*5B
$GPRMC,143631.00,A,4124.235836,N,00206.224853,E,000.8,052.3,260426,,,A*50
$GPGGA,143632.00,4124.235862,N,00206.224890,E,1,17,0.71,419.08,M,0.0,M,0.0,0000*7D
$GPGSV,3,1,9,1,67,325,30.9,2,67,065,30.1,3,51,239,41.6,8,40,163,23.2*49
$GPGSV,3,2,9,14,22,285,37.1,17,20,315,35.8,22,20,302,35.1,27,11,150,23.6*41
$GPGSV,3,3,9,32,30,055,36.2*6B
$GLGSV,2,1,8,6,50,047,0.0,7,54,168,27.7,8,07,194,0.0,12,10,261,28.8*63
$GLGSV,2,2,8,13,13,307,36.7,21,45,091,35.4,22,53,335,29.4,23,18,310,0.0*65
$GPRMC,143632.00,A,4124.235862,N,00206.224890,E,000.7,052.6,260426,,,A*57
$GPGGA,143633.00,4124.235628,N,00206.224942,E,1,17,0.71,419.28,M,0.0,M,0.0,0000*70
$GPGSV,3,1,9,1,67,325,31.0,2,67,065,32.9,3,51,239,41.6,8,40,163,26.3*4F
$GPGSV,3,2,9,14,22,285,37.0,17,20,315,35.8,22,20,302,37.6,27,11,150,25.4*41
$GPGSV,3,3,9,32,30,055,36.2*6B
$GLGSV,2,1,8,6,50,047,0.0,7,54,168,29.8,8,07,194,0.0,12,10,261,26.8*6C
$GLGSV,2,2,8,13,13,307,36.7,21,45,091,35.4,22,53,335,28.6,23,18,310,0.0*66
$GPRMC,143633.00,A,4124.235628,N,00206.224942,E,000.4,,260426,,,A*74
$GPGGA,143634.00,4124.235822,N,00206.224890,E,1,17,0.71,419.29,M,0.0,M,0.0,0000*7C
$GPGSV,3,1,9,1,67,325,33.1,2,67,065,32.9,3,51,239,38.8,8,40,163,31.9*40
$GPGSV,3,2,9,14,22,285,37.1,17,20,315,33.1,22,20,302,33.5,27,11,150,23.3*49
$GPGSV,3,3,9,32,30,055,32.5*68
$GLGSV,2,1,8,6,50,047,0.0,7,54,168,24.6,8,07,194,0.0,12,10,261,27.5*63
$GLGSV,2,2,8,13,13,307,36.7,21,45,091,35.4,22,53,335,27.8,23,18,310,0.0*67
$GPRMC,143634.00,A,4124.235822,N,00206.224890,E,000.4,,260426,,,A*79
$GPGGA,143635.00,4124.235858,N,00206.224787,E,1,17,0.71,419.13,M,0.0,M,0.0,0000*70
$GPGSV,3,1,9,1,67,325,33.0,2,67,065,32.7,3,51,239,38.8,8,40,163,31.5*43
$GPGSV,3,2,9,14,22,285,37.2,17,20,315,33.1,22,20,302,33.5,27,11,150,18.2*43
$GPGSV,3,3,9,32,30,055,30.2*6D
$GLGSV,2,1,8,6,50,047,0.0,7,54,168,24.4,8,07,194,0.0,12,10,261,27.2*66
$GLGSV,2,2,8,13,13,307,33.7,21,45,091,35.4,22,53,335,30.1,23,18,310,0.0*6D
$GPRMC,143635.00,A,4124.235858,N,00206.224787,E,000.2,,260426,,,A*7A
$GPGGA,143636.00,4124.235733,N,00206.224695,E,1,16,0.76,419.02,M,0.0,M,0.0,0000*75
$GPGSV,2,1,8,1,67,325,33.1,2,67,065,32.2,3,51,239,38.7,8,40,163,32.2*4C
$GPGSV,2,2,8,14,22,285,37.3,17,20,315,33.2,22,20,302,33.5,32,30,055,30.2*48
$GLGSV,2,1,8,6,50,047,0.0,7,54,168,23.8,8,07,194,0.0,12,10,261,26.2*6C
$GLGSV,2,2,8,13,13,307,33.7,21,45,091,35.4,22,53,335,30.1,23,18,310,0.0*6D
$GPRMC,143636.00,A,4124.235733,N,00206.224695,E,000.1,,260426,,,A*7A
$GPGGA,143637.00,4124.235267,N,00206.224308,E,1,16,0.76,419.01,M,0.0,M,0.0,0000*72
$GPGSV,2,1,8,1,67,325,32.6,2,67,065,29.7,3,51,239,38.6,8,40,163,32.2*44
$GPGSV,2,2,8,14,22,285,37.4,17,20,315,33.2,22,20,302,33.5,32,30,055,32.6*49
$GLGSV,2,1,8,6,50,047,0.0,7,54,168,23.8,8,07,194,0.0,12,10,261,28.1*61
$GLGSV,2,2,8,13,13,306,33.8,21,45,091,35.5,22,53,335,0.0,23,18,310,0.0*50
$GPRMC,143637.00,A,4124.235267,N,00206.224308,E,000.4,,260426,,,A*7B
$GPGGA,143638.00,4124.234833,N,00206.223867,E,1,17,0.71,419.13,M,0.0,M,0.0,0000*77
$GPGSV,3,1,9,1,67,325,32.5,2,67,065,29.8,3,51,239,38.5,8,40,163,32.2*4B
$GPGSV,3,2,9,14,22,285,37.5,17,20,315,33.3,22,20,302,33.5,27,11,150,18.3*47
$GPGSV,3,3,9,32,30,055,33.6*6A
$GLGSV,2,1,8,6,50,046,0.0,7,54,168,23.8,8,07,194,0.0,12,10,261,27.9*67
$GLGSV,2,2,8,13,13,306,33.8,21,45,091,35.6,22,53,335,30.3,23,18,310,0.0*63
$GPRMC,143638.00,A,4124.234833,N,00206.223867,E,000.7,213.6,260426,,,A*50
$GPGGA,143639.00,4124.234615,N,00206.223398,E,1,17,0.71,419.47,M,0.0,M,0.0,0000*76
$GPGSV,3,1,9,1,67,325,32.5,2,67,065,30.0,3,51,239,38.4,8,40,163,31.8*43
$GPGSV,3,2,9,14,22,285,37.6,17,20,315,33.3,22,20,302,33.6,27,11,150,22.1*4C
$GPGSV,3,3,9,32,30,055,34.5*6E
$GLGSV,2,1,8,6,50,046,0.0,7,54,168,23.9,8,07,194,0.0,12,10,261,27.9*66
$GLGSV,2,2,8,13,13,306,33.9,21,45,091,35.7,22,53,335,30.0,23,18,310,0.0*60
$GPRMC,143639.00,A,4124.234615,N,00206.223398,E,000.8,222.3,260426,,,A*58
$GPGGA,143640.00,4124.234361,N,00206.223132,E,1,17,0.71,419.78,M,0.0,M,0.0,0000*70
$GPGSV,3,1,9,1,67,325,32.4,2,67,065,29.0,3,51,239,38.3,8,40,163,32.6*40
$GPGSV,3,2,9,14,22,285,37.7,17,20,315,33.2,22,20,302,33.7,27,11,150,22.2*4E
$GPGSV,3,3,9,32,30,055,33.1*6D
$GLGSV,2,1,8,6,50,046,0.0,7,54,168,23.9,8,07,194,0.0,12,10,261,26.8*66
$GLGSV,2,2,8,13,13,306,33.8,21,45,091,35.7,22,53,335,30.1,23,18,310,0.0*60
$GPRMC,143640.00,A,4124.234361,N,00206.223132,E,000.9,221.7,260426,,,A*54
$GPGGA,143641.00,4124.233878,N,00206.222952,E,1,17,0.71,420.19,M,0.0,M,0.0,0000*77
$GPGSV,3,1,9,1,67,325,32.4,2,67,065,27.8,3,51,239,38.3,8,40,163,32.9*49
$GPGSV,3,2,9,14,22,285,37.9,17,20,315,33.2,22,20,302,33.7,27,11,150,22.1*43
$GPGSV,3,3,9,32,30,055,33.1*6D
$GLGSV,2,1,8,6,49,046,0.0,7,54,168,25.3,8,07,194,0.0,12,10,261,28.9*6D
$GLGSV,2,2,8,13,13,306,33.8,21,45,091,35.8,22,53,335,30.1,23,18,310,0.0*6F
$GPRMC,143641.00,A,4124.233878,N,00206.222952,E,001.0,211.6,260426,,,A*54
$GPGGA,143642.00,4124.233244,N,00206.222684,E,1,16,0.76,420.50,M,0.0,M,0.0,0000*7E
$GPGSV,2,1,8,1,67,325,32.3,2,67,065,28.5,3,51,239,38.2,8,40,163,28.8*47
$GPGSV,2,2,8,14,22,285,40.5,17,20,315,33.2,22,20,302,33.7,32,30,055,33.0*4D
$GLGSV,2,1,8,6,49,046,0.0,7,54,168,24.6,8,07,194,0.0,12,10,261,29.1*60
$GLGSV,2,2,8,13,13,306,33.8,21,45,091,35.8,22,53,335,30.1,23,18,310,0.0*6F
$GPRMC,143642.00,A,4124.233244,N,00206.222684,E,001.3,206.3,260426,,,A*56
$GPGGA,143643.00,4124.232827,N,00206.222824,E,1,17,0.71,420.83,M,0.0,M,0.0,0000*7D
$GPGSV,3,1,9,1,67,325,32.3,2,67,065,27.7,3,51,239,38.2,8,40,163,30.4*4F
$GPGSV,3,2,9,14,22,285,40.5,17,20,315,33.3,22,20,302,33.7,27,11,150,19.2*45
$GPGSV,3,3,9,32,30,055,30.3*6C
$GLGSV,2,1,8,6,49,046,0.0,7,54,168,24.5,8,07,194,0.0,12,10,261,29.1*63
$GLGSV,2,2,8,13,13,306,33.7,21,45,091,35.8,22,53,335,0.0,23,18,310,0.0*52
$GPRMC,143643.00,A,4124.232827,N,00206.222824,E,001.2,196.4,260426,,,A*51
$GPGGA,143644.00,4124.232513,N,00206.223021,E,1,16,0.76,421.13,M,0.0,M,0.0,0000*72
$GPGSV,2,1,8,1,67,325,31.4,2,67,066,27.6,3,51,239,38.1,8,40,163,32.2*4E
$GPGSV,2,2,8,14,22,285,40.5,17,20,315,33.3,22,20,302,33.7,32,30,055,30.2*4D
$GLGSV,2,1,8,6,49,046,0.0,7,54,168,24.6,8,07,194,0.0,12,10,261,29.2*63
$GLGSV,2,2,8,13,13,306,30.8,21,45,091,35.9,22,53,335,30.5,23,18,310,0.0*69
$GPRMC,143644.00,A,4124.232513,N,00206.223021,E,001.1,186.7,260426,,,A*51
$GPGGA,143645.00,4124.232513,N,00206.223378,E,1,17,0.71,421.40,M,0.0,M,0.0,0000*7C
$GPGSV,3,1,9,1,67,325,31.9,2,67,066,28.9,3,51,239,38.1,8,40,163,33.8*48
$GPGSV,3,2,9,14,22,285,40.5,17,20,315,33.2,22,20,302,33.7,27,11,150,16.2*4B
$GPGSV,3,3,9,32,30,055,32.1*6C
$GLGSV,2,1,8,6,49,046,0.0,7,54,168,24.7,8,07,194,0.0,12,10,261,29.1*61
$GLGSV,2,2,8,13,13,306,34.2,21,45,091,36.0,22,53,335,29.5,23,18,310,0.0*65
$GPRMC,143645.00,A,4124.232513,N,00206.223378,E,000.8,172.8,260426,,,A*53
$GPGGA,143646.00,4124.232629,N,00206.223742,E,1,17,0.71,421.61,M,0.0,M,0.0,0000*7B
$GPGSV,3,1,9,1,67,325,32.9,2,67,066,30.1,3,51,239,38.1,8,40,163,32.1*42
$GPGSV,3,2,9,14,22,285,40.5,17,20,315,33.2,22,20,302,33.7,27,11,150,23.9*46
$GPGSV,3,3,9,32,30,055,31.7*69
$GLGSV,2,1,8,6,49,046,0.0,7,54,168,23.7,8,07,194,0.0,12,10,261,25.2*69
$GLGSV,2,2,8,13,13,306,34.1,21,45,091,36.1,22,54,335,30.1,23,18,310,0.0*6C
$GPRMC,143646.00,A,4124.232629,N,00206.223742,E,000.6,150.9,260426,,,A*58
$GPGGA,143647.00,4124.232532,N,00206.224114,E,1,17,0.71,421.71,M,0.0,M,0.0,0000*70
$GPGSV,3,1,9,1,67,325,32.3,2,67,066,28.7,3,51,239,38.0,8,40,163,30.4*41
$GPGSV,3,2,9,14,22,285,40.5,17,20,315,33.2,22,20,302,33.7,27,11,150,21.1*4C
$GPGSV,3,3,9,32,30,055,32.0*6D
$GLGSV,2,1,8,6,49,046,0.0,7,54,168,23.8,8,07,194,0.0,12,10,261,22.7*64
$GLGSV,2,2,8,13,13,306,34.0,21,45,091,36.2,22,54,335,28.7,23,18,310,0.0*61
$GPRMC,143647.00,A,4124.232532,N,00206.224114,E,000.6,136.8,260426,,,A*53
$GPGGA,143648.00,4124.232725,N,00206.224492,E,1,17,0.71,421.81,M,0.0,M,0.0,0000*7F
$GPGSV,3,1,9,1,67,325,31.2,2,67,066,29.3,3,51,239,38.0,8,40,163,30.4*46
$GPGSV,3,2,9,14,22,285,40.5,17,20,315,33.2,22,20,302,33.7,27,11,150,23.9*46
$GPGSV,3,3,9,32,30,055,32.9*64
$GLGSV,2,1,8,6,49,046,0.0,7,54,168,23.8,8,07,194,0.0,12,10,261,22.2*61
$GLGSV,2,2,8,13,13,306,34.0,21,45,091,36.2,22,54,335,28.8,23,18,310,0.0*6E
$GPRMC,143648.00,A,4124.232725,N,00206.224492,E,000.6,107.9,260426,,,A*50
$GPGGA,143649.00,4124.233093,N,00206.224471,E,1,17,0.71,422.39,M,0.0,M,0.0,0000*78
$GPGSV,3,1,9,1,67,325,29.1,2,67,066,29.4,3,51,239,38.0,8,40,163,29.2*45
$GPGSV,3,2,9,14,22,285,40.5,17,20,315,33.2,22,20,302,33.8,27,11,150,26.5*40
$GPGSV,3,3,9,32,30,055,32.8*65
$GLGSV,2,1,8,6,49,046,0.0,7,54,168,23.8,8,07,194,0.0,12,10,261,24.9*6C
$GLGSV,2,2,8,13,13,306,33.9,21,45,091,36.4,22,54,335,0.0,23,18,310,0.0*54
$GPRMC,143649.00,A,4124.233093,N,00206.224471,E,000.4,,260426,,,A*74
$GPGGA,143650.00,4124.233202,N,00206.224637,E,1,17,0.71,422.47,M,0.0,M,0.0,0000*73
$GPGSV,3,1,9,1,67,326,29.9,2,67,066,25.4,3,51,239,38.0,8,40,163,30.2*4A
$GPGSV,3,2,9,14,22,285,40.5,17,20,315,33.3,22,20,302,33.7,27,11,150,22.5*4A
$GPGSV,3,3,9,32,30,055,32.7*6A
$GLGSV,2,1,8,6,49,046,0.0,7,54,168,23.9,8,07,194,0.0,12,10,261,24.0*64
$GLGSV,2,2,8,13,13,306,33.9,21,45,091,36.5,22,54,335,28.8,23,18,310,0.0*67
$GPRMC,143650.00,A,4124.233202,N,00206.224637,E,000.4,,260426,,,A*76
