     4.01           OBSERVATION DATA    M                   RINEX VERSION / TYPE
GnssLogger          realme 14           20260427 161945 UTC PGM / RUN BY / DATE
Google GnssLogger                                           MARKER NAME
Unknown                                                     MARKER NUMBER
Unknown             Unknown                                 OBSERVER / AGENCY
Unknown             GnssLogger          v3.1.1.2            REC # / TYPE / VERS
Unknown             Unknown                                 ANT # / TYPE
  4787900.6887   180395.9541  4195970.2955                  APPROX POSITION XYZ
        0.0000        0.0000        0.0000                  ANTENNA: DELTA H/E/N
G    4 C1C D1C S1C L1C                                      SYS / # / OBS TYPES
R    4 C1C D1C S1C L1C                                      SYS / # / OBS TYPES
C    4 C2I D2I S2I L2I                                      SYS / # / OBS TYPES
E    3 C1C D1C S1C                                          SYS / # / OBS TYPES
  2026    04    27    16    19   45.0000000     GPS         TIME OF FIRST OBS
 5 R01  1 R08  6 R22 -3 R23  3 R24  2                       GLONASS SLOT / FRQ #
realme RMX3393 (Android 14) HW Year: 2020 HW Model:         COMMENT
MTK_MNLD_6_0_0_20040301,MNL_VER_24081501ALPS05_6.7o_00      COMMENT
                                                            END OF HEADER
> 2026 04 27 16 19 45.0009999  0 16                      
G03  20300414.21623     -2562.19223        17.85223
G17  21856487.26923     -1627.67423        19.04223
C20  21955635.83025     -2080.08125        35.44825
C30  23997006.01822     -4835.82922        12.90022
E05  24736816.45822       385.31922        15.27422
G19  22572938.18024       514.21424        25.36824
C12  21785616.63123      -870.88123        18.50523
R08  20120949.45721     -4239.16221                
R23  20434052.70021     -4291.84121                
R22  23508523.28821     -5797.69421                
R24  20197699.02421       450.48321                
C11  22494860.83222     -3623.81222        15.40022
C29  21649138.81323     -2365.79923        19.58523
C35  24312478.52122       638.55222        15.58522
E36  23977172.34922     -2528.98022        14.10022
E34  24622752.62322      -307.17422        15.44522
> 2026 04 27 16 19 46.0009999  0 16                      
G03  20300898.08123     -2543.34923        17.96123
G17  21856793.05723     -1613.78123        19.05723
C20  21956032.45525     -2056.68125        35.42525   2025288.10125
C30  23997929.97921     -4797.09321        12.30021                
E05  24736736.11422       444.07322        15.24522
G19  22572839.84824       524.32024        25.28524
C12  21785780.01823      -853.07023        18.57423                
R08  20121739.11021     -4221.15121                
R23  20434851.94621     -4267.51521                
R22  23509591.74821     -5777.76621                
R24  20197612.08421       465.62921                
C11  22495553.35222     -3592.72022        15.40022                
C29  21649589.40123     -2335.27023        19.53523                
C35  24312352.30922       668.27522        15.67522                
E36  23977649.91822     -2500.53122        14.10022
E34  24622808.08522      -283.31622        15.39222
> 2026 04 27 16 19 47.0009999  0 16                      
G03  20301374.45123     -2566.92123        23.14223
G17  21857103.04223     -1638.72723        19.07123
C20  21956428.78125     -2073.88025        35.45325   2027352.44325
C30  23998852.44021     -4832.83321        12.30021                
E05  24736654.27122       396.65322        15.21722
G19  22572743.91523       496.53423        20.91023
C12  21785944.30523      -873.74223        18.62523                
R08  20122532.06121     -4246.21721                
R23  20435652.39221     -4295.79221                
R22  23510674.89821     -5793.51921                
R24  20197525.74421       448.99421                
C11  22496241.67622     -3601.13622        15.49022                
C29  21650040.58923     -2359.51723        19.55823                
C35  24312226.39622       644.75922        15.76122                
E36  23978127.18822     -2522.17322        14.10022
E34  24622867.74322      -314.12322        15.35722
> 2026 04 27 16 19 48.0009999  0 14                      
G03  20301860.71424     -2580.32824        25.13024
G17  21857415.72623     -1656.25623        19.08523
C20  21956829.00425     -2094.34725        35.37025   2029439.07625
G19  22572650.97923       482.76423        20.97923
C12  21786113.98723      -891.10623        22.40023                
R08  20123325.31221     -4256.90721                
R23  20436457.03521     -4311.04521                
R22  23511762.54521     -5816.41421                
R24  20197446.89821       428.61221                
C11  22496935.69522     -3613.59722        15.57522                
C29  21650495.37423     -2375.75723        19.64523                
C35  24312106.77922       622.47822        15.87222                
E36  23978623.04523     -2543.94523        17.60023
E34  24622930.10022      -335.46022        15.32422
> 2026 04 27 16 19 49.0009999  0 15                      
G03  20302355.67224     -2599.67824        26.38024
G17  21857730.50822     -1672.48222        14.70022
C20  21957233.42425     -2112.41325        35.48625   2031545.03625
G19  22572561.04123       462.77223        21.00023
C12  21786285.76823      -908.20023        22.43523                
R08  20124136.25021     -4280.16021                
R23  20437264.07621     -4328.87221                
R22  23512844.79621     -5836.83921                
R24  20197369.25221       414.05221                
G01  20962540.93523     -3436.15523        20.81523
C11  22497632.41322     -3643.85522        15.62622                
C29  21650954.95623     -2395.87323        19.63723                
C35  24311987.76122       619.90222        15.97822                
E36  23979109.00823     -2563.28823        17.67023
E34  24622997.55422      -366.09822        15.20722
> 2026 04 27 16 19 50.0009999  0 16                      
G03  20302852.42824     -2613.51224        26.98124
G17  21858050.68622     -1684.12922        14.70022
G04  21398047.94023       373.70023        19.16723
C20  21957640.54226     -2126.68026        35.57626   2033665.53626
G19  22572474.70123       451.74723        20.93223
C12  21786460.84723      -920.83923        22.45323                
R08  20124938.19521     -4298.75921                
R23  20438081.31121     -4354.46421                
R22  23513941.43721     -5847.11021                
R24  20197293.70521       398.08521                
G01  20963200.47823     -3447.82623        20.36423
C11  22498332.72823     -3666.34623        18.60023                
C29  21651417.23623     -2411.06623        19.59523                
C35  24311873.24022       585.11222        15.91422                
E36  23979597.67023     -2577.31723        17.73623
E34  24623069.80322      -388.43122        15.09622
> 2026 04 27 16 19 51.0009999  0 17                      
G03  20303352.18224     -2632.21324        26.65324
G17  21858373.56323     -1700.20623        18.21723
G04  21397963.09823       355.26923        17.98823
C20  21958050.65806     -2144.21506        35.59706   2035800.74106
C30  24002607.94022     -4921.26822        14.30022                
G19  22572388.66023       441.22923        20.87923
C12  21786640.12323      -941.94623        22.53523                
R08  20125741.33921     -4311.22721                
R23  20438899.74421     -4359.26121                
R22  23515038.07821     -5856.69721                
R24  20197222.35421       376.97921                
G01  20963862.72023     -3461.80823        19.23123
C11  22499036.34123     -3671.57523        18.55523                
C29  21651882.81323     -2435.45823        19.55523                
C35  24311761.71822       576.08822        15.85322                
E36  23980088.43023     -2590.17323        17.76923
E34  24623145.95122      -413.60922        14.99122
> 2026 04 27 16 19 52.0009999  0 17                      
G03  20303854.03424     -2638.25924        25.75524
G17  21858699.73723     -1724.15223        18.21723
G04  21397899.84223       349.50623        17.75723
C20  21958463.77206     -2152.21506        35.63206   2037950.27906
C30  24003553.48622     -4926.04022        14.30022                
G19  22572307.11723       422.67723        20.86023
C12  21786821.19823      -949.22723        22.60323                
R08  20126552.27821     -4331.50821                
R23  20439713.08121     -4371.10621                
R22  23516136.81721     -5868.00921                
R24  20197152.80221       369.83321                
G01  20964520.76423     -3477.63223        19.03723
C11  22499745.05123     -3684.19823        18.57723                
C29  21652350.49023     -2436.35823        19.49223                
C35  24311651.09422       578.93622        15.79522                
E36  23980582.48823     -2603.63123        17.86023
E34  24623225.69622      -426.74822        14.89122
> 2026 04 27 16 19 53.0009999  0 16                      
G03  20304357.98524     -2648.79924        26.63024
G17  21859028.90923     -1733.47323        18.21723
G04  21397832.98823       341.12123        17.75723
C20  21958877.18606     -2161.55006        35.64006   2040106.83406
C30  24004499.93022     -4936.03522        14.30022                
G19  22572228.57123       408.37423        20.88523
C12  21787004.67123      -961.56123        22.67223                
R08  20127357.22121     -4342.14121                
R23  20440531.21521     -4383.84121                
R22  23517248.44821     -5875.64721                
R24  20197084.15021       358.51821                
G01  20965178.50923     -3484.05923        19.52923
C11  22500451.96123     -3690.50623        18.60823                
C29  21652818.46623     -2452.02623        19.41723                
C35  24311543.46922       545.44422        15.69022                
E36  23981076.54623     -2610.89823        17.91723
> 2026 04 27 16 19 54.0009999  0 16                      
G03  20304863.43624     -2661.45424        27.25824
G17  21859362.27823     -1742.92923        18.10523
G04  21397778.42623       314.25723        17.75223
C20  21959293.59706     -2175.48306        35.62806   2042276.75506
C30  24005447.57422     -4950.90722        14.30022                
G19  22572151.82423       407.30223        20.86123
C12  21787190.24223      -970.98823        22.70823                
R08  20128168.45921     -4343.33221                
R23  20441346.65021     -4390.57321                
R22  23518350.78521     -5897.19921                
R24  20197017.89521       345.42821                
G01  20965841.65023     -3489.89323        19.52923
C11  22501162.46923     -3714.73723        18.60223                
C29  21653290.33922     -2457.09022        16.60022                
C35  24311439.44122       546.16522        15.59022                
E36  23981575.10123     -2615.34523        18.01123
> 2026 04 27 16 19 55.0009999  0 16                      
G03  20305370.98424     -2648.47224        25.65324
G17  21859693.24923     -1724.85023        17.99823
G04  21397722.06523       334.18823        17.75623
C20  21959711.20806     -2161.75206        35.65606   2044453.57906
C30  24006399.41622     -4940.21822        14.30022                
G19  22572075.97723       412.07723        20.83623
C12  21787377.31323      -958.16023        22.76223                
R08  20128985.39321     -4340.15621                
R23  20442172.87821     -4386.01821                
R22  23519456.71921     -5886.52921                
R24  20196952.24121       358.70921                
G01  20966501.19323     -3486.12223        19.52023
C11  22501875.37623     -3691.75323        18.59623                
C29  21653763.41222     -2445.08922        16.60022                
C35  24311334.21422       563.46722        15.56522                
E36  23982075.45523     -2610.22423        18.06023
> 2026 04 27 16 19 56.0009999  0 16                      
G03  20305872.23724     -2629.10824        23.77824
G17  21860014.62722     -1699.92922        13.50022
G04  21397653.71323       359.76023        17.76023
C20  21960122.82326     -2138.22126        35.54326                
C30  24007341.96321     -4907.81621        12.10021                
G19  22571992.33523       432.14423        20.74623
C12  21787557.48823      -934.63823        22.76323                
R08  20129791.23621     -4306.75921                
R23  20442986.51521     -4355.02721                
R22  23520549.76221     -5858.66521                
R24  20196884.78821       381.82521                
G01  20967157.73923     -3458.05523        22.74823
C11  22502579.88823     -3672.35723        18.62623                
C29  21654228.68922     -2421.88922        16.58522                
C35  24311223.89022       577.54922        15.54122                
E36  23982568.01423     -2595.98023        18.15723
> 2026 04 27 16 19 57.0009999  0 16                      
G03  20306373.19024     -2630.70224        23.79924
G17  21860339.60222     -1715.07322        13.50022
G04  21397585.36023       355.87423        17.76323
C20  21960534.43805     -2146.35405        35.46505   2048738.97305
C30  24008281.81221     -4881.02321        12.10021                
G19  22571910.19223       426.76023        20.67023
C12  21787738.26323      -946.72723        22.64923                
R08  20130596.77821     -4320.91621                
R23  20443804.34921     -4365.29521                
R22  23521648.50221     -5867.73121                
R24  20196812.53821       374.15121                
G01  20967824.17723     -3471.94423        19.98723
C11  22503285.60023     -3673.84923        18.66423                
C29  21654692.16922     -2411.84322        16.57022                
C35  24311111.46823       575.12323        20.00023                
E36  23983062.37123     -2597.47523        18.14923
> 2026 04 27 16 19 58.0009999  0 16                      
G03  20306875.94224     -2646.89724        23.73124
G17  21860666.07622     -1709.84522        13.50022
G04  21397528.69923       343.53323        17.81723
C20  21960948.15205     -2159.55505        35.42105   2050893.20805
C30  24009220.16321     -4896.14021        12.10021                
G19  22571829.84723       418.80223        20.66923
C12  21787921.43623      -958.41023        22.65623                
R08  20131409.81521     -4347.06921                
R23  20444616.48721     -4374.66521                
R22  23522740.94521     -5879.97721                
R24  20196744.48521       360.87521                
G01  20968490.91623     -3483.66923        20.06723
C11  22503991.91123     -3687.73223        18.71023                
C29  21655160.74422     -2446.66822        16.47122                
C35  24311005.04123       562.59223        20.04523                
E36  23983557.92823     -2607.57223        18.23123
> 2026 04 27 16 19 59.0009999  0 15                      
G03  20307379.59424     -2656.50924        23.67624
G17  21860989.55222     -1733.20622        16.50322
G04  21397455.85023       331.92123        17.90823
C20  21961363.96405     -2167.29005        35.38905   2053057.16805
G19  22571751.30223       412.86523        20.65623
C12  21788106.10823      -966.53223        22.69823                
R08  20132221.35321     -4339.66421                
R23  20445440.01621     -4383.96521                
R22  23523843.58221     -5889.08321                
R24  20196678.23121       352.34021                
G01  20969157.35423     -3493.33423        22.67423
C11  22504701.22023     -3695.67823        18.72923                
C29  21655631.71822     -2449.16322        16.37722                
C35  24310896.51723       554.69323        20.03223                
E36  23984054.98423     -2618.39223        18.30923
> 2026 04 27 16 20 00.0009999  0 15                      
G03  20307887.14224     -2658.73624        23.68424
G17  21861319.02422     -1736.85522        16.50322
G04  21397385.69823       328.20323        17.96723
C20  21961780.97505     -2173.35705        31.80005   2055227.54505
G19  22571673.05623       404.62523        20.61923
C12  21788291.97923      -970.40923        22.61823                
R08  20133032.59221     -4349.40921                
R23  20446261.14821     -4395.98321                
R22  23524946.81821     -5898.09521                
R24  20196611.67721       347.62021                
G01  20969819.29623     -3500.54923        22.63023
C11  22505411.42823     -3699.74723        18.70723                
C29  21656102.39222     -2457.68522        16.28822                
C35  24310792.48923       539.24223        20.02523                
E36  23984554.13923     -2623.49623        18.30823
> 2026 04 27 16 20 01.0009999  0 16                      
G03  20308393.49224     -2665.53424        23.61824
G17  21861645.19822     -1756.06922        13.00022
G04  21397331.13623       312.44423        17.93923
C20  21962199.18605     -2178.27105        31.79505   2057403.06605
C30  24012060.69622     -4941.50922        13.80022                
G19  22571595.70923       401.96323        17.59223
C12  21788479.05023      -977.39623        22.54223                
R08  20133845.02921     -4359.05421                
R23  20447082.27921     -4398.07221                
R22  23526053.35221     -5899.83521                
R24  20196545.42321       341.23921                
G01  20970485.43523     -3503.43823        22.51923
C11  22506124.03523     -3713.18823        18.68623                
C29  21656575.16522     -2460.44522        16.23322                
C35  24310687.56123       542.58823        19.96323                
E36  23985053.89323     -2633.85323        18.25223
> 2026 04 27 16 20 02.0009999  0 17                      
G03  20308901.34024     -2658.44524        23.62424
G17  21861979.16722     -1745.68522        13.00022
G04  21397270.27823       320.78223        17.91323
C20  21962617.39605     -2175.73905        31.81005   2059580.49405
C30  24013008.94022     -4936.25022        13.80022                
E05  24735786.97121       281.05121        12.20021
G19  22571520.16223       394.16823        17.59223
C12  21788666.12023      -966.48923        17.90023                
R08  20134646.07521     -4354.54021                
R23  20447902.21221     -4397.75521                
R22  23527158.68721     -5896.15421                
R24  20196482.16621       344.42521                
G01  20971150.37523     -3496.56623        19.98723
C11  22506835.74223     -3697.20823        18.68123                
C29  21657047.33822     -2453.19322        16.18122                
C35  24310583.53323       544.32923        19.90423                
E36  23985555.14623     -2628.98923        18.19423
> 2026 04 27 16 20 03.0009999  0 17                      
G03  20309407.98924     -2665.02424        23.62324
G17  21862310.13822     -1743.82022        13.00022
G04  21397209.12023       319.50923        17.88823
C20  21963035.90705     -2174.85705        31.76405   2061757.66405
C30  24013956.88422     -4932.77622        13.80022                
E05  24735733.30821       285.55921        12.20021
G19  22571446.41323       392.13623        17.61123
C12  21788852.89123      -970.32123        17.92523                
R08  20135459.71121     -4352.96421                
R23  20448719.14621     -4396.40021                
R22  23528264.62121     -5893.68421                
R24  20196418.61021       345.59721                
G01  20971816.21423     -3495.61723        19.98423
C11  22507547.14923     -3709.43423        18.63123                
C29  21657516.81321     -2457.79321        10.90021                
C35  24310479.50523       537.97623        19.86323                
E36  23986054.90023     -2616.45423        18.16423
> 2026 04 27 16 20 04.0009999  0 17                      
G03  20309915.23824     -2672.57524        23.62724
G17  21862644.10622     -1741.21922        12.80022
G04  21397141.66723       314.19023        17.95523
C20  21963454.41705     -2186.51605        31.83005   2063938.56905
C30  24014904.82722     -4945.16822        13.88022                
E05  24735680.24521       271.80521        12.20021
G19  22571372.96423       379.77623        17.62923
C12  21789041.16123      -981.48623        17.93823                
R08  20136271.24921     -4357.03821                
R23  20449541.47721     -4403.05721                
R22  23529369.65621     -5909.40221                
R24  20196355.35421       332.40321                
G01  20972484.45123     -3509.71223        19.98623
C11  22508260.05623     -3712.47723        18.62423                
C29  21657991.68421     -2482.35621        10.90021                
C35  24310376.67623       526.70623        19.82423                
E36  23986554.35423     -2641.04723        18.10523
> 2026 04 27 16 20 05.0009999  0 17                      
G03  20310425.78524     -2681.30924        23.64424
G17  21862976.57622     -1760.12422        12.80022
G04  21397082.60823       302.34523        18.01823
C20  21963875.62525     -2196.26725        31.81825                
C30  24015856.96822     -4963.47522        13.95622                
E05  24735629.58021       261.36421        12.20021
G19  22571301.61323       384.77123        17.65823
C12  21789231.52923      -989.70023        17.95123                
R08  20137086.08521     -4368.64921                
R23  20450366.20621     -4421.22521                
R22  23530479.78821     -5916.97421                
R24  20196295.39621       324.26821                
G01  20973152.68923     -3517.33723        20.04823
C11  22508975.06123     -3729.04623        18.61723                
C29  21658469.85321     -2496.30121        10.90021                
C35  24310275.94623       523.64623        19.72223                
E36  23987058.00523     -2649.28923        17.98923
> 2026 04 27 16 20 06.0009999  0 17                      
G03  20310935.13224     -2673.74724        23.62424
G17  21863312.94322     -1758.80022        12.80022
G04  21397022.64923       324.18923        18.07823
C20  21964296.83425     -2182.23725        31.72725   2068323.87925
C30  24016809.10922     -4945.58322        13.93822                
E05  24735579.21521       277.16721        12.20021
G19  22571228.46423       389.63523        17.68523
C12  21789420.99823      -973.48123        17.94323                
R08  20137908.71621     -4356.18821                
R23  20451195.73221     -4410.87421                
R22  23531588.42021     -5899.98521                
R24  20196234.83821       338.05121                
G01  20973821.22623     -3502.96023        20.05823
C11  22509689.46623     -3709.82623        18.59123                
C29  21658947.72322     -2467.57822        15.90022                
C35  24310173.71723       542.55323        19.61023                
E36  23987560.75723     -2633.36123        17.87923
> 2026 04 27 16 20 07.0009999  0 17                      
G03  20311440.88224     -2647.25924        23.54924
G17  21863642.41522     -1724.37922        14.20022
G04  21396958.19423       334.17823        18.06523
C20  21964712.94625     -2161.24825        31.71525                
C30  24017756.75322     -4918.52622        13.92122                
E05  24735523.75321       296.01821        12.22521
G19  22571148.71923       408.31423        17.71523
C12  21789606.86923      -963.60323        17.92523                
R08  20138719.65421     -4339.18421                
R23  20452018.36221     -4389.66821                
R22  23532691.65721     -5881.91521                
R24  20196169.78321       357.76321                
G01  20974484.66623     -3483.21223        20.05423
C11  22510400.27423     -3692.69923        18.59623                
C29  21659419.29622     -2443.87322        15.90022                
C35  24310068.19023       558.93323        19.58423                
E36  23988057.21423     -2607.83723        17.87023
> 2026 04 27 16 20 08.0009999  0 17                      
G03  20311944.23424     -2631.69024        23.53324
G17  21863967.39022     -1708.85022        14.20022
G04  21396905.13123       341.29423        18.04923
C20  21965127.55925     -2150.51525        31.68925   2072649.88525
C30  24018699.00122     -4901.27222        13.90422                
E05  24735465.89321       308.55221        12.24821
G19  22571068.97423       425.72323        17.74323
C12  21789791.24123      -952.27123        17.96823                
R08  20139534.79021     -4333.25121                
R23  20452837.39521     -4367.43221                
R22  23533792.49421     -5867.39821                
R24  20196103.22921       368.56921                
G01  20975146.60823     -3475.31123        20.06923
C11  22511107.48523     -3679.33823        18.64623                
C29  21659888.17122     -2440.36522        15.90022                
C35  24309959.66523       565.71023        19.55923                
E36  23988552.47123     -2603.38523        17.86123
> 2026 04 27 16 20 09.0009999  0 17                      
G03  20312444.58724     -2629.50324        23.58624
G17  21864288.76823     -1705.76023        17.59223
G04  21396839.17623       359.53823        18.03423
C20  21965539.77305     -2142.38405        31.71405   2074796.21805
C30  24019640.94922     -4882.94422        13.90822                
E05  24735406.23521       317.29221        12.27021
G19  22570986.83123       422.14523        17.77023
C12  21789972.01623      -937.00223        18.02923                
R08  20140343.63021     -4321.09021                
R23  20453654.63021     -4375.90021                
R22  23534891.53421     -5862.51321                
R24  20196033.67721       377.59621                
G01  20975807.05123     -3462.78423        20.13223
C11  22511813.79623     -3678.23923        18.66823                
C29  21660357.94622     -2453.40822        15.88522                
C35  24309849.04223       580.45623        19.65123                
E36  23989051.02623     -2592.06623        17.77723
> 2026 04 27 16 20 10.0009999  0 17                      
G03  20312944.94124     -2640.42124        23.70324
G17  21864614.04323     -1710.00623        17.59223
G04  21396771.12423       352.59723        18.02023
C20  21965952.28805     -2155.24905        34.90005   2076945.66305
C30  24020580.49822     -4916.79822        13.91222                
E05  24735346.57621       309.16721        12.29121
G19  22570905.28723       429.89423        17.79623
C12  21790153.69023      -951.26823        22.50023                
R08  20141150.97121     -4324.81721                
R23  20454473.66321     -4388.75321                
R22  23535992.97121     -5875.25421                
R24  20195963.52521       365.43221                
G01  20976469.29224     -3473.76924        23.58124
C11  22512520.40623     -3689.91123        18.68923                
C29  21660826.82222     -2437.34122        15.87022                
C35  24309738.41823       563.15123        19.70823                
E36  23989542.68523     -2605.23123        17.81823
> 2026 04 27 16 20 11.0009999  0 17                      
G03  20313447.99324     -2655.25124        26.74224
G17  21864942.31523     -1731.77223        17.59223
G04  21396697.97423       332.31523        17.96323
C20  21966366.90105     -2168.11705        34.89505   2079107.67405
C30  24021527.54323     -4929.40623        18.00023                
E05  24735285.41821       294.28321        12.20121
G19  22570825.24323       401.18323        17.73623
C12  21790338.66223      -964.30823        22.53523                
R08  20141967.00621     -4343.54821                                
R23  20455299.89121     -4387.35921                                
R22  23537094.40921     -5890.72921                                
R24  20195896.37221       348.93221                    193772.06821
G01  20977131.83424     -3490.27924        23.62424
C11  22513230.31523     -3701.56823        18.73923                
C29  21661296.89622     -2447.13722        15.83622                
C35  24309631.09323       552.52423        19.72723                
E36  23990034.64523     -2620.20423        20.50023
> 2026 04 27 16 20 12.0009999  0 17                      
G03  20313955.54124     -2667.33724        25.10324
G17  21865270.88823     -1738.91623        17.56623
G04  21396640.71423       317.68823        18.04123
C20  21966785.11105     -2182.98405        34.85505   2081283.84205
C30  24022474.28723     -4932.34023        18.00023                
E05  24735230.85621       275.98921        12.11521
G19  22570750.29523       385.51423        17.67923
C12  21790526.03323      -984.60223        22.50323                
R08  20142781.54321     -4361.14121                                
R23  20456118.92421     -4411.71021                                
R22  23538198.54421     -5896.87221                                
R24  20195832.21621       337.24521                                
G01  20977797.97324     -3503.13824        23.63924
C11  22513942.02223     -3713.81023        18.81223                
C29  21661768.77022     -2466.60122        15.91422                
C35  24309527.06523       545.12723        19.71023                
E36  23990531.10123     -2632.91723        20.42023
> 2026 04 27 16 20 13.0009999  0 17                      
G03  20314463.98923     -2668.69223        23.41623
G17  21865603.35823     -1743.56323        17.54123
G04  21396578.35723       314.05823        18.08423
C20  21967205.12005     -2184.85205        31.90005   2083470.47605
C30  24023424.32923     -4951.74623        18.00023                
E05  24735179.29221       273.53021        12.03421
G19  22570677.44523       394.00423        17.62523
C12  21790714.90223      -981.26623        22.49223                
R08  20143593.08121     -4370.67621                                
R23  20456945.45121     -4416.64121                                
R22  23539305.07821     -5903.20321                                
R24  20195769.26021       333.48721                                
G01  20978465.31124     -3503.63224        23.61024
C11  22514655.82823     -3712.56323        18.84623                
C29  21662243.64122     -2472.27322        15.98822                
C35  24309424.53623       540.16423        19.77923                
E36  23991035.05223     -2631.47623        17.60023
> 2026 04 27 16 20 14.0009999  0 17                      
G03  20314972.73724     -2681.15824        23.54824
G17  21865937.32723     -1750.61023        17.59623
G04  21396518.99823       308.50523        18.12523
C20  21967626.02926     -2190.88226        35.50026                
C30  24024378.56922     -4974.36422        14.50022                
E05  24735127.72721       267.18621        11.95721
G19  22570598.90023       384.03623        17.69523
C12  21790904.37123      -990.73823        22.42723                
R08  20144409.71521     -4363.05621                                
R23  20457770.18021     -4406.72221                                
R22  23540409.81321     -5905.23121                                
R24  20195707.50321       325.79121                                
G01  20979132.94824     -3511.98624        23.58324
C11  22515370.23423     -3720.92223        18.87823                
C29  21662717.31322     -2469.53922        16.05822                
C35  24309321.40723       530.24023        19.81523                
E36  23991536.90523     -2640.18423        17.51523
> 2026 04 27 16 20 15.0009999  0 17                      
G03  20315483.88324     -2685.06824        26.09624
G17  21866273.09423     -1771.53623        17.64823
G04  21396460.83823       301.77323        18.16423
C20  21968047.23705     -2200.35005        35.46505   2087855.57105
C30  24025333.70822     -4964.51622        14.50022                
E05  24735077.66221       256.71621        11.88421
G19  22570527.84923       365.80523        17.76223
C12  21791095.93823      -998.22223        22.51023                
R08  20145222.75221     -4363.15321                                
R23  20458596.10921     -4422.99021                                
R22  23541517.84621     -5923.59821                                
R24  20195646.94521       320.35421                                
G01  20979803.28424     -3520.04524        23.67724
C11  22516084.93923     -3728.75723        18.88923                
C29  21663192.18422     -2473.26822        15.94022                
C35  24309220.97723       516.69623        19.72423                
E36  23992039.65723     -2639.51023        17.59923
> 2026 04 27 16 20 16.0009999  0 17                      
G03  20315995.02924     -2691.01524        24.56924
G17  21866611.56023     -1772.16623        17.63223
G04  21396414.97023       287.72023        18.21023
C20  21968470.54405     -2207.01605        31.60005   2090060.42905
C30  24026286.44822     -4959.48922        14.50022                
E05  24735029.39521       252.25821        11.81421
G19  22570457.99723       366.44923        17.82523
C12  21791288.10523      -996.36923        22.43923                
R08  20146043.28421     -4401.01021                                
R23  20459437.92621     -4437.11321                                
R22  23542627.37821     -5922.03621                                
R24  20195588.78521       312.25821                                
G01  20980474.22024     -3525.61624        23.63024
C11  22516802.04223     -3742.38923        18.89923                
C29  21663669.15422     -2489.61822        15.82822                
C35  24309121.14623       517.09623        19.80223                
E36  23992543.60823     -2654.56223        17.58423
> 2026 04 27 16 20 17.0009999  0 17                      
G03  20316507.67424     -2693.87324        24.47724
G17  21866948.22723     -1779.22323        17.61723
G04  21396361.30723       285.14923        18.25423
C20  21968894.75125     -2212.07225        31.57525                
C30  24027240.38822     -4965.22122        14.61022                
E05  24734982.02821       245.99621        11.74821
G19  22570377.65323       362.86923        17.79223
C12  21791480.87223     -1011.46123        19.30023                
R08  20146868.01421     -4385.97021                                
R23  20460267.45221     -4439.99721                                
R22  23543737.51021     -5925.41821                                
R24  20195531.22521       308.95321                                
G01  20981146.35524     -3531.29224        23.58524
C11  22517520.64523     -3748.28823        18.93923                
C29  21664147.02322     -2495.85122        15.83122                
C35  24309023.11323       510.77823        19.80123                
E36  23993048.15823     -2656.22923        17.50923
> 2026 04 27 16 20 18.0009999  0 17                      
G03  20317021.51924     -2708.56124        24.45724
G17  21867287.59223     -1781.65823        17.70323
G04  21396307.94423       274.14123        18.29623
C20  21969321.05625     -2224.07225        31.59625   2094488.56125
C30  24028194.62722     -4978.69722        14.71422                
E05  24734936.16021       234.15321        11.68521
G19  22570309.60023       347.91023        17.76023
C12  21791676.03723     -1021.71223        19.32523                
R08  20147689.14521     -4400.67421                                
R23  20461098.77621     -4449.08721                                
R22  23544849.44021     -5942.42021                                
R24  20195475.16321       292.91321                                
G01  20981819.38924     -3543.75624        23.53924
C11  22518240.44723     -3752.02723        18.99223                
C29  21664627.89022     -2517.92322        15.83422                
C35  24308926.28123       497.92623        19.83023                
E36  23993554.50822     -2672.10122        17.43822
> 2026 04 27 16 20 19.0009999  0 17                      
G03  20317536.56224     -2703.22024        24.41924
G17  21867623.06023     -1783.53723        17.73223
G04  21396250.08423       286.20923        18.23023
C20  21969747.66025     -2221.54125        31.62625   2096710.95125
C30  24029152.46422     -4978.54722        13.30022                
E05  24734890.89122       236.53722        15.80022
G19  22570242.74623       352.63823        17.73023
C12  21791871.80123     -1013.40323        19.34323                
R08  20148507.57821     -4396.18921                                
R23  20461913.31221     -4442.66821                                
R22  23545961.97021     -5936.29921                                
R24  20195420.30121       296.27121                                
G01  20982491.82323     -3537.77123        23.48423
C11  22518960.54823     -3750.20823        19.02223                
C29  21665110.25622     -2508.40422        15.83722                
C35  24308830.04723       501.81223        19.85823                
E36  23994063.85522     -2675.77122        17.32622
> 2026 04 27 16 20 20.0009999  0 17                      
G03  20318051.00624     -2691.16724        24.39124
G17  21867962.72423     -1778.31023        17.75923
G04  21396195.82223       300.12223        18.16723
C20  21970173.36525     -2205.60925        31.69925   2098926.01025
C30  24030108.50222     -4959.07722        13.30022                
E05  24734845.02322       252.04622        15.80022
G19  22570178.29123       376.71323        17.71423
C12  21792066.06723     -1001.32623        19.34023                
R08  20149327.81121     -4381.24321                                
R23  20462743.13821     -4429.17521                                
R22  23547072.40121     -5918.34221                                
R24  20195364.24021       312.32621                                
G01  20983164.85723     -3525.31823        23.47823
C11  22519679.75023     -3740.83523        19.05023                
C29  21665592.92222     -2498.79522        13.60022                
C35  24308731.41523       523.63323        19.79523                
E36  23994570.80422     -2648.57922        17.21922
> 2026 04 27 16 20 21.0009999  0 17                      
G03  20318561.25324     -2655.95824        24.40524
G17  21868304.48823     -1734.14923        17.84723
G04  21396138.26223       332.45523        18.11223
C20  21970593.37505     -2170.54305        34.90005   2101111.07405
C30  24031057.64522     -4919.57722        13.30022                
E05  24734793.15922       293.31422        15.80022
G19  22570101.84423       411.09023        17.75623
C12  21792254.63624      -967.82424        23.80024                
R08  20150137.25021     -4348.52521                                
R23  20463566.06821     -4388.12421                                
R22  23548178.93521     -5887.35021                                
R24  20195302.48321       348.65421                                
G01  20983831.59624     -3489.30824        23.57924
C11  22520393.25623     -3691.84723        19.08723                
C29  21666067.49422     -2449.65822        13.60022                
C35  24308627.68723       562.68123        19.81523                
E36  23995070.25922     -2609.22422        17.27822
> 2026 04 27 16 20 22.0009999  0 17                      
G03  20319066.10324     -2655.44124        24.48224
G17  21868633.36023     -1737.12723        17.95123
G04  21396073.80623       324.71623        18.09823
C20  21971009.48705     -2167.67705        34.80505   2103279.93405
C30  24032008.88623     -4922.44623        18.50023                
E05  24734737.09822       296.97322        15.80022
G19  22570027.49523       405.37423        17.78223
C12  21792440.80724      -970.16124        23.76024                
R08  20150948.18921     -4342.49821                                
R23  20464386.90021     -4393.72321                                
R22  23549281.87121     -5885.95321                                
R24  20195237.42821       350.54321                                
G01  20984495.93624     -3487.04724        23.62424
C11  22521103.16523     -3700.96023        19.18223                
C29  21666539.66722     -2459.96422        13.60022                
C35  24308520.06223       560.70023        19.80923                
E36  23995565.81523     -2613.30223        18.90023
> 2026 04 27 16 20 23.0009999  0 17                      
G03  20319571.55324     -2656.92824        24.51524
G17  21868965.23023     -1738.32623        17.97823
G04  21396013.84823       313.39223        18.08423
C20  21971426.79805     -2173.54505        34.72905   2105451.46205
C30  24032956.83023     -4938.53723        18.50023                
E05  24734680.13722       288.19322        12.60022
G19  22569947.45123       399.43923        17.82123
C12  21792627.57824      -970.55724        23.65224                
R08  20151763.32521     -4351.33421                                
R23  20465208.63121     -4390.79721                                
R22  23550385.10821     -5887.26521                                
R24  20195173.27221       345.56421                                
G01  20985160.27624     -3496.59624        23.66524
C11  22521814.87223     -3704.31823        19.18223                
C29  21667012.43922     -2458.18222        14.90022                
C35  24308414.83523       550.35723        19.82823                
E36  23996064.07122     -2619.87222        17.10022
> 2026 04 27 16 20 24.0009999  0 17                      
G03  20320078.20324     -2658.46624        24.53024
G17  21869295.60223     -1738.03823        18.05523
G04  21395952.99023       332.19923        18.07123
C20  21971844.40905     -2174.81405        32.00005   2107626.60805
C30  24033904.17423     -4928.53723        18.50023                
E05  24734626.17522       284.10822        12.60022
G19  22569872.20323       387.71723        17.85823
C12  21792814.94824      -973.56224        23.57924                
R08  20152575.76221     -4349.61621                                
R23  20466023.46721     -4400.42621                                
R22  23551489.84321     -5900.00121                                
R24  20195109.41721       343.78821                    189552.85821
G01  20985825.81524     -3497.48024        23.66024
C11  22522526.57923     -3700.56023        19.18223                
C29  21667485.51222     -2471.52622        14.90022                
C35  24308310.20723       544.54523        19.82123                
E36  23996563.22523     -2614.17823        18.00023
> 2026 04 27 16 20 25.0009999  0 17                      
G03  20320583.65324     -2655.56024        24.49524
G17  21869625.97323     -1736.01323        18.09723
G04  21395879.84123       324.18223        18.00223
C20  21972261.72005     -2170.74805        32.10505   2109799.07205
C30  24034850.91922     -4927.31122        15.00022                
E05  24734571.61222       289.94922        12.60022
G19  22569796.65523       401.90323        17.89323
C12  21793001.71923      -965.72723        23.49523                
R08  20153388.20021     -4351.84821                                
R23  20466846.09721     -4394.70721                                
R22  23552593.07921     -5881.10321                                
R24  20195046.76021       349.48821                                
G01  20986490.75524     -3492.56124        23.70124
C11  22523236.18823     -3693.00123        19.15223                
C29  21667958.88422     -2456.41722        14.86022                
C35  24308203.78123       559.51023        19.83423                
E36  23997059.98123     -2615.63823        18.00023
> 2026 04 27 16 20 26.0009999  0 17                      
G03  20321087.90424     -2656.48124        24.48824
G17  21869953.64623     -1730.31023        18.18823
G04  21395811.18823       319.29223        18.04423
C20  21972679.03105     -2173.15005        32.12405   2111969.89905
C30  24035797.36422     -4938.96622        15.00022                
E05  24734516.15122       287.28622        12.60022
G19  22569722.60623       405.57723        17.99723
C12  21793187.29023      -976.39823        23.43523                
R08  20154199.73821     -4351.04921                                
R23  20467667.52921     -4392.12021                                
R22  23553695.71621     -5890.73021                                
R24  20194981.40521       343.95521                                
G01  20987155.99424     -3493.64524        23.64724
C11  22523946.69623     -3701.59223        19.14423                
C29  21668430.45822     -2455.02122        14.82222                
C35  24308097.05523       549.92223        19.82723                
E36  23997557.33722     -2605.72322        15.90022
> 2026 04 27 16 20 27.0009999  0 18                      
G03  20321594.55324     -2661.08124        24.46824
G17  21870281.31923     -1736.13123        18.26623
G04  21395760.52323       335.21623        18.15223
C20  21973096.94205     -2174.95305        34.70005   2114144.67605
C30  24036745.90722     -4928.56122        15.12022                
E05  24734460.98922       285.53422        12.68022
G19  22569640.76323       394.82223        20.61723
C12  21793373.46123      -968.09423        23.36823                
R08  20155009.17721     -4353.40821                                
R23  20468489.26021     -4394.27721                                
R22  23554798.65221     -5886.69821                                
R24  20194917.84921       343.43621                                
G01  20987822.13324     -3495.37924        23.72224
G02  23244010.70622     -4555.59622        13.10022
C11  22524658.10423     -3701.72023        19.25623                
C29  21668903.53022     -2464.70522        14.78522                
C35  24307991.52823       549.32723        19.82523                
E36  23998055.59222     -2623.78922        15.99522
> 2026 04 27 16 20 28.0009999  0 18                      
G03  20322101.50224     -2656.23524        24.45524
G17  21870612.59023     -1744.26323        20.81523
G04  21395700.56523       327.69023        18.25223
C20  21973515.45205     -2172.82005        34.62505   2116320.70705
C30  24037693.25123     -4925.42023        19.20023                
E05  24734406.72722       287.49722        12.75622
G19  22569570.61123       395.25723        20.65423
C12  21793560.53223      -971.64423        23.31423                
R08  20155827.31121     -4344.33921                                
R23  20469311.89021     -4394.94321                                
R22  23555899.49021     -5879.35821                                
R24  20194852.79421       345.23921                    188174.60321
G01  20988485.87424     -3492.82824        23.81624
G02  23244885.50123     -4557.50023        18.57223
C11  22525369.21123     -3708.00723        19.28323                
C29  21669376.30322     -2459.15422        14.79522                
C35  24307885.70123       548.58223        19.82823                
E36  23998555.34622     -2614.20122        16.02522
> 2026 04 27 16 20 29.0009999  0 18                      
G03  20322606.35224     -2650.16724        24.46824
G17  21870945.65923     -1734.11323        20.81523
G04  21395628.91423       336.14323        18.25723
C20  21973932.46305     -2165.95305        34.63305   2118493.42105
C30  24038638.79723     -4919.22423        19.21023                
E05  24734352.16422       298.51522        12.82822
G19  22569499.56123       410.90923        20.66623
C12  21793746.40323      -964.27923        23.27323                
R08  20156637.65021     -4341.13021                                
R23  20470135.42021     -4387.45121                                
R22  23556999.42921     -5879.81021                                
R24  20194788.93921       352.44721                                
G01  20989150.51324     -3485.80824        23.89624
G02  23245752.80023     -4550.27923        18.57223
C11  22526080.01923     -3691.96823        19.33323                
C29  21669849.67522     -2464.43622        14.80522                
C35  24307780.47423       560.73623        19.85623                
E36  23999052.40222     -2610.37222        16.12822
> 2026 04 27 16 20 30.0009999  0 18                      
G03  20323110.60324     -2640.00224        24.51524
G17  21871276.03123     -1718.17923        20.83623
G04  21395565.35823       333.41523        18.26223
C20  21974347.37625     -2157.22125        34.60125                
C30  24039580.14523     -4906.68123        19.28423                
E05  24734294.90422       307.34322        12.89622
G19  22569421.31523       415.89023        20.72323
C12  21793930.77623      -954.78323        23.28923                
R08  20157443.49221     -4341.18421                                
R23  20470953.85421     -4388.41421                                
R22  23558099.66721     -5870.63721                                
R24  20194723.28421       361.30121                                
G01  20989811.55624     -3473.67824        23.95324
G02  23246620.40023     -4554.28823        18.57223
C11  22526788.72923     -3688.74923        19.36623                
C29  21670323.64722     -2448.08722        14.87922                
C35  24307673.14823       565.35123        19.87823                
E36  23999547.65922     -2600.33022        16.19122
> 2026 04 27 16 20 31.0009999  0 18                      
G03  20323613.35524     -2630.22924        24.51324
G17  21871605.50323     -1721.62923        20.83423
G04  21395501.80223       351.27723        18.34523
C20  21974760.49025     -2149.62325        34.55025   2122810.29725
C30  24040522.99223     -4903.17223        19.33423                
E05  24734237.04422       314.56122        12.92622
G19  22569343.96823       418.30123        20.70723
C12  21794114.24923      -949.19923        23.21923                
R08  20158253.53121     -4331.42421                                
R23  20471773.18621     -4363.02621                                
R22  23559199.00621     -5862.74721                                
R24  20194655.23121       370.23121                                
G01  20990473.49824     -3466.04224        23.99624
G02  23247486.50022     -4539.52022        12.70022
C11  22527496.23923     -3675.69323        19.39223                
C29  21670793.42222     -2427.40422        14.95022                
C35  24307564.32323       578.26623        19.87423                
E36  24000042.31622     -2603.86722        16.20122
> 2026 04 27 16 20 32.0009999  0 17                      
G03  20324114.30824     -2632.19724        24.50624
G17  21871933.47623     -1714.87423        20.82523
C20  21975173.60425     -2149.22325        31.80025   2124959.69925
C30  24041465.24023     -4896.10723        19.29723                
E05  24734177.08622       314.27922        12.95422
G19  22569264.22423       422.66323        20.74023
C12  21794296.22323      -944.66523        23.17823                
R08  20159064.17021     -4329.04221                                
R23  20472587.12321     -4343.54021                                
R22  23560297.44521     -5861.07421                                
R24  20194586.87821       369.03521                                
G01  20991133.34124     -3468.68424        24.01724
G02  23248350.50222     -4530.86522        12.70022
C11  22528202.55023     -3678.94623        19.41723                
C29  21671259.29922     -2436.59122        15.02722                
C35  24307453.70023       572.57223        19.87023                
E36  24000536.37422     -2595.67022        16.18522
> 2026 04 27 16 20 33.0009999  0 17                      
G03  20324616.16124     -2637.89524        24.46724
G17  21872259.65023     -1718.16523        20.81723
C20  21975586.71805     -2154.15705        31.79505   2127112.64005
C30  24042404.79023     -4905.52823        19.26223                
E05  24734117.72722       309.47922        12.98122
G19  22569185.37823       415.60723        20.71523
C12  21794478.49623      -950.70223        19.80023                
R08  20159872.41121     -4327.66221                                
R23  20473405.25621     -4350.06321                                
R22  23561397.38421     -5867.05321                                
R24  20194518.22621       364.19421                    186375.09121
G01  20991793.48424     -3471.63924        24.02624
G02  23249213.60422     -4535.06922        15.79522
C11  22528909.46123     -3677.98323        19.38623                
C29  21671726.97622     -2435.18922        15.10022                
C35  24307343.97623       571.04123        19.83623                
E36  24001030.73222     -2594.00822        16.17022
> 2026 04 27 16 20 34.0009999  0 17                      
G03  20325117.71424     -2636.67124        24.45424
G17  21872587.02323     -1715.54323        20.80623
C20  21976000.43125     -2149.25125        31.74525                
C30  24043348.83622     -4910.94422        16.10022                
E05  24734059.56722       312.75722        13.00622
G19  22569106.23323       429.81023        20.69123
C12  21794661.07023      -947.11223        19.87523                
R08  20160685.14821     -4328.55721                                
R23  20474222.49121     -4383.79221                                
R22  23562497.32321     -5864.74421                                
R24  20194450.47321       368.69521                                
G01  20992454.52624     -3467.49724        24.04424
G02  23250076.40722     -4530.86422        15.79522
C11  22529616.97123     -3678.06423        19.41123                
C29  21672195.25122     -2433.90422        15.04022                
C35  24307233.95223       572.57623        19.77923                
E36  24001525.69022     -2600.69422        16.15622
> 2026 04 27 16 20 35.0009999  0 17                      
G03  20325617.46824     -2624.53624        24.51424
G17  21872913.19723     -1714.48523        20.82323
C20  21976412.94625     -2141.01025        31.85725   2131414.85825
C30  24044289.88422     -4892.15022        16.10022                
E05  24734000.50822       322.69222        13.01522
G19  22569021.69123       433.99123        20.68123
C12  21794842.44523      -938.46223        22.90023                
R08  20161497.58621     -4327.53821                                
R23  20475047.52021     -4379.72221                                
R22  23563594.86321     -5853.20021                                
R24  20194380.92121       378.41421                                
G01  20993114.07024     -3457.69324        24.08724
G02  23250938.61022     -4523.87322        15.79522
C11  22530322.68223     -3661.95723        19.44523                
C29  21672663.22722     -2432.95322        14.98322                
C35  24307123.02923       586.66123        19.71523                
E36  24002019.14822     -2579.91522        16.18822
> 2026 04 27 16 20 36.0009999  0 17                      
G03  20326117.22224     -2629.75924        24.53524
G17  21873239.67123     -1717.49523        20.84323
C20  21976824.86125     -2146.27625        34.80025   2133558.76325
C30  24045230.33323     -4902.72823        18.80023                
E05  24733939.65022       320.20222        13.02422
G19  22568940.14823       428.43123        20.72423
C12  21795022.62023      -940.56823        22.88023                
R08  20162307.02521     -4326.73621                                
R23  20475864.15421     -4368.42221                                
R22  23564692.40321     -5858.24421                                
R24  20194311.66921       371.99221                                
G01  20993772.41424     -3464.63024        24.12524
G02  23251801.11322     -4523.39422        13.40022
C11  22531026.89523     -3675.46823        19.55723                
C29  21673131.80322     -2434.37522        14.92822                
C35  24307011.50623       570.47423        19.59923                
E36  24002509.90823     -2585.44523        19.00023
> 2026 04 27 16 20 37.0009999  0 17                      
G03  20326619.37424     -2645.43024        24.62424
G17  21873567.94423     -1721.65423        20.80823
C20  21977237.67525     -2157.01125        34.71025   2135712.14425
C30  24046175.87923     -4913.34423        18.87023                
E05  24733880.29122       306.13222        13.03222
G19  22568860.10323       411.93123        20.80423
C12  21795204.89423      -952.41223        22.81623                
R08  20163114.36621     -4335.75821                                
R23  20476681.68821     -4372.09421                                
R22  23565791.44221     -5867.86221                                
R24  20194243.61621       359.76421                                
G01  20994433.75624     -3480.44924        24.16424
G02  23252663.61622     -4530.37022        13.40022
C11  22531733.20623     -3686.39923        19.59923                
C29  21673601.57822     -2446.15622        14.91122                
C35  24306902.68123       565.16523        19.47923                
E36  24003003.06723     -2605.94023        18.95023
> 2026 04 27 16 20 38.0009999  0 17                      
G03  20327120.92724     -2635.98724        24.08224
G17  21873897.11623     -1722.14023        20.82223
C20  21977651.98825     -2154.74525        34.68425   2137868.62425
C30  24047119.62523     -4911.24423        18.92623                
E05  24733822.13122       306.88822        13.04022
G19  22568781.85723       413.17423        20.90123
C12  21795387.46723      -953.88423        22.82023                
R08  20163924.70521     -4332.84321                                
R23  20477504.01921     -4376.77921                                
R22  23566891.08121     -5871.61121                                
R24  20194177.36221       362.33521                                
G01  20995095.99724     -3473.19724        24.18124
G02  23253526.71822     -4540.15422        13.40022
C11  22532441.01623     -3685.55823        19.65923                
C29  21674071.05322     -2446.99922        14.89522                
C35  24306793.55723       566.19623        19.36523                
E36  24003499.22323     -2599.45023        18.82723
> 2026 04 27 16 20 39.0009999  0 18                      
G03  20327623.97924     -2640.61024        25.15824
G17  21874225.38923     -1727.74623        20.80123
G04  21394971.46923       348.33023        18.12823
C20  21978065.70205     -2156.14705        34.64905   2140025.10005
C30  24048062.77323     -4914.60623        18.94923                
E05  24733762.47322       305.41722        13.13822
G19  22568703.61224       413.39624        23.60124
C12  21795570.34123      -955.04423        22.82423                
R08  20164735.34421     -4346.87521                                
R23  20478324.55121     -4391.99321                                
R22  23567993.11821     -5867.59521                                
R24  20194109.30921       361.60921                                
G01  20995757.04024     -3478.99624        24.21624
G02  23254388.02222     -4562.96422        13.60022
C11  22533149.42523     -3689.44223        19.71623                
C29  21674540.52822     -2449.65922        15.01522                
C35  24306684.43323       568.14623        19.33123                
E36  24003993.58123     -2593.23123        18.75523
> 2026 04 27 16 20 40.0009999  0 17                      
G03  20328124.93224     -2634.50724        25.10324
G17  21874553.66223     -1719.13923        20.78123
G04  21394909.11323       348.33723        18.13423
C20  21978480.01525     -2150.68325        34.69125                
C30  24049007.11923     -4908.40223        18.98123                
E05  24733703.71322       310.18922        13.23122
G19  22568623.86724       418.89324        23.55324
C12  21795752.61423      -950.50023        22.81723                
