$GPGGA,161927.00,,,,,1,03, Inf,,M,0.0,M,0.0,0000*21
$GPRMC,161927.00,A,,,,,,,270426,,,A*6A
$GPGGA,161928.00,,,,,1,02, Inf,,M,0.0,M,0.0,0000*2F
$GPRMC,161928.00,A,,,,,,,270426,,,A*65
$GPGGA,161929.00,,,,,1,02, Inf,,M,0.0,M,0.0,0000*2E
$GPRMC,161929.00,A,,,,,,,270426,,,A*64
$GPGGA,161930.00,,,,,1,02, Inf,,M,0.0,M,0.0,0000*26
$GPRMC,161930.00,A,,,,,,,270426,,,A*6C
$GPGGA,161931.00,,,,,1,03, Inf,,M,0.0,M,0.0,0000*26
$GPRMC,161931.00,A,,,,,,,270426,,,A*6D
$GPGGA,161932.00,,,,,1,03, Inf,,M,0.0,M,0.0,0000*25
$GPRMC,161932.00,A,,,,,,,270426,,,A*6E
$GPGGA,161933.00,,,,,1,02, Inf,,M,0.0,M,0.0,0000*25
$GPRMC,161933.00,A,,,,,,,270426,,,A*6F
$GPGGA,161934.00,,,,,1,02, Inf,,M,0.0,M,0.0,0000*22
$GPRMC,161934.00,A,,,,,,,270426,,,A*68
$GPGGA,161935.00,,,,,1,03, Inf,,M,0.0,M,0.0,0000*22
$GPRMC,161935.00,A,,,,,,,270426,,,A*69
$GPGGA,161936.00,,,,,1,03, Inf,,M,0.0,M,0.0,0000*21
$GPRMC,161936.00,A,,,,,,,270426,,,A*6A
$GPGGA,161937.00,,,,,1,03, Inf,,M,0.0,M,0.0,0000*20
$GPRMC,161937.00,A,,,,,,,270426,,,A*6B
$GPGGA,161938.00,,,,,1,03, Inf,,M,0.0,M,0.0,0000*2F
$GPRMC,161938.00,A,,,,,,,270426,,,A*64
$GPGGA,161939.00,,,,,1,03, Inf,,M,0.0,M,0.0,0000*2E
$GPRMC,161939.00,A,,,,,,,270426,,,A*65
$GPGGA,161940.00,,,,,1,04, Inf,,M,0.0,M,0.0,0000*27
$GPRMC,161940.00,A,,,,,,,270426,,,A*6B
$GPGGA,161941.00,,,,,1,04, Inf,,M,0.0,M,0.0,0000*26
$GPRMC,161941.00,A,,,,,,,270426,,,A*6A
$GPGGA,161942.00,,,,,1,04, Inf,,M,0.0,M,0.0,0000*25
$GPRMC,161942.00,A,,,,,,,270426,,,A*69
$GPGGA,161943.00,,,,,1,02, Inf,,M,0.0,M,0.0,0000*22
$GPRMC,161943.00,A,,,,,,,270426,,,A*68
$GPGGA,161944.00,,,,,1,02, Inf,,M,0.0,M,0.0,0000*25
$GPRMC,161944.00,A,,,,,,,270426,,,A*6F
$GPGGA,161945.00,,,,,1,02, Inf,,M,0.0,M,0.0,0000*24
$GPRMC,161945.00,A,,,,,,,270426,,,A*6E
$GPGGA,161946.00,,,,,1,03, Inf,,M,0.0,M,0.0,0000*26
$GPRMC,161946.00,A,,,,,,,270426,,,A*6D
$GPGGA,161947.00,,,,,1,02, Inf,,M,0.0,M,0.0,0000*26
$GPRMC,161947.00,A,,,,,,,270426,,,A*6C
$GPGGA,161948.00,,,,,1,02, Inf,,M,0.0,M,0.0,0000*29
$GPRMC,161948.00,A,,,,,,,270426,,,A*63
$GPGGA,161949.00,,,,,1,02, Inf,,M,0.0,M,0.0,0000*28
$GPRMC,161949.00,A,,,,,,,270426,,,A*62
$GPGGA,161950.00,,,,,1,02, Inf,,M,0.0,M,0.0,0000*20
$GPRMC,161950.00,A,,,,,,,270426,,,A*6A
$GPGGA,161951.00,,,,,1,02, Inf,,M,0.0,M,0.0,0000*21
$GPRMC,161951.00,A,,,,,,,270426,,,A*6B
$GPGGA,161952.00,,,,,1,02, Inf,,M,0.0,M,0.0,0000*22
$GPRMC,161952.00,A,,,,,,,270426,,,A*68
$GPGGA,161953.00,,,,,1,02, Inf,,M,0.0,M,0.0,0000*23
$GPRMC,161953.00,A,,,,,,,270426,,,A*69
$GPGGA,161954.00,,,,,1,03, Inf,,M,0.0,M,0.0,0000*25
$GPRMC,161954.00,A,,,,,,,270426,,,A*6E
$GPGGA,161955.00,,,,,1,03, Inf,,M,0.0,M,0.0,0000*24
$GPRMC,161955.00,A,,,,,,,270426,,,A*6F
$GPGGA,161956.00,,,,,1,04, Inf,,M,0.0,M,0.0,0000*20
$GPRMC,161956.00,A,,,,,,,270426,,,A*6C
$GPGGA,161957.00,,,,,1,03, Inf,,M,0.0,M,0.0,0000*26
$GPRMC,161957.00,A,,,,,,,270426,,,A*6D
$GPGGA,161958.00,,,,,1,02, Inf,,M,0.0,M,0.0,0000*28
$GPRMC,161958.00,A,,,,,,,270426,,,A*62
$GPGGA,161959.00,,,,,1,02, Inf,,M,0.0,M,0.0,0000*29
$GPRMC,161959.00,A,,,,,,,270426,,,A*63
$GPGGA,162000.00,,,,,1,04, Inf,,M,0.0,M,0.0,0000*29
$GPRMC,162000.00,A,,,,,,,270426,,,A*65
$GPGGA,162001.00,,,,,1,02, Inf,,M,0.0,M,0.0,0000*2E
$GPRMC,162001.00,A,,,,,,,270426,,,A*64
$GPGGA,162002.00,,,,,1,03, Inf,,M,0.0,M,0.0,0000*2C
$GPRMC,162002.00,A,,,,,,,270426,,,A*67
$GPGGA,162003.00,,,,,1,03, Inf,,M,0.0,M,0.0,0000*2D
$GPRMC,162003.00,A,,,,,,,270426,,,A*66
$GPGGA,162004.00,,,,,1,03, Inf,,M,0.0,M,0.0,0000*2A
$GPRMC,162004.00,A,,,,,,,270426,,,A*61
$GPGGA,162005.00,,,,,1,04, Inf,,M,0.0,M,0.0,0000*2C
$GPRMC,162005.00,A,,,,,,,270426,,,A*60
$GPGGA,162006.00,,,,,1,03, Inf,,M,0.0,M,0.0,0000*28
$GPRMC,162006.00,A,,,,,,,270426,,,A*63
$GPGGA,162007.00,,,,,1,04, Inf,,M,0.0,M,0.0,0000*2E
$GPRMC,162007.00,A,,,,,,,270426,,,A*62
$GPGGA,162008.00,,,,,1,05, Inf,,M,0.0,M,0.0,0000*20
$GPRMC,162008.00,A,,,,,,,270426,,,A*6D
$GPGGA,162009.00,,,,,1,05, Inf,,M,0.0,M,0.0,0000*21
$GPRMC,162009.00,A,,,,,,,270426,,,A*6C
$GPGGA,162010.00,,,,,1,05, Inf,,M,0.0,M,0.0,0000*29
$GPRMC,162010.00,A,,,,,,,270426,,,A*64
$GPGGA,162011.00,,,,,1,04, Inf,,M,0.0,M,0.0,0000*29
$GPRMC,162011.00,A,,,,,,,270426,,,A*65
$GPGGA,162012.00,,,,,1,05, Inf,,M,0.0,M,0.0,0000*2B
$GPRMC,162012.00,A,,,,,,,270426,,,A*66
$GPGGA,162013.00,,,,,1,05, Inf,,M,0.0,M,0.0,0000*2A
$GPRMC,162013.00,A,,,,,,,270426,,,A*67
$GPGGA,162014.00,,,,,1,04, Inf,,M,0.0,M,0.0,0000*2C
$GPRMC,162014.00,A,,,,,,,270426,,,A*60
$GPGGA,162015.00,,,,,1,04, Inf,,M,0.0,M,0.0,0000*2D
$GPRMC,162015.00,A,,,,,,,270426,,,A*61
$GPGGA,162016.00,,,,,1,04, Inf,,M,0.0,M,0.0,0000*2E
$GPRMC,162016.00,A,,,,,,,270426,,,A*62
$GPGGA,162017.00,,,,,1,04, Inf,,M,0.0,M,0.0,0000*2F
$GPRMC,162017.00,A,,,,,,,270426,,,A*63
$GPGGA,162018.00,,,,,1,04, Inf,,M,0.0,M,0.0,0000*20
$GPRMC,162018.00,A,,,,,,,270426,,,A*6C
$GPGGA,162019.00,,,,,1,04, Inf,,M,0.0,M,0.0,0000*21
$GPRMC,162019.00,A,,,,,,,270426,,,A*6D
$GPGGA,162020.00,,,,,1,04, Inf,,M,0.0,M,0.0,0000*2B
$GPRMC,162020.00,A,,,,,,,270426,,,A*67
$GPGGA,162021.00,,,,,1,04, Inf,,M,0.0,M,0.0,0000*2A
$GPRMC,162021.00,A,,,,,,,270426,,,A*66
$GPGGA,162022.00,,,,,1,04, Inf,,M,0.0,M,0.0,0000*29
$GPRMC,162022.00,A,,,,,,,270426,,,A*65
$GPGGA,162023.00,,,,,1,05, Inf,,M,0.0,M,0.0,0000*29
$GPRMC,162023.00,A,,,,,,,270426,,,A*64
$GPGGA,162024.00,,,,,1,05, Inf,,M,0.0,M,0.0,0000*2E
$GPRMC,162024.00,A,,,,,,,270426,,,A*63
$GPGGA,162025.00,,,,,1,05, Inf,,M,0.0,M,0.0,0000*2F
$GPRMC,162025.00,A,,,,,,,270426,,,A*62
$GPGGA,162026.00,,,,,1,05, Inf,,M,0.0,M,0.0,0000*2C
$GPRMC,162026.00,A,,,,,,,270426,,,A*61
$GPGGA,162027.00,,,,,1,04, Inf,,M,0.0,M,0.0,0000*2C
$GPRMC,162027.00,A,,,,,,,270426,,,A*60
$GPGGA,162028.00,,,,,1,04, Inf,,M,0.0,M,0.0,0000*23
$GPRMC,162028.00,A,,,,,,,270426,,,A*6F
$GPGGA,162029.00,,,,,1,04, Inf,,M,0.0,M,0.0,0000*22
$GPRMC,162029.00,A,,,,,,,270426,,,A*6E
$GPGGA,162030.00,,,,,1,04, Inf,,M,0.0,M,0.0,0000*2A
$GPRMC,162030.00,A,,,,,,,270426,,,A*66
$GPGGA,162031.00,,,,,1,04, Inf,,M,0.0,M,0.0,0000*2B
$GPRMC,162031.00,A,,,,,,,270426,,,A*67
$GPGGA,162032.00,,,,,1,04, Inf,,M,0.0,M,0.0,0000*28
$GPRMC,162032.00,A,,,,,,,270426,,,A*64
$GPGGA,162033.00,,,,,1,03, Inf,,M,0.0,M,0.0,0000*2E
$GPRMC,162033.00,A,,,,,,,270426,,,A*65
$GPGGA,162034.00,,,,,1,04, Inf,,M,0.0,M,0.0,0000*2E
$GPRMC,162034.00,A,,,,,,,270426,,,A*62
$GPGGA,162035.00,,,,,1,03, Inf,,M,0.0,M,0.0,0000*28
$GPRMC,162035.00,A,,,,,,,270426,,,A*63
$GPGGA,162036.00,,,,,1,03, Inf,,M,0.0,M,0.0,0000*2B
$GPRMC,162036.00,A,,,,,,,270426,,,A*60
$GPGGA,162037.00,,,,,1,04, Inf,,M,0.0,M,0.0,0000*2D
$GPRMC,162037.00,A,,,,,,,270426,,,A*61
$GPGGA,162038.00,,,,,1,03, Inf,,M,0.0,M,0.0,0000*25
$GPRMC,162038.00,A,,,,,,,270426,,,A*6E
$GPGGA,162039.00,,,,,1,04, Inf,,M,0.0,M,0.0,0000*23
$GPRMC,162039.00,A,,,,,,,270426,,,A*6F
$GPGGA,162040.00,,,,,1,04, Inf,,M,0.0,M,0.0,0000*2D
$GPRMC,162040.00,A,,,,,,,270426,,,A*61
$GPGGA,162041.00,,,,,1,02, Inf,,M,0.0,M,0.0,0000*2A
$GPRMC,162041.00,A,,,,,,,270426,,,A*60
$GPGGA,162042.00,,,,,1,03, Inf,,M,0.0,M,0.0,0000*28
$GPRMC,162042.00,A,,,,,,,270426,,,A*63
$GPGGA,162043.00,,,,,1,03, Inf,,M,0.0,M,0.0,0000*29
$GPRMC,162043.00,A,,,,,,,270426,,,A*62
$GPGGA,162044.00,,,,,1,02, Inf,,M,0.0,M,0.0,0000*2F
$GPRMC,162044.00,A,,,,,,,270426,,,A*65
$GPGGA,162045.00,,,,,1,03, Inf,,M,0.0,M,0.0,0000*2F
$GPRMC,162045.00,A,,,,,,,270426,,,A*64
$GPGGA,162046.00,,,,,1,03, Inf,,M,0.0,M,0.0,0000*2C
$GPRMC,162046.00,A,,,,,,,270426,,,A*67
$GPGGA,162047.00,,,,,1,03, Inf,,M,0.0,M,0.0,0000*2D
$GPRMC,162047.00,A,,,,,,,270426,,,A*66
$GPGGA,162048.00,,,,,1,03, Inf,,M,0.0,M,0.0,0000*22
$GPRMC,162048.00,A,,,,,,,270426,,,A*69
$GPGGA,162049.00,,,,,1,04, Inf,,M,0.0,M,0.0,0000*24
$GPRMC,162049.00,A,,,,,,,270426,,,A*68
$GPGGA,162050.00,,,,,1,02, Inf,,M,0.0,M,0.0,0000*2A
$GPRMC,162050.00,A,,,,,,,270426,,,A*60
$GPGGA,162051.00,,,,,1,02, Inf,,M,0.0,M,0.0,0000*2B
$GPRMC,162051.00,A,,,,,,,270426,,,A*61
$GPGGA,162052.00,,,,,1,02, Inf,,M,0.0,M,0.0,0000*28
$GPRMC,162052.00,A,,,,,,,270426,,,A*62
$GPGGA,162053.00,,,,,1,02, Inf,,M,0.0,M,0.0,0000*29
$GPRMC,162053.00,A,,,,,,,270426,,,A*63
$GPGGA,162054.00,,,,,1,02, Inf,,M,0.0,M,0.0,0000*2E
$GPRMC,162054.00,A,,,,,,,270426,,,A*64
$GPGGA,162055.00,,,,,1,02, Inf,,M,0.0,M,0.0,0000*2F
$GPRMC,162055.00,A,,,,,,,270426,,,A*65
$GPGGA,162056.00,,,,,1,02, Inf,,M,0.0,M,0.0,0000*2C
$GPRMC,162056.00,A,,,,,,,270426,,,A*66
$GPGGA,162057.00,,,,,1,03, Inf,,M,0.0,M,0.0,0000*2C
$GPRMC,162057.00,A,,,,,,,270426,,,A*67
$GPGGA,162058.00,,,,,1,02, Inf,,M,0.0,M,0.0,0000*22
$GPRMC,162058.00,A,,,,,,,270426,,,A*68
$GPGGA,162059.00,,,,,1,03, Inf,,M,0.0,M,0.0,0000*22
$GPRMC,162059.00,A,,,,,,,270426,,,A*69
$GPGGA,162100.00,,,,,1,02, Inf,,M,0.0,M,0.0,0000*2E
$GPRMC,162100.00,A,,,,,,,270426,,,A*64
$GPGGA,162101.00,,,,,1,02, Inf,,M,0.0,M,0.0,0000*2F
$GPRMC,162101.00,A,,,,,,,270426,,,A*65
$GPGGA,162102.00,,,,,1,02, Inf,,M,0.0,M,0.0,0000*2C
$GPRMC,162102.00,A,,,,,,,270426,,,A*66
$GPGGA,162103.00,,,,,1,02, Inf,,M,0.0,M,0.0,0000*2D
$GPRMC,162103.00,A,,,,,,,270426,,,A*67
$GPGGA,162104.00,,,,,1,04, Inf,,M,0.0,M,0.0,0000*2C
$GPRMC,162104.00,A,,,,,,,270426,,,A*60
$GPGGA,162105.00,,,,,1,04, Inf,,M,0.0,M,0.0,0000*2D
$GPRMC,162105.00,A,,,,,,,270426,,,A*61
$GPGGA,162106.00,,,,,1,03, Inf,,M,0.0,M,0.0,0000*29
$GPRMC,162106.00,A,,,,,,,270426,,,A*62
$GPGGA,162107.00,,,,,1,02, Inf,,M,0.0,M,0.0,0000*29
$GPRMC,162107.00,A,,,,,,,270426,,,A*63
$GPGGA,162108.00,,,,,1,03, Inf,,M,0.0,M,0.0,0000*27
$GPRMC,162108.00,A,,,,,,,270426,,,A*6C
$GPGGA,162109.00,,,,,1,03, Inf,,M,0.0,M,0.0,0000*26
$GPRMC,162109.00,A,,,,,,,270426,,,A*6D
$GPGGA,162110.00,,,,,1,03, Inf,,M,0.0,M,0.0,0000*2E
$GPRMC,162110.00,A,,,,,,,270426,,,A*65
$GPGGA,162111.00,,,,,1,03, Inf,,M,0.0,M,0.0,0000*2F
$GPRMC,162111.00,A,,,,,,,270426,,,A*64
$GPGGA,162112.00,,,,,1,03, Inf,,M,0.0,M,0.0,0000*2C
$GPRMC,162112.00,A,,,,,,,270426,,,A*67
$GPGGA,162113.00,,,,,1,03, Inf,,M,0.0,M,0.0,0000*2D
$GPRMC,162113.00,A,,,,,,,270426,,,A*66
$GPGGA,162114.00,,,,,1,03, Inf,,M,0.0,M,0.0,0000*2A
$GPRMC,162114.00,A,,,,,,,270426,,,A*61
$GPGGA,162115.00,,,,,1,03, Inf,,M,0.0,M,0.0,0000*2B
$GPRMC,162115.00,A,,,,,,,270426,,,A*60
$GPGGA,162116.00,,,,,1,03, Inf,,M,0.0,M,0.0,0000*28
$GPRMC,162116.00,A,,,,,,,270426,,,A*63
$GPGGA,162117.00,,,,,1,03, Inf,,M,0.0,M,0.0,0000*29
$GPRMC,162117.00,A,,,,,,,270426,,,A*62
$GPGGA,162118.00,,,,,1,03, Inf,,M,0.0,M,0.0,0000*26
$GPRMC,162118.00,A,,,,,,,270426,,,A*6D
$GPGGA,162119.00,,,,,1,03, Inf,,M,0.0,M,0.0,0000*27
$GPRMC,162119.00,A,,,,,,,270426,,,A*6C
$GPGGA,162120.00,,,,,1,03, Inf,,M,0.0,M,0.0,0000*2D
$GPRMC,162120.00,A,,,,,,,270426,,,A*66
$GPGGA,162121.00,,,,,1,03, Inf,,M,0.0,M,0.0,0000*2C
$GPRMC,162121.00,A,,,,,,,270426,,,A*67
$GPGGA,162122.00,,,,,1,03, Inf,,M,0.0,M,0.0,0000*2F
$GPRMC,162122.00,A,,,,,,,270426,,,A*64
$GPGGA,162123.00,,,,,1,03, Inf,,M,0.0,M,0.0,0000*2E
$GPRMC,162123.00,A,,,,,,,270426,,,A*65
$GPGGA,162124.00,,,,,1,03, Inf,,M,0.0,M,0.0,0000*29
$GPRMC,162124.00,A,,,,,,,270426,,,A*62
$GPGGA,162125.00,,,,,1,03, Inf,,M,0.0,M,0.0,0000*28
$GPRMC,162125.00,A,,,,,,,270426,,,A*63
$GPGGA,162126.00,,,,,1,03, Inf,,M,0.0,M,0.0,0000*2B
$GPRMC,162126.00,A,,,,,,,270426,,,A*60
$GPGGA,162127.00,,,,,1,03, Inf,,M,0.0,M,0.0,0000*2A
$GPRMC,162127.00,A,,,,,,,270426,,,A*61
$GPGGA,162128.00,,,,,1,03, Inf,,M,0.0,M,0.0,0000*25
$GPRMC,162128.00,A,,,,,,,270426,,,A*6E
$GPGGA,162129.00,,,,,1,03, Inf,,M,0.0,M,0.0,0000*24
$GPRMC,162129.00,A,,,,,,,270426,,,A*6F
$GPGGA,162130.00,,,,,1,03, Inf,,M,0.0,M,0.0,0000*2C
$GPRMC,162130.00,A,,,,,,,270426,,,A*67
$GPGGA,162131.00,,,,,1,03, Inf,,M,0.0,M,0.0,0000*2D
$GPRMC,162131.00,A,,,,,,,270426,,,A*66
$GPGGA,162132.00,,,,,1,02, Inf,,M,0.0,M,0.0,0000*2F
$GPRMC,162132.00,A,,,,,,,270426,,,A*65
$GPGGA,162133.00,,,,,1,02, Inf,,M,0.0,M,0.0,0000*2E
$GPRMC,162133.00,A,,,,,,,270426,,,A*64
$GPGGA,162134.00,,,,,1,03, Inf,,M,0.0,M,0.0,0000*28
$GPRMC,162134.00,A,,,,,,,270426,,,A*63
$GPGGA,162135.00,,,,,1,03, Inf,,M,0.0,M,0.0,0000*29
$GPRMC,162135.00,A,,,,,,,270426,,,A*62
$GPGGA,162136.00,,,,,1,02, Inf,,M,0.0,M,0.0,0000*2B
$GPRMC,162136.00,A,,,,,,,270426,,,A*61
$GPGGA,162137.00,,,,,1,02, Inf,,M,0.0,M,0.0,0000*2A
$GPRMC,162137.00,A,,,,,,,270426,,,A*60
$GPGGA,162138.00,,,,,1,02, Inf,,M,0.0,M,0.0,0000*25
$GPRMC,162138.00,A,,,,,,,270426,,,A*6F
$GPGGA,162139.00,,,,,1,03, Inf,,M,0.0,M,0.0,0000*25
$GPRMC,162139.00,A,,,,,,,270426,,,A*6E
$GPGGA,162140.00,,,,,1,02, Inf,,M,0.0,M,0.0,0000*2A
$GPRMC,162140.00,A,,,,,,,270426,,,A*60
$GPGGA,162141.00,,,,,1,02, Inf,,M,0.0,M,0.0,0000*2B
$GPRMC,162141.00,A,,,,,,,270426,,,A*61
$GPGGA,162142.00,,,,,1,02, Inf,,M,0.0,M,0.0,0000*28
$GPRMC,162142.00,A,,,,,,,270426,,,A*62
$GPGGA,162143.00,,,,,1,02, Inf,,M,0.0,M,0.0,0000*29
$GPRMC,162143.00,A,,,,,,,270426,,,A*63
$GPGGA,162144.00,,,,,1,02, Inf,,M,0.0,M,0.0,0000*2E
$GPRMC,162144.00,A,,,,,,,270426,,,A*64
$GPGGA,162145.00,,,,,1,01, Inf,,M,0.0,M,0.0,0000*2C
$GPRMC,162145.00,A,,,,,,,270426,,,A*65
$GPGGA,162146.00,,,,,1,01, Inf,,M,0.0,M,0.0,0000*2F
$GPRMC,162146.00,A,,,,,,,270426,,,A*66
$GPGGA,162147.00,,,,,1,01, Inf,,M,0.0,M,0.0,0000*2E
$GPRMC,162147.00,A,,,,,,,270426,,,A*67
$GPGGA,162148.00,,,,,1,01, Inf,,M,0.0,M,0.0,0000*21
$GPRMC,162148.00,A,,,,,,,270426,,,A*68
$GPGGA,162149.00,,,,,1,02, Inf,,M,0.0,M,0.0,0000*23
$GPRMC,162149.00,A,,,,,,,270426,,,A*69
$GPGGA,162150.00,,,,,1,02, Inf,,M,0.0,M,0.0,0000*2B
$GPRMC,162150.00,A,,,,,,,270426,,,A*61
$GPGGA,162151.00,,,,,1,02, Inf,,M,0.0,M,0.0,0000*2A
$GPRMC,162151.00,A,,,,,,,270426,,,A*60
$GPGGA,162152.00,,,,,1,02, Inf,,M,0.0,M,0.0,0000*29
$GPRMC,162152.00,A,,,,,,,270426,,,A*63
$GPGGA,162153.00,,,,,1,01, Inf,,M,0.0,M,0.0,0000*2B
$GPRMC,162153.00,A,,,,,,,270426,,,A*62
$GPGGA,162154.00,,,,,1,01, Inf,,M,0.0,M,0.0,0000*2C
$GPRMC,162154.00,A,,,,,,,270426,,,A*65
$GPGGA,162155.00,,,,,1,02, Inf,,M,0.0,M,0.0,0000*2E
$GPRMC,162155.00,A,,,,,,,270426,,,A*64
$GPGGA,162156.00,,,,,1,02, Inf,,M,0.0,M,0.0,0000*2D
$GPRMC,162156.00,A,,,,,,,270426,,,A*67
$GPGGA,162157.00,,,,,1,02, Inf,,M,0.0,M,0.0,0000*2C
$GPRMC,162157.00,A,,,,,,,270426,,,A*66
$GPGGA,162158.00,,,,,1,02, Inf,,M,0.0,M,0.0,0000*23
$GPRMC,162158.00,A,,,,,,,270426,,,A*69
$GPGGA,162159.00,,,,,1,02, Inf,,M,0.0,M,0.0,0000*22
$GPRMC,162159.00,A,,,,,,,270426,,,A*68
$GPGGA,162200.00,,,,,1,02, Inf,,M,0.0,M,0.0,0000*2D
$GPRMC,162200.00,A,,,,,,,270426,,,A*67
$GPGGA,162201.00,,,,,1,02, Inf,,M,0.0,M,0.0,0000*2C
$GPRMC,162201.00,A,,,,,,,270426,,,A*66
$GPGGA,162202.00,,,,,1,02, Inf,,M,0.0,M,0.0,0000*2F
$GPRMC,162202.00,A,,,,,,,270426,,,A*65
$GPGGA,162203.00,,,,,1,03, Inf,,M,0.0,M,0.0,0000*2F
$GPRMC,162203.00,A,,,,,,,270426,,,A*64
$GPGGA,162204.00,,,,,1,03, Inf,,M,0.0,M,0.0,0000*28
$GPRMC,162204.00,A,,,,,,,270426,,,A*63
$GPGGA,162205.00,,,,,1,03, Inf,,M,0.0,M,0.0,0000*29
$GPRMC,162205.00,A,,,,,,,270426,,,A*62
$GPGGA,162206.00,,,,,1,03, Inf,,M,0.0,M,0.0,0000*2A
$GPRMC,162206.00,A,,,,,,,270426,,,A*61
$GPGGA,162207.00,,,,,1,03, Inf,,M,0.0,M,0.0,0000*2B
$GPRMC,162207.00,A,,,,,,,270426,,,A*60
$GPGGA,162208.00,,,,,1,03, Inf,,M,0.0,M,0.0,0000*24
$GPRMC,162208.00,A,,,,,,,270426,,,A*6F
$GPGGA,162209.00,,,,,1,03, Inf,,M,0.0,M,0.0,0000*25
$GPRMC,162209.00,A,,,,,,,270426,,,A*6E
$GPGGA,162210.00,,,,,1,03, Inf,,M,0.0,M,0.0,0000*2D
$GPRMC,162210.00,A,,,,,,,270426,,,A*66
$GPGGA,162211.00,,,,,1,03, Inf,,M,0.0,M,0.0,0000*2C
$GPRMC,162211.00,A,,,,,,,270426,,,A*67
$GPGGA,162212.00,,,,,1,03, Inf,,M,0.0,M,0.0,0000*2F
$GPRMC,162212.00,A,,,,,,,270426,,,A*64
$GPGGA,162213.00,,,,,1,03, Inf,,M,0.0,M,0.0,0000*2E
$GPRMC,162213.00,A,,,,,,,270426,,,A*65
$GPGGA,162214.00,,,,,1,03, Inf,,M,0.0,M,0.0,0000*29
$GPRMC,162214.00,A,,,,,,,270426,,,A*62
$GPGGA,162215.00,,,,,1,03, Inf,,M,0.0,M,0.0,0000*28
$GPRMC,162215.00,A,,,,,,,270426,,,A*63
$GPGGA,162216.00,,,,,1,03, Inf,,M,0.0,M,0.0,0000*2B
$GPRMC,162216.00,A,,,,,,,270426,,,A*60
$GPGGA,162217.00,,,,,1,03, Inf,,M,0.0,M,0.0,0000*2A
$GPRMC,162217.00,A,,,,,,,270426,,,A*61
$GPGGA,162218.00,,,,,1,03, Inf,,M,0.0,M,0.0,0000*25
$GPRMC,162218.00,A,,,,,,,270426,,,A*6E
$GPGGA,162219.00,,,,,1,03, Inf,,M,0.0,M,0.0,0000*24
$GPRMC,162219.00,A,,,,,,,270426,,,A*6F
$GPGGA,162220.00,,,,,1,03, Inf,,M,0.0,M,0.0,0000*2E
$GPRMC,162220.00,A,,,,,,,270426,,,A*65
$GPGGA,162221.00,,,,,1,03, Inf,,M,0.0,M,0.0,0000*2F
$GPRMC,162221.00,A,,,,,,,270426,,,A*64
$GPGGA,162222.00,,,,,1,04, Inf,,M,0.0,M,0.0,0000*2B
$GPRMC,162222.00,A,,,,,,,270426,,,A*67
$GPGGA,162223.00,,,,,1,05, Inf,,M,0.0,M,0.0,0000*2B
$GPRMC,162223.00,A,,,,,,,270426,,,A*66
$GPGGA,162224.00,,,,,1,03, Inf,,M,0.0,M,0.0,0000*2A
$GPRMC,162224.00,A,,,,,,,270426,,,A*61
$GPGGA,162225.00,,,,,1,03, Inf,,M,0.0,M,0.0,0000*2B
$GPRMC,162225.00,A,,,,,,,270426,,,A*60
$GPGGA,162226.00,,,,,1,03, Inf,,M,0.0,M,0.0,0000*28
$GPRMC,162226.00,A,,,,,,,270426,,,A*63
$GPGGA,162227.00,,,,,1,04, Inf,,M,0.0,M,0.0,0000*2E
$GPRMC,162227.00,A,,,,,,,270426,,,A*62
$GPGGA,162228.00,,,,,1,03, Inf,,M,0.0,M,0.0,0000*26
$GPRMC,162228.00,A,,,,,,,270426,,,A*6D
$GPGGA,162229.00,,,,,1,04, Inf,,M,0.0,M,0.0,0000*20
$GPRMC,162229.00,A,,,,,,,270426,,,A*6C
$GPGGA,162230.00,,,,,1,03, Inf,,M,0.0,M,0.0,0000*2F
$GPRMC,162230.00,A,,,,,,,270426,,,A*64
$GPGGA,162231.00,,,,,1,03, Inf,,M,0.0,M,0.0,0000*2E
$GPRMC,162231.00,A,,,,,,,270426,,,A*65
$GPGGA,162232.00,,,,,1,04, Inf,,M,0.0,M,0.0,0000*2A
$GPRMC,162232.00,A,,,,,,,270426,,,A*66
$GPGGA,162233.00,,,,,1,04, Inf,,M,0.0,M,0.0,0000*2B
$GPRMC,162233.00,A,,,,,,,270426,,,A*67
$GPGGA,162234.00,,,,,1,03, Inf,,M,0.0,M,0.0,0000*2B
$GPRMC,162234.00,A,,,,,,,270426,,,A*60
$GPGGA,162235.00,4124.064839,N,00209.475221,E,1,05,1.92,104.52,M,0.0,M,0.0,0000*71
$GPGSV,2,1,5,1,58,106,25.9,2,30,124,18.4,3,70,013,21.8,4,55,179,17.9*48
$GPGSV,2,2,5,19,31,307,23.6*6B
$GPRMC,162235.00,A,4124.064839,N,00209.475221,E,003.8,036.1,270426,,,A*5A
$GPGGA,162236.00,4124.059394,N,00209.466163,E,1,05,1.92,126.86,M,0.0,M,0.0,0000*7E
$GPGSV,2,1,5,1,58,106,24.9,2,30,124,18.4,3,70,013,21.7,4,55,179,18.0*40
$GPGSV,2,2,5,19,31,307,23.6*6B
$GPRMC,162236.00,A,4124.059394,N,00209.466163,E,004.7,034.1,270426,,,A*56
$GPGGA,162237.00,4124.059583,N,00209.464520,E,1,05,1.92,134.06,M,0.0,M,0.0,0000*75
$GPGSV,2,1,5,1,58,106,25.5,2,30,124,18.5,3,70,013,21.7,4,55,179,18.1*4D
$GPGSV,2,2,5,19,31,307,23.7*6A
$GPRMC,162237.00,A,4124.059583,N,00209.464520,E,002.3,060.5,270426,,,A*51
$GPGGA,162238.00,4124.059477,N,00209.463003,E,1,05,1.92,140.82,M,0.0,M,0.0,0000*7C
$GPGSV,2,1,5,1,58,106,24.7,2,30,124,18.5,3,70,013,21.8,4,55,179,18.2*42
$GPGSV,2,2,5,19,31,307,23.8*65
$GPRMC,162238.00,A,4124.059477,N,00209.463003,E,002.4,213.3,270426,,,A*50
$GPGGA,162239.00,4124.057872,N,00209.462957,E,1,04,2.80,135.99,M,0.0,M,0.0,0000*7A
$GPGSV,1,1,4,1,58,106,23.8,3,70,013,21.7,4,55,179,18.3,19,31,307,23.7*74
$GPRMC,162239.00,A,4124.057872,N,00209.462957,E,002.6,219.3,270426,,,A*57
$GPGGA,162240.00,4124.057531,N,00209.463464,E,1,04,2.80,132.95,M,0.0,M,0.0,0000*79
$GPGSV,1,1,4,1,58,106,24.1,3,70,013,21.6,4,55,179,18.4,19,31,307,20.9*71
$GPRMC,162240.00,A,4124.057531,N,00209.463464,E,003.1,274.2,270426,,,A*53
$GPGGA,162241.00,4124.059052,N,00209.465740,E,1,04,2.80,129.75,M,0.0,M,0.0,0000*71
$GPGSV,1,1,4,1,58,106,25.3,3,70,013,21.6,4,55,179,18.4,19,31,307,20.9*72
$GPRMC,162241.00,A,4124.059052,N,00209.465740,E,004.5,026.0,270426,,,A*5B
$GPGGA,162242.00,,,,,1,03, Inf,,M,0.0,M,0.0,0000*2A
$GPRMC,162242.00,A,,,,,,,270426,,,A*61
$GPGGA,162243.00,4124.060888,N,00209.466634,E,1,05,1.92,142.08,M,0.0,M,0.0,0000*71
$GPGSV,2,1,5,1,58,106,24.8,2,30,124,18.3,3,70,013,21.6,4,55,179,18.4*43
$GPGSV,2,2,5,19,31,307,23.8*65
$GPRMC,162243.00,A,4124.060888,N,00209.466634,E,003.6,203.1,270426,,,A*5D
$GPGGA,162244.00,4124.062395,N,00209.469758,E,1,05,1.92,131.82,M,0.0,M,0.0,0000*71
$GPGSV,2,1,5,1,58,106,19.8,2,30,124,18.3,3,70,013,21.7,4,55,179,18.4*4C
$GPGSV,2,2,5,19,31,307,23.8*65
$GPRMC,162244.00,A,4124.062395,N,00209.469758,E,001.0,308.1,270426,,,A*55
$GPGGA,162245.00,4124.065505,N,00209.464898,E,1,04,2.79,154.42,M,0.0,M,0.0,0000*7E
$GPGSV,1,1,4,1,58,106,24.4,3,70,013,21.6,4,55,179,18.5,19,31,307,23.8*77
$GPRMC,162245.00,A,4124.065505,N,00209.464898,E,003.6,248.1,270426,,,A*53
$GPGGA,162246.00,4124.065140,N,00209.462664,E,1,04,2.79,159.94,M,0.0,M,0.0,0000*75
$GPGSV,1,1,4,1,58,106,24.9,3,70,013,21.5,4,55,179,18.5,19,31,307,23.7*76
$GPRMC,162246.00,A,4124.065140,N,00209.462664,E,002.0,138.1,270426,,,A*5D
$GPGGA,162247.00,4124.066598,N,00209.470499,E,1,04,2.79,129.08,M,0.0,M,0.0,0000*77
$GPGSV,1,1,4,1,58,106,25.2,3,70,013,21.5,4,55,179,18.5,19,31,307,23.6*7D
$GPRMC,162247.00,A,4124.066598,N,00209.470499,E,001.6,209.0,270426,,,A*58
$GPGGA,162248.00,4124.064302,N,00209.467384,E,1,04,2.79,134.36,M,0.0,M,0.0,0000*73
$GPGSV,1,1,4,1,58,106,25.2,3,70,013,21.5,4,55,179,18.5,19,31,307,22.8*72
$GPRMC,162248.00,A,4124.064302,N,00209.467384,E,002.7,343.4,270426,,,A*54
$GPGGA,162249.00,4124.061001,N,00209.466892,E,1,04,2.79,126.34,M,0.0,M,0.0,0000*7B
$GPGSV,1,1,4,1,58,106,25.2,3,70,013,21.4,4,55,179,18.5,19,31,307,22.7*7C
$GPRMC,162249.00,A,4124.061001,N,00209.466892,E,002.8,241.6,270426,,,A*53
$GPGGA,162250.00,4124.061559,N,00209.466791,E,1,04,2.79,126.10,M,0.0,M,0.0,0000*71
$GPGSV,1,1,4,1,58,106,25.1,3,70,013,21.3,4,55,179,18.6,19,31,307,22.2*7E
$GPRMC,162250.00,A,4124.061559,N,00209.466791,E,003.8,023.2,270426,,,A*5C
$GPGGA,162251.00,,,,,1,03, Inf,,M,0.0,M,0.0,0000*28
$GPRMC,162251.00,A,,,,,,,270426,,,A*63
$GPGGA,162252.00,,,,,1,03, Inf,,M,0.0,M,0.0,0000*2B
$GPRMC,162252.00,A,,,,,,,270426,,,A*60
$GPGGA,162253.00,4124.068727,N,00209.477205,E,1,04,2.79,103.53,M,0.0,M,0.0,0000*78
$GPGSV,1,1,4,1,58,106,24.6,3,70,013,21.4,4,55,179,13.7,19,31,307,21.7*73
$GPRMC,162253.00,A,4124.068727,N,00209.477205,E,001.0,200.2,270426,,,A*5C
$GPGGA,162254.00,4124.061986,N,00209.468160,E,1,04,2.79,116.91,M,0.0,M,0.0,0000*77
$GPGSV,1,1,4,1,58,106,25.0,3,70,013,21.5,4,55,179,19.1,19,31,307,21.7*79
$GPRMC,162254.00,A,4124.061986,N,00209.468160,E,001.4,119.5,270426,,,A*51
$GPGGA,162255.00,4124.061836,N,00209.469675,E,1,05,1.92,106.41,M,0.0,M,0.0,0000*75
$GPGSV,2,1,5,1,58,106,25.0,2,30,124,19.1,3,70,013,21.5,4,55,179,19.1*4E
$GPGSV,2,2,5,19,31,307,21.6*69
$GPRMC,162255.00,A,4124.061836,N,00209.469675,E,004.6,028.1,270426,,,A*58
$GPGGA,162256.00,4124.061367,N,00209.473270,E,1,05,1.92,89.17,M,0.0,M,0.0,0000*46
$GPGSV,2,1,5,1,58,106,25.0,2,30,124,20.0,3,70,013,21.5,4,55,179,19.0*44
$GPGSV,2,2,5,19,32,307,21.6*6A
$GPRMC,162256.00,A,4124.061367,N,00209.473270,E,005.2,226.0,270426,,,A*56
$GPGGA,162257.00,4124.067162,N,00209.473644,E,1,04,2.79,100.49,M,0.0,M,0.0,0000*79
$GPGSV,1,1,4,1,58,106,24.9,3,70,013,21.5,4,55,179,19.0,19,32,307,21.6*72
$GPRMC,162257.00,A,4124.067162,N,00209.473644,E,007.4,054.2,270426,,,A*54
$GPGGA,162258.00,,,,,1,03, Inf,,M,0.0,M,0.0,0000*21
$GPRMC,162258.00,A,,,,,,,270426,,,A*6A
$GPGGA,162259.00,4124.066240,N,00209.474040,E,1,04,2.79,88.83,M,0.0,M,0.0,0000*47
$GPGSV,1,1,4,1,58,106,25.0,3,70,013,21.5,4,55,179,19.0,19,32,307,21.3*7F
$GPRMC,162259.00,A,4124.066240,N,00209.474040,E,001.6,022.8,270426,,,A*52
$GPGGA,162300.00,,,,,1,03, Inf,,M,0.0,M,0.0,0000*2D
$GPRMC,162300.00,A,,,,,,,270426,,,A*66
$GPGGA,162301.00,,,,,1,02, Inf,,M,0.0,M,0.0,0000*2D
$GPRMC,162301.00,A,,,,,,,270426,,,A*67
$GPGGA,162302.00,,,,,1,02, Inf,,M,0.0,M,0.0,0000*2E
$GPRMC,162302.00,A,,,,,,,270426,,,A*64
$GPGGA,162303.00,,,,,1,02, Inf,,M,0.0,M,0.0,0000*2F
$GPRMC,162303.00,A,,,,,,,270426,,,A*65
$GPGGA,162304.00,,,,,1,03, Inf,,M,0.0,M,0.0,0000*29
$GPRMC,162304.00,A,,,,,,,270426,,,A*62
$GPGGA,162305.00,,,,,1,03, Inf,,M,0.0,M,0.0,0000*28
$GPRMC,162305.00,A,,,,,,,270426,,,A*63
$GPGGA,162306.00,,,,,1,03, Inf,,M,0.0,M,0.0,0000*2B
$GPRMC,162306.00,A,,,,,,,270426,,,A*60
$GPGGA,162307.00,,,,,1,03, Inf,,M,0.0,M,0.0,0000*2A
$GPRMC,162307.00,A,,,,,,,270426,,,A*61
$GPGGA,162308.00,,,,,1,03, Inf,,M,0.0,M,0.0,0000*25
$GPRMC,162308.00,A,,,,,,,270426,,,A*6E
$GPGGA,162309.00,,,,,1,03, Inf,,M,0.0,M,0.0,0000*24
$GPRMC,162309.00,A,,,,,,,270426,,,A*6F
$GPGGA,162310.00,,,,,1,03, Inf,,M,0.0,M,0.0,0000*2C
$GPRMC,162310.00,A,,,,,,,270426,,,A*67
$GPGGA,162311.00,,,,,1,02, Inf,,M,0.0,M,0.0,0000*2C
$GPRMC,162311.00,A,,,,,,,270426,,,A*66
$GPGGA,162312.00,,,,,1,03, Inf,,M,0.0,M,0.0,0000*2E
$GPRMC,162312.00,A,,,,,,,270426,,,A*65
$GPGGA,162313.00,,,,,1,02, Inf,,M,0.0,M,0.0,0000*2E
$GPRMC,162313.00,A,,,,,,,270426,,,A*64
$GPGGA,162314.00,,,,,1,03, Inf,,M,0.0,M,0.0,0000*28
$GPRMC,162314.00,A,,,,,,,270426,,,A*63
$GPGGA,162315.00,,,,,1,02, Inf,,M,0.0,M,0.0,0000*28
$GPRMC,162315.00,A,,,,,,,270426,,,A*62
$GPGGA,162316.00,,,,,1,03, Inf,,M,0.0,M,0.0,0000*2A
$GPRMC,162316.00,A,,,,,,,270426,,,A*61
$GPGGA,162317.00,,,,,1,02, Inf,,M,0.0,M,0.0,0000*2A
$GPRMC,162317.00,A,,,,,,,270426,,,A*60
$GPGGA,162318.00,,,,,1,02, Inf,,M,0.0,M,0.0,0000*25
$GPRMC,162318.00,A,,,,,,,270426,,,A*6F
$GPGGA,162319.00,,,,,1,03, Inf,,M,0.0,M,0.0,0000*25
$GPRMC,162319.00,A,,,,,,,270426,,,A*6E
$GPGGA,162320.00,,,,,1,03, Inf,,M,0.0,M,0.0,0000*2F
$GPRMC,162320.00,A,,,,,,,270426,,,A*64
$GPGGA,162321.00,,,,,1,03, Inf,,M,0.0,M,0.0,0000*2E
$GPRMC,162321.00,A,,,,,,,270426,,,A*65
$GPGGA,162322.00,4124.070976,N,00209.483986,E,1,04,2.77,66.40,M,0.0,M,0.0,0000*49
$GPGSV,1,1,4,1,58,106,24.3,3,70,014,21.8,4,55,179,19.1,19,32,307,19.2*7C
$GPRMC,162322.00,A,4124.070976,N,00209.483986,E,001.8,231.8,270426,,,A*53
$GPGGA,162323.00,,,,,1,03, Inf,,M,0.0,M,0.0,0000*2C
$GPRMC,162323.00,A,,,,,,,270426,,,A*67
$GPGGA,162324.00,,,,,1,03, Inf,,M,0.0,M,0.0,0000*2B
$GPRMC,162324.00,A,,,,,,,270426,,,A*60
$GPGGA,162325.00,,,,,1,03, Inf,,M,0.0,M,0.0,0000*2A
$GPRMC,162325.00,A,,,,,,,270426,,,A*61
$GPGGA,162326.00,,,,,1,02, Inf,,M,0.0,M,0.0,0000*28
$GPRMC,162326.00,A,,,,,,,270426,,,A*62
$GPGGA,162327.00,,,,,1,02, Inf,,M,0.0,M,0.0,0000*29
$GPRMC,162327.00,A,,,,,,,270426,,,A*63
$GPGGA,162328.00,,,,,1,03, Inf,,M,0.0,M,0.0,0000*27
$GPRMC,162328.00,A,,,,,,,270426,,,A*6C
$GPGGA,162329.00,,,,,1,02, Inf,,M,0.0,M,0.0,0000*27
$GPRMC,162329.00,A,,,,,,,270426,,,A*6D
$GPGGA,162330.00,,,,,1,03, Inf,,M,0.0,M,0.0,0000*2E
$GPRMC,162330.00,A,,,,,,,270426,,,A*65
$GPGGA,162331.00,,,,,1,03, Inf,,M,0.0,M,0.0,0000*2F
$GPRMC,162331.00,A,,,,,,,270426,,,A*64
$GPGGA,162332.00,4124.062787,N,00209.472715,E,1,04,2.77,92.31,M,0.0,M,0.0,0000*4C
$GPGSV,1,1,4,1,58,106,24.3,3,70,014,21.9,4,55,178,19.2,19,32,307,19.2*7F
$GPRMC,162332.00,A,4124.062787,N,00209.472715,E,000.6,100.2,270426,,,A*5F
$GPGGA,162333.00,4124.063231,N,00209.469990,E,1,04,2.77,84.60,M,0.0,M,0.0,0000*4E
$GPGSV,1,1,4,1,58,106,24.3,3,70,014,21.9,4,55,178,19.2,19,32,307,19.2*7F
$GPRMC,162333.00,A,4124.063231,N,00209.469990,E,001.7,340.4,270426,,,A*5E
$GPGGA,162334.00,,,,,1,03, Inf,,M,0.0,M,0.0,0000*2A
$GPRMC,162334.00,A,,,,,,,270426,,,A*61
$GPGGA,162335.00,,,,,1,03, Inf,,M,0.0,M,0.0,0000*2B
$GPRMC,162335.00,A,,,,,,,270426,,,A*60
$GPGGA,162336.00,4124.061247,N,00209.467863,E,1,04,2.76,87.82,M,0.0,M,0.0,0000*45
$GPGSV,1,1,4,1,58,107,24.4,3,70,014,22.0,4,55,178,19.2,19,32,307,19.3*72
$GPRMC,162336.00,A,4124.061247,N,00209.467863,E,002.5,114.6,270426,,,A*5B
$GPGGA,162337.00,4124.062354,N,00209.469165,E,1,04,2.76,89.51,M,0.0,M,0.0,0000*45
$GPGSV,1,1,4,1,58,107,24.4,3,70,014,22.1,4,55,178,19.3,19,32,307,19.3*72
$GPRMC,162337.00,A,4124.062354,N,00209.469165,E,003.9,016.4,270426,,,A*57
$GPGGA,162338.00,4124.062775,N,00209.468902,E,1,04,2.76,94.63,M,0.0,M,0.0,0000*48
$GPGSV,1,1,4,1,58,107,24.4,3,70,014,22.1,4,55,178,19.3,19,32,307,19.4*75
$GPRMC,162338.00,A,4124.062775,N,00209.468902,E,002.9,121.6,270426,,,A*51
$GPGGA,162339.00,4124.063270,N,00209.468324,E,1,04,2.76,93.22,M,0.0,M,0.0,0000*44
$GPGSV,1,1,4,1,58,107,24.5,3,70,014,22.0,4,55,178,19.3,19,32,307,19.4*75
$GPRMC,162339.00,A,4124.063270,N,00209.468324,E,002.8,355.0,270426,,,A*59
$GPGGA,162340.00,4124.062988,N,00209.468107,E,1,04,2.76,105.51,M,0.0,M,0.0,0000*7E
$GPGSV,1,1,4,1,58,107,25.5,3,70,014,22.1,4,55,178,19.4,19,32,307,19.5*73
$GPRMC,162340.00,A,4124.062988,N,00209.468107,E,001.0,016.0,270426,,,A*56
$GPGGA,162341.00,4124.063958,N,00209.468240,E,1,04,2.76,103.93,M,0.0,M,0.0,0000*7B
$GPGSV,1,1,4,1,58,107,24.9,3,70,014,22.2,4,56,178,19.4,19,32,307,23.1*73
$GPRMC,162341.00,A,4124.063958,N,00209.468240,E,003.0,041.8,270426,,,A*53
$GPGGA,162342.00,4124.064127,N,00209.469338,E,1,04,2.76,99.84,M,0.0,M,0.0,0000*44
$GPGSV,1,1,4,1,58,107,25.4,3,69,014,25.0,4,56,178,19.5,19,32,307,23.1*73
$GPRMC,162342.00,A,4124.064127,N,00209.469338,E,007.4,066.6,270426,,,A*53
$GPGGA,162343.00,4124.063873,N,00209.471675,E,1,04,2.76,97.94,M,0.0,M,0.0,0000*40
$GPGSV,1,1,4,1,58,107,24.4,3,69,014,23.9,4,56,178,19.6,19,32,307,23.0*7F
$GPRMC,162343.00,A,4124.063873,N,00209.471675,E,004.6,058.0,270426,,,A*52
$GPGGA,162344.00,4124.064326,N,00209.472066,E,1,04,2.76,103.03,M,0.0,M,0.0,0000*7E
$GPGSV,1,1,4,1,58,107,24.3,3,69,014,23.6,4,56,178,19.6,19,32,307,22.9*7F
$GPRMC,162344.00,A,4124.064326,N,00209.472066,E,002.1,344.2,270426,,,A*53
$GPGGA,162345.00,4124.064332,N,00209.471570,E,1,04,2.76,109.95,M,0.0,M,0.0,0000*7E
$GPGSV,1,1,4,1,58,107,24.2,3,69,014,24.8,4,56,178,19.7,19,32,307,22.8*77
$GPRMC,162345.00,A,4124.064332,N,00209.471570,E,003.9,223.9,270426,,,A*54
$GPGGA,162346.00,4124.064542,N,00209.470926,E,1,04,2.76,113.68,M,0.0,M,0.0,0000*7B
$GPGSV,1,1,4,1,58,107,24.2,3,69,014,24.1,4,56,178,19.7,19,32,307,22.7*71
$GPRMC,162346.00,A,4124.064542,N,00209.470926,E,004.5,043.1,270426,,,A*5F
$GPGGA,162347.00,4124.065120,N,00209.469832,E,1,04,2.76,117.33,M,0.0,M,0.0,0000*7D
$GPGSV,1,1,4,1,58,107,24.2,3,69,014,24.5,4,56,178,19.8,19,32,307,22.6*7B
$GPRMC,162347.00,A,4124.065120,N,00209.469832,E,001.7,036.4,270426,,,A*53
$GPGGA,162348.00,4124.065187,N,00209.470492,E,1,04,2.76,110.81,M,0.0,M,0.0,0000*7F
$GPGSV,1,1,4,1,58,107,24.2,3,69,014,24.5,4,56,178,19.8,19,32,307,22.6*7B
$GPRMC,162348.00,A,4124.065187,N,00209.470492,E,005.0,056.8,270426,,,A*56
$GPGGA,162349.00,4124.064736,N,00209.470478,E,1,04,2.76,115.05,M,0.0,M,0.0,0000*7E
$GPGSV,1,1,4,1,58,107,24.2,3,69,014,24.4,4,56,178,19.9,19,32,307,22.6*7B
$GPRMC,162349.00,A,4124.064736,N,00209.470478,E,001.9,223.4,270426,,,A*5F
$GPGGA,162350.00,4124.064472,N,00209.471761,E,1,04,2.76,112.28,M,0.0,M,0.0,0000*77
$GPGSV,1,1,4,1,58,107,24.1,3,69,014,24.4,4,56,178,19.9,19,32,307,22.5*7B
$GPRMC,162350.00,A,4124.064472,N,00209.471761,E,003.9,044.5,270426,,,A*5E
$GPGGA,162351.00,4124.065083,N,00209.472908,E,1,04,2.76,109.75,M,0.0,M,0.0,0000*7D
$GPGSV,1,1,4,1,58,107,24.1,3,69,014,24.4,4,56,178,19.9,19,32,307,22.5*7B
$GPRMC,162351.00,A,4124.065083,N,00209.472908,E,001.8,019.5,270426,,,A*5D
$GPGGA,162352.00,4124.065305,N,00209.473905,E,1,04,2.76,110.10,M,0.0,M,0.0,0000*74
$GPGSV,1,1,4,1,58,107,24.3,3,69,014,25.0,4,56,178,20.0,19,32,307,22.5*7F
$GPRMC,162352.00,A,4124.065305,N,00209.473905,E,003.3,066.1,270426,,,A*5A
$GPGGA,162353.00,4124.065883,N,00209.474573,E,1,04,2.75,107.85,M,0.0,M,0.0,0000*73
$GPGSV,1,1,4,1,58,107,24.1,3,69,014,24.9,4,56,178,20.1,19,32,307,22.4*75
$GPRMC,162353.00,A,4124.065883,N,00209.474573,E,001.5,149.4,270426,,,A*59
$GPGGA,162354.00,4124.064825,N,00209.472870,E,1,04,2.75,113.36,M,0.0,M,0.0,0000*7C
$GPGSV,1,1,4,1,58,107,24.0,3,69,014,24.8,4,56,178,23.0,19,32,307,22.3*70
$GPRMC,162354.00,A,4124.064825,N,00209.472870,E,000.4,,270426,,,A*7D
$GPGGA,162355.00,4124.064155,N,00209.471508,E,1,04,2.75,120.38,M,0.0,M,0.0,0000*7C
$GPGSV,1,1,4,1,58,107,24.3,3,69,014,24.5,4,56,178,23.0,19,32,307,22.3*7E
$GPRMC,162355.00,A,4124.064155,N,00209.471508,E,005.1,238.5,270426,,,A*51
$GPGGA,162356.00,4124.063334,N,00209.471842,E,1,04,2.75,119.83,M,0.0,M,0.0,0000*74
$GPGSV,1,1,4,1,58,107,24.0,3,69,014,24.4,4,56,178,23.0,19,32,307,22.2*7D
$GPRMC,162356.00,A,4124.063334,N,00209.471842,E,007.0,249.3,270426,,,A*50
$GPGGA,162357.00,4124.063346,N,00209.472960,E,1,04,2.75,119.25,M,0.0,M,0.0,0000*7E
$GPGSV,1,1,4,1,58,107,23.6,3,69,015,24.4,4,56,178,23.0,19,32,307,22.1*7E
$GPRMC,162357.00,A,4124.063346,N,00209.472960,E,002.7,060.1,270426,,,A*5F
$GPGGA,162358.00,4124.063203,N,00209.472358,E,1,04,2.75,122.23,M,0.0,M,0.0,0000*7E
$GPGSV,1,1,4,1,58,107,24.0,3,69,015,24.5,4,56,178,22.9,19,32,307,22.0*77
$GPRMC,162358.00,A,4124.063203,N,00209.472358,E,002.5,261.7,270426,,,A*56
$GPGGA,162359.00,4124.062897,N,00209.471482,E,1,04,2.75,124.95,M,0.0,M,0.0,0000*71
$GPGSV,1,1,4,1,58,107,24.0,3,69,015,24.5,4,56,178,23.0,19,32,307,22.0*7F
$GPRMC,162359.00,A,4124.062897,N,00209.471482,E,003.4,068.6,270426,,,A*58
$GPGGA,162400.00,4124.062284,N,00209.472485,E,1,04,2.75,119.51,M,0.0,M,0.0,0000*70
$GPGSV,1,1,4,1,58,107,24.1,3,69,015,25.3,4,56,178,23.2,19,32,307,21.9*71
$GPRMC,162400.00,A,4124.062284,N,00209.472485,E,001.4,271.0,270426,,,A*51
$GPGGA,162401.00,4124.062857,N,00209.470914,E,1,04,2.75,125.27,M,0.0,M,0.0,0000*7C
$GPGSV,1,1,4,1,58,107,24.1,3,69,015,25.4,4,56,178,22.5,19,32,307,21.8*71
$GPRMC,162401.00,A,4124.062857,N,00209.470914,E,002.6,317.5,270426,,,A*56
$GPGGA,162402.00,4124.063796,N,00209.470194,E,1,04,2.75,132.66,M,0.0,M,0.0,0000*7F
$GPGSV,1,1,4,1,58,107,24.6,3,69,015,24.5,4,56,178,23.3,19,32,307,21.8*71
$GPRMC,162402.00,A,4124.063796,N,00209.470194,E,000.6,065.3,270426,,,A*54
$GPGGA,162403.00,4124.063964,N,00209.471874,E,1,04,2.75,130.18,M,0.0,M,0.0,0000*70
$GPGSV,1,1,4,1,58,107,24.4,3,69,015,24.4,4,56,178,24.4,19,32,307,21.7*7D
$GPRMC,162403.00,A,4124.063964,N,00209.471874,E,000.3,,270426,,,A*7B
$GPGGA,162404.00,4124.063597,N,00209.471382,E,1,04,2.75,132.09,M,0.0,M,0.0,0000*77
$GPGSV,1,1,4,1,58,107,24.4,3,69,015,24.1,4,56,178,23.3,19,32,307,21.6*79
$GPRMC,162404.00,A,4124.063597,N,00209.471382,E,000.6,247.9,270426,,,A*5D
$GPGGA,162405.00,4124.063065,N,00209.471503,E,1,04,2.75,132.96,M,0.0,M,0.0,0000*77
$GPGSV,1,1,4,1,58,107,24.1,3,69,015,24.4,4,56,178,24.5,19,32,307,21.6*78
$GPRMC,162405.00,A,4124.063065,N,00209.471503,E,004.3,067.1,270426,,,A*52
$GPGGA,162406.00,4124.063972,N,00209.471247,E,1,04,2.75,136.54,M,0.0,M,0.0,0000*76
$GPGSV,1,1,4,1,58,107,24.1,3,69,015,22.5,4,56,178,24.5,19,32,307,21.5*7C
$GPRMC,162406.00,A,4124.063972,N,00209.471247,E,003.4,272.6,270426,,,A*58
$GPGGA,162407.00,4124.063068,N,00209.471899,E,1,04,2.75,131.12,M,0.0,M,0.0,0000*79
$GPGSV,1,1,4,1,58,107,24.7,3,69,015,24.0,4,56,178,24.4,19,32,307,21.4*79
$GPRMC,162407.00,A,4124.063068,N,00209.471899,E,000.7,318.6,270426,,,A*5F
$GPGGA,162408.00,4124.062902,N,00209.471165,E,1,04,2.75,129.06,M,0.0,M,0.0,0000*74
$GPGSV,1,1,4,1,58,107,24.6,3,69,015,24.8,4,56,178,24.4,19,32,307,21.3*77
$GPRMC,162408.00,A,4124.062902,N,00209.471165,E,002.3,048.8,270426,,,A*50
$GPGGA,162409.00,,,,,1,03, Inf,,M,0.0,M,0.0,0000*23
$GPRMC,162409.00,A,,,,,,,270426,,,A*68
$GPGGA,162410.00,,,,,1,03, Inf,,M,0.0,M,0.0,0000*2B
$GPRMC,162410.00,A,,,,,,,270426,,,A*60
$GPGGA,162411.00,,,,,1,03, Inf,,M,0.0,M,0.0,0000*2A
$GPRMC,162411.00,A,,,,,,,270426,,,A*61
$GPGGA,162412.00,,,,,1,03, Inf,,M,0.0,M,0.0,0000*29
$GPRMC,162412.00,A,,,,,,,270426,,,A*62
$GPGGA,162413.00,,,,,1,03, Inf,,M,0.0,M,0.0,0000*28
$GPRMC,162413.00,A,,,,,,,270426,,,A*63
$GPGGA,162414.00,,,,,1,03, Inf,,M,0.0,M,0.0,0000*2F
$GPRMC,162414.00,A,,,,,,,270426,,,A*64
$GPGGA,162415.00,,,,,1,03, Inf,,M,0.0,M,0.0,0000*2E
$GPRMC,162415.00,A,,,,,,,270426,,,A*65
$GPGGA,162416.00,,,,,1,03, Inf,,M,0.0,M,0.0,0000*2D
$GPRMC,162416.00,A,,,,,,,270426,,,A*66
$GPGGA,162417.00,,,,,1,03, Inf,,M,0.0,M,0.0,0000*2C
$GPRMC,162417.00,A,,,,,,,270426,,,A*67
$GPGGA,162418.00,,,,,1,03, Inf,,M,0.0,M,0.0,0000*23
$GPRMC,162418.00,A,,,,,,,270426,,,A*68
$GPGGA,162419.00,,,,,1,03, Inf,,M,0.0,M,0.0,0000*22
$GPRMC,162419.00,A,,,,,,,270426,,,A*69
$GPGGA,162420.00,,,,,1,03, Inf,,M,0.0,M,0.0,0000*28
$GPRMC,162420.00,A,,,,,,,270426,,,A*63
$GPGGA,162421.00,,,,,1,03, Inf,,M,0.0,M,0.0,0000*29
$GPRMC,162421.00,A,,,,,,,270426,,,A*62
$GPGGA,162422.00,,,,,1,03, Inf,,M,0.0,M,0.0,0000*2A
$GPRMC,162422.00,A,,,,,,,270426,,,A*61
$GPGGA,162423.00,,,,,1,03, Inf,,M,0.0,M,0.0,0000*2B
$GPRMC,162423.00,A,,,,,,,270426,,,A*60
$GPGGA,162424.00,,,,,1,03, Inf,,M,0.0,M,0.0,0000*2C
$GPRMC,162424.00,A,,,,,,,270426,,,A*67
$GPGGA,162425.00,,,,,1,03, Inf,,M,0.0,M,0.0,0000*2D
$GPRMC,162425.00,A,,,,,,,270426,,,A*66
$GPGGA,162426.00,,,,,1,03, Inf,,M,0.0,M,0.0,0000*2E
$GPRMC,162426.00,A,,,,,,,270426,,,A*65
$GPGGA,162427.00,,,,,1,03, Inf,,M,0.0,M,0.0,0000*2F
$GPRMC,162427.00,A,,,,,,,270426,,,A*64
$GPGGA,162428.00,,,,,1,03, Inf,,M,0.0,M,0.0,0000*20
$GPRMC,162428.00,A,,,,,,,270426,,,A*6B
$GPGGA,162429.00,,,,,1,03, Inf,,M,0.0,M,0.0,0000*21
$GPRMC,162429.00,A,,,,,,,270426,,,A*6A
$GPGGA,162430.00,,,,,1,03, Inf,,M,0.0,M,0.0,0000*29
$GPRMC,162430.00,A,,,,,,,270426,,,A*62
$GPGGA,162431.00,,,,,1,03, Inf,,M,0.0,M,0.0,0000*28
$GPRMC,162431.00,A,,,,,,,270426,,,A*63
$GPGGA,162432.00,,,,,1,03, Inf,,M,0.0,M,0.0,0000*2B
$GPRMC,162432.00,A,,,,,,,270426,,,A*60
$GPGGA,162433.00,,,,,1,03, Inf,,M,0.0,M,0.0,0000*2A
$GPRMC,162433.00,A,,,,,,,270426,,,A*61
$GPGGA,162434.00,,,,,1,03, Inf,,M,0.0,M,0.0,0000*2D
$GPRMC,162434.00,A,,,,,,,270426,,,A*66
$GPGGA,162435.00,,,,,1,03, Inf,,M,0.0,M,0.0,0000*2C
$GPRMC,162435.00,A,,,,,,,270426,,,A*67
$GPGGA,162436.00,,,,,1,02, Inf,,M,0.0,M,0.0,0000*2E
$GPRMC,162436.00,A,,,,,,,270426,,,A*64
$GPGGA,162437.00,,,,,1,02, Inf,,M,0.0,M,0.0,0000*2F
$GPRMC,162437.00,A,,,,,,,270426,,,A*65
$GPGGA,162438.00,,,,,1,03, Inf,,M,0.0,M,0.0,0000*21
$GPRMC,162438.00,A,,,,,,,270426,,,A*6A
$GPGGA,162439.00,,,,,1,03, Inf,,M,0.0,M,0.0,0000*20
$GPRMC,162439.00,A,,,,,,,270426,,,A*6B
$GPGGA,162440.00,,,,,1,03, Inf,,M,0.0,M,0.0,0000*2E
$GPRMC,162440.00,A,,,,,,,270426,,,A*65
$GPGGA,162441.00,,,,,1,02, Inf,,M,0.0,M,0.0,0000*2E
$GPRMC,162441.00,A,,,,,,,270426,,,A*64
$GPGGA,162442.00,,,,,1,02, Inf,,M,0.0,M,0.0,0000*2D
$GPRMC,162442.00,A,,,,,,,270426,,,A*67
$GPGGA,162443.00,,,,,1,03, Inf,,M,0.0,M,0.0,0000*2D
$GPRMC,162443.00,A,,,,,,,270426,,,A*66
$GPGGA,162444.00,,,,,1,02, Inf,,M,0.0,M,0.0,0000*2B
$GPRMC,162444.00,A,,,,,,,270426,,,A*61
$GPGGA,162445.00,,,,,1,02, Inf,,M,0.0,M,0.0,0000*2A
$GPRMC,162445.00,A,,,,,,,270426,,,A*60
$GPGGA,162446.00,,,,,1,02, Inf,,M,0.0,M,0.0,0000*29
$GPRMC,162446.00,A,,,,,,,270426,,,A*63
$GPGGA,162447.00,,,,,1,02, Inf,,M,0.0,M,0.0,0000*28
$GPRMC,162447.00,A,,,,,,,270426,,,A*62
$GPGGA,162448.00,,,,,1,02, Inf,,M,0.0,M,0.0,0000*27
$GPRMC,162448.00,A,,,,,,,270426,,,A*6D
$GPGGA,162449.00,,,,,1,02, Inf,,M,0.0,M,0.0,0000*26
$GPRMC,162449.00,A,,,,,,,270426,,,A*6C
$GPGGA,162450.00,,,,,1,02, Inf,,M,0.0,M,0.0,0000*2E
$GPRMC,162450.00,A,,,,,,,270426,,,A*64
$GPGGA,162451.00,,,,,1,02, Inf,,M,0.0,M,0.0,0000*2F
$GPRMC,162451.00,A,,,,,,,270426,,,A*65
$GPGGA,162452.00,,,,,1,02, Inf,,M,0.0,M,0.0,0000*2C
$GPRMC,162452.00,A,,,,,,,270426,,,A*66
$GPGGA,162453.00,,,,,1,02, Inf,,M,0.0,M,0.0,0000*2D
$GPRMC,162453.00,A,,,,,,,270426,,,A*67
$GPGGA,162454.00,,,,,1,02, Inf,,M,0.0,M,0.0,0000*2A
$GPRMC,162454.00,A,,,,,,,270426,,,A*60
$GPGGA,162455.00,,,,,1,02, Inf,,M,0.0,M,0.0,0000*2B
$GPRMC,162455.00,A,,,,,,,270426,,,A*61
$GPGGA,162456.00,,,,,1,02, Inf,,M,0.0,M,0.0,0000*28
$GPRMC,162456.00,A,,,,,,,270426,,,A*62
$GPGGA,162457.00,,,,,1,02, Inf,,M,0.0,M,0.0,0000*29
$GPRMC,162457.00,A,,,,,,,270426,,,A*63
$GPGGA,162458.00,,,,,1,02, Inf,,M,0.0,M,0.0,0000*26
$GPRMC,162458.00,A,,,,,,,270426,,,A*6C
$GPGGA,162459.00,,,,,1,02, Inf,,M,0.0,M,0.0,0000*27
$GPRMC,162459.00,A,,,,,,,270426,,,A*6D
$GPGGA,162500.00,,,,,1,02, Inf,,M,0.0,M,0.0,0000*2A
$GPRMC,162500.00,A,,,,,,,270426,,,A*60
$GPGGA,162501.00,,,,,1,02, Inf,,M,0.0,M,0.0,0000*2B
$GPRMC,162501.00,A,,,,,,,270426,,,A*61
$GPGGA,162502.00,,,,,1,02, Inf,,M,0.0,M,0.0,0000*28
$GPRMC,162502.00,A,,,,,,,270426,,,A*62
$GPGGA,162503.00,,,,,1,02, Inf,,M,0.0,M,0.0,0000*29
$GPRMC,162503.00,A,,,,,,,270426,,,A*63
$GPGGA,162504.00,,,,,1,02, Inf,,M,0.0,M,0.0,0000*2E
$GPRMC,162504.00,A,,,,,,,270426,,,A*64
$GPGGA,162505.00,,,,,1,02, Inf,,M,0.0,M,0.0,0000*2F
$GPRMC,162505.00,A,,,,,,,270426,,,A*65
$GPGGA,162506.00,,,,,1,02, Inf,,M,0.0,M,0.0,0000*2C
$GPRMC,162506.00,A,,,,,,,270426,,,A*66
$GPGGA,162507.00,,,,,1,02, Inf,,M,0.0,M,0.0,0000*2D
$GPRMC,162507.00,A,,,,,,,270426,,,A*67
$GPGGA,162508.00,,,,,1,02, Inf,,M,0.0,M,0.0,0000*22
$GPRMC,162508.00,A,,,,,,,270426,,,A*68
$GPGGA,162509.00,,,,,1,02, Inf,,M,0.0,M,0.0,0000*23
$GPRMC,162509.00,A,,,,,,,270426,,,A*69
$GPGGA,162510.00,,,,,1,02, Inf,,M,0.0,M,0.0,0000*2B
$GPRMC,162510.00,A,,,,,,,270426,,,A*61
$GPGGA,162511.00,,,,,1,02, Inf,,M,0.0,M,0.0,0000*2A
$GPRMC,162511.00,A,,,,,,,270426,,,A*60
$GPGGA,162512.00,,,,,1,02, Inf,,M,0.0,M,0.0,0000*29
$GPRMC,162512.00,A,,,,,,,270426,,,A*63
$GPGGA,162513.00,,,,,1,03, Inf,,M,0.0,M,0.0,0000*29
$GPRMC,162513.00,A,,,,,,,270426,,,A*62
$GPGGA,162514.00,,,,,1,02, Inf,,M,0.0,M,0.0,0000*2F
$GPRMC,162514.00,A,,,,,,,270426,,,A*65
$GPGGA,162515.00,,,,,1,02, Inf,,M,0.0,M,0.0,0000*2E
$GPRMC,162515.00,A,,,,,,,270426,,,A*64
$GPGGA,162516.00,,,,,1,03, Inf,,M,0.0,M,0.0,0000*2C
$GPRMC,162516.00,A,,,,,,,270426,,,A*67
$GPGGA,162517.00,,,,,1,02, Inf,,M,0.0,M,0.0,0000*2C
$GPRMC,162517.00,A,,,,,,,270426,,,A*66
$GPGGA,162518.00,,,,,1,02, Inf,,M,0.0,M,0.0,0000*23
$GPRMC,162518.00,A,,,,,,,270426,,,A*69
$GPGGA,162519.00,,,,,1,02, Inf,,M,0.0,M,0.0,0000*22
$GPRMC,162519.00,A,,,,,,,270426,,,A*68
$GPGGA,162520.00,,,,,1,02, Inf,,M,0.0,M,0.0,0000*28
$GPRMC,162520.00,A,,,,,,,270426,,,A*62
$GPGGA,162521.00,,,,,1,02, Inf,,M,0.0,M,0.0,0000*29
$GPRMC,162521.00,A,,,,,,,270426,,,A*63
$GPGGA,162522.00,,,,,1,02, Inf,,M,0.0,M,0.0,0000*2A
$GPRMC,162522.00,A,,,,,,,270426,,,A*60
$GPGGA,162523.00,,,,,1,02, Inf,,M,0.0,M,0.0,0000*2B
$GPRMC,162523.00,A,,,,,,,270426,,,A*61
$GPGGA,162524.00,,,,,1,02, Inf,,M,0.0,M,0.0,0000*2C
$GPRMC,162524.00,A,,,,,,,270426,,,A*66
$GPGGA,162525.00,,,,,1,02, Inf,,M,0.0,M,0.0,0000*2D
$GPRMC,162525.00,A,,,,,,,270426,,,A*67
$GPGGA,162526.00,,,,,1,03, Inf,,M,0.0,M,0.0,0000*2F
$GPRMC,162526.00,A,,,,,,,270426,,,A*64
$GPGGA,162527.00,,,,,1,03, Inf,,M,0.0,M,0.0,0000*2E
$GPRMC,162527.00,A,,,,,,,270426,,,A*65
$GPGGA,162528.00,,,,,1,02, Inf,,M,0.0,M,0.0,0000*20
$GPRMC,162528.00,A,,,,,,,270426,,,A*6A
$GPGGA,162529.00,,,,,1,02, Inf,,M,0.0,M,0.0,0000*21
$GPRMC,162529.00,A,,,,,,,270426,,,A*6B
$GPGGA,162530.00,,,,,1,03, Inf,,M,0.0,M,0.0,0000*28
$GPRMC,162530.00,A,,,,,,,270426,,,A*63
$GPGGA,162531.00,,,,,1,03, Inf,,M,0.0,M,0.0,0000*29
$GPRMC,162531.00,A,,,,,,,270426,,,A*62
$GPGGA,162532.00,,,,,1,02, Inf,,M,0.0,M,0.0,0000*2B
$GPRMC,162532.00,A,,,,,,,270426,,,A*61
$GPGGA,162533.00,,,,,1,02, Inf,,M,0.0,M,0.0,0000*2A
$GPRMC,162533.00,A,,,,,,,270426,,,A*60
$GPGGA,162534.00,,,,,1,02, Inf,,M,0.0,M,0.0,0000*2D
$GPRMC,162534.00,A,,,,,,,270426,,,A*67
$GPGGA,162535.00,,,,,1,02, Inf,,M,0.0,M,0.0,0000*2C
$GPRMC,162535.00,A,,,,,,,270426,,,A*66
$GPGGA,162536.00,,,,,1,02, Inf,,M,0.0,M,0.0,0000*2F
$GPRMC,162536.00,A,,,,,,,270426,,,A*65
$GPGGA,162537.00,,,,,1,02, Inf,,M,0.0,M,0.0,0000*2E
$GPRMC,162537.00,A,,,,,,,270426,,,A*64
$GPGGA,162538.00,,,,,1,02, Inf,,M,0.0,M,0.0,0000*21
$GPRMC,162538.00,A,,,,,,,270426,,,A*6B
$GPGGA,162539.00,,,,,1,03, Inf,,M,0.0,M,0.0,0000*21
$GPRMC,162539.00,A,,,,,,,270426,,,A*6A
$GPGGA,162540.00,,,,,1,02, Inf,,M,0.0,M,0.0,0000*2E
$GPRMC,162540.00,A,,,,,,,270426,,,A*64
$GPGGA,162541.00,,,,,1,02, Inf,,M,0.0,M,0.0,0000*2F
$GPRMC,162541.00,A,,,,,,,270426,,,A*65
$GPGGA,162542.00,,,,,1,02, Inf,,M,0.0,M,0.0,0000*2C
$GPRMC,162542.00,A,,,,,,,270426,,,A*66
$GPGGA,162543.00,,,,,1,02, Inf,,M,0.0,M,0.0,0000*2D
$GPRMC,162543.00,A,,,,,,,270426,,,A*67
$GPGGA,162544.00,,,,,1,02, Inf,,M,0.0,M,0.0,0000*2A
$GPRMC,162544.00,A,,,,,,,270426,,,A*60
$GPGGA,162545.00,,,,,1,02, Inf,,M,0.0,M,0.0,0000*2B
$GPRMC,162545.00,A,,,,,,,270426,,,A*61
$GPGGA,162546.00,,,,,1,02, Inf,,M,0.0,M,0.0,0000*28
$GPRMC,162546.00,A,,,,,,,270426,,,A*62
$GPGGA,162547.00,,,,,1,02, Inf,,M,0.0,M,0.0,0000*29
$GPRMC,162547.00,A,,,,,,,270426,,,A*63
$GPGGA,162548.00,,,,,1,02, Inf,,M,0.0,M,0.0,0000*26
$GPRMC,162548.00,A,,,,,,,270426,,,A*6C
$GPGGA,162549.00,,,,,1,02, Inf,,M,0.0,M,0.0,0000*27
$GPRMC,162549.00,A,,,,,,,270426,,,A*6D
$GPGGA,162550.00,,,,,1,02, Inf,,M,0.0,M,0.0,0000*2F
$GPRMC,162550.00,A,,,,,,,270426,,,A*65
$GPGGA,162551.00,,,,,1,02, Inf,,M,0.0,M,0.0,0000*2E
$GPRMC,162551.00,A,,,,,,,270426,,,A*64
$GPGGA,162552.00,,,,,1,02, Inf,,M,0.0,M,0.0,0000*2D
$GPRMC,162552.00,A,,,,,,,270426,,,A*67
$GPGGA,162553.00,,,,,1,02, Inf,,M,0.0,M,0.0,0000*2C
$GPRMC,162553.00,A,,,,,,,270426,,,A*66
$GPGGA,162554.00,,,,,1,02, Inf,,M,0.0,M,0.0,0000*2B
$GPRMC,162554.00,A,,,,,,,270426,,,A*61
$GPGGA,162555.00,,,,,1,02, Inf,,M,0.0,M,0.0,0000*2A
$GPRMC,162555.00,A,,,,,,,270426,,,A*60
$GPGGA,162556.00,,,,,1,02, Inf,,M,0.0,M,0.0,0000*29
$GPRMC,162556.00,A,,,,,,,270426,,,A*63
$GPGGA,162557.00,,,,,1,02, Inf,,M,0.0,M,0.0,0000*28
$GPRMC,162557.00,A,,,,,,,270426,,,A*62
$GPGGA,162558.00,,,,,1,02, Inf,,M,0.0,M,0.0,0000*27
$GPRMC,162558.00,A,,,,,,,270426,,,A*6D
$GPGGA,162559.00,,,,,1,02, Inf,,M,0.0,M,0.0,0000*26
$GPRMC,162559.00,A,,,,,,,270426,,,A*6C
$GPGGA,162600.00,,,,,1,02, Inf,,M,0.0,M,0.0,0000*29
$GPRMC,162600.00,A,,,,,,,270426,,,A*63
$GPGGA,162601.00,,,,,1,02, Inf,,M,0.0,M,0.0,0000*28
$GPRMC,162601.00,A,,,,,,,270426,,,A*62
$GPGGA,162602.00,,,,,1,02, Inf,,M,0.0,M,0.0,0000*2B
$GPRMC,162602.00,A,,,,,,,270426,,,A*61
$GPGGA,162603.00,,,,,1,02, Inf,,M,0.0,M,0.0,0000*2A
$GPRMC,162603.00,A,,,,,,,270426,,,A*60
$GPGGA,162604.00,,,,,1,02, Inf,,M,0.0,M,0.0,0000*2D
$GPRMC,162604.00,A,,,,,,,270426,,,A*67
$GPGGA,162605.00,,,,,1,02, Inf,,M,0.0,M,0.0,0000*2C
$GPRMC,162605.00,A,,,,,,,270426,,,A*66
$GPGGA,162606.00,,,,,1,02, Inf,,M,0.0,M,0.0,0000*2F
$GPRMC,162606.00,A,,,,,,,270426,,,A*65
$GPGGA,162607.00,,,,,1,02, Inf,,M,0.0,M,0.0,0000*2E
$GPRMC,162607.00,A,,,,,,,270426,,,A*64
$GPGGA,162608.00,,,,,1,02, Inf,,M,0.0,M,0.0,0000*21
$GPRMC,162608.00,A,,,,,,,270426,,,A*6B
$GPGGA,162609.00,,,,,1,01, Inf,,M,0.0,M,0.0,0000*23
$GPRMC,162609.00,A,,,,,,,270426,,,A*6A
$GPGGA,162610.00,,,,,1,02, Inf,,M,0.0,M,0.0,0000*28
$GPRMC,162610.00,A,,,,,,,270426,,,A*62
$GPGGA,162611.00,,,,,1,02, Inf,,M,0.0,M,0.0,0000*29
$GPRMC,162611.00,A,,,,,,,270426,,,A*63
$GPGGA,162612.00,,,,,1,01, Inf,,M,0.0,M,0.0,0000*29
$GPRMC,162612.00,A,,,,,,,270426,,,A*60
$GPGGA,162613.00,,,,,1,02, Inf,,M,0.0,M,0.0,0000*2B
$GPRMC,162613.00,A,,,,,,,270426,,,A*61
$GPGGA,162614.00,,,,,1,01, Inf,,M,0.0,M,0.0,0000*2F
$GPRMC,162614.00,A,,,,,,,270426,,,A*66
$GPGGA,162615.00,,,,,1,02, Inf,,M,0.0,M,0.0,0000*2D
$GPRMC,162615.00,A,,,,,,,270426,,,A*67
$GPGGA,162616.00,,,,,1,02, Inf,,M,0.0,M,0.0,0000*2E
$GPRMC,162616.00,A,,,,,,,270426,,,A*64
$GPGGA,162617.00,,,,,1,02, Inf,,M,0.0,M,0.0,0000*2F
$GPRMC,162617.00,A,,,,,,,270426,,,A*65
$GPGGA,162618.00,,,,,1,01, Inf,,M,0.0,M,0.0,0000*23
$GPRMC,162618.00,A,,,,,,,270426,,,A*6A
$GPGGA,162619.00,,,,,1,01, Inf,,M,0.0,M,0.0,0000*22
$GPRMC,162619.00,A,,,,,,,270426,,,A*6B
$GPGGA,162620.00,,,,,1,02, Inf,,M,0.0,M,0.0,0000*2B
$GPRMC,162620.00,A,,,,,,,270426,,,A*61
$GPGGA,162621.00,,,,,1,01, Inf,,M,0.0,M,0.0,0000*29
$GPRMC,162621.00,A,,,,,,,270426,,,A*60
$GPGGA,162622.00,,,,,1,01, Inf,,M,0.0,M,0.0,0000*2A
$GPRMC,162622.00,A,,,,,,,270426,,,A*63
$GPGGA,162623.00,,,,,1,01, Inf,,M,0.0,M,0.0,0000*2B
$GPRMC,162623.00,A,,,,,,,270426,,,A*62
$GPGGA,162624.00,,,,,1,01, Inf,,M,0.0,M,0.0,0000*2C
$GPRMC,162624.00,A,,,,,,,270426,,,A*65
$GPGGA,162625.00,,,,,1,02, Inf,,M,0.0,M,0.0,0000*2E
$GPRMC,162625.00,A,,,,,,,270426,,,A*64
$GPGGA,162626.00,,,,,1,02, Inf,,M,0.0,M,0.0,0000*2D
$GPRMC,162626.00,A,,,,,,,270426,,,A*67
$GPGGA,162627.00,,,,,1,02, Inf,,M,0.0,M,0.0,0000*2C
$GPRMC,162627.00,A,,,,,,,270426,,,A*66
$GPGGA,162628.00,,,,,1,02, Inf,,M,0.0,M,0.0,0000*23
$GPRMC,162628.00,A,,,,,,,270426,,,A*69
$GPGGA,162629.00,,,,,1,02, Inf,,M,0.0,M,0.0,0000*22
$GPRMC,162629.00,A,,,,,,,270426,,,A*68
$GPGGA,162630.00,,,,,1,01, Inf,,M,0.0,M,0.0,0000*29
$GPRMC,162630.00,A,,,,,,,270426,,,A*60
$GPGGA,162631.00,,,,,1,00, Inf,,M,0.0,M,0.0,0000*29
$GPRMC,162631.00,A,,,,,,,270426,,,A*61
$GPGGA,162632.00,,,,,1,01, Inf,,M,0.0,M,0.0,0000*2B
$GPRMC,162632.00,A,,,,,,,270426,,,A*62
$GPGGA,162633.00,,,,,1,01, Inf,,M,0.0,M,0.0,0000*2A
$GPRMC,162633.00,A,,,,,,,270426,,,A*63
$GPGGA,162634.00,,,,,1,02, Inf,,M,0.0,M,0.0,0000*2E
$GPRMC,162634.00,A,,,,,,,270426,,,A*64
$GPGGA,162635.00,,,,,1,02, Inf,,M,0.0,M,0.0,0000*2F
$GPRMC,162635.00,A,,,,,,,270426,,,A*65
$GPGGA,162636.00,,,,,1,02, Inf,,M,0.0,M,0.0,0000*2C
$GPRMC,162636.00,A,,,,,,,270426,,,A*66
$GPGGA,162637.00,,,,,1,02, Inf,,M,0.0,M,0.0,0000*2D
$GPRMC,162637.00,A,,,,,,,270426,,,A*67
$GPGGA,162638.00,,,,,1,02, Inf,,M,0.0,M,0.0,0000*22
$GPRMC,162638.00,A,,,,,,,270426,,,A*68
$GPGGA,162639.00,,,,,1,02, Inf,,M,0.0,M,0.0,0000*23
$GPRMC,162639.00,A,,,,,,,270426,,,A*69
$GPGGA,162640.00,,,,,1,01, Inf,,M,0.0,M,0.0,0000*2E
$GPRMC,162640.00,A,,,,,,,270426,,,A*67
$GPGGA,162641.00,,,,,1,01, Inf,,M,0.0,M,0.0,0000*2F
$GPRMC,162641.00,A,,,,,,,270426,,,A*66
$GPGGA,162642.00,,,,,1,01, Inf,,M,0.0,M,0.0,0000*2C
$GPRMC,162642.00,A,,,,,,,270426,,,A*65
$GPGGA,162643.00,,,,,1,00, Inf,,M,0.0,M,0.0,0000*2C
$GPRMC,162643.00,A,,,,,,,270426,,,A*64
$GPGGA,162644.00,,,,,1,01, Inf,,M,0.0,M,0.0,0000*2A
$GPRMC,162644.00,A,,,,,,,270426,,,A*63
$GPGGA,162645.00,,,,,1,02, Inf,,M,0.0,M,0.0,0000*28
$GPRMC,162645.00,A,,,,,,,270426,,,A*62
$GPGGA,162646.00,,,,,1,01, Inf,,M,0.0,M,0.0,0000*28
$GPRMC,162646.00,A,,,,,,,270426,,,A*61
$GPGGA,162647.00,,,,,1,00, Inf,,M,0.0,M,0.0,0000*28
$GPRMC,162647.00,A,,,,,,,270426,,,A*60
$GPGGA,162648.00,,,,,1,00, Inf,,M,0.0,M,0.0,0000*27
$GPRMC,162648.00,A,,,,,,,270426,,,A*6F
$GPGGA,162649.00,,,,,1,01, Inf,,M,0.0,M,0.0,0000*27
$GPRMC,162649.00,A,,,,,,,270426,,,A*6E
$GPGGA,162650.00,,,,,1,01, Inf,,M,0.0,M,0.0,0000*2F
$GPRMC,162650.00,A,,,,,,,270426,,,A*66
$GPGGA,162651.00,,,,,1,01, Inf,,M,0.0,M,0.0,0000*2E
$GPRMC,162651.00,A,,,,,,,270426,,,A*67
$GPGGA,162652.00,,,,,1,00, Inf,,M,0.0,M,0.0,0000*2C
$GPRMC,162652.00,A,,,,,,,270426,,,A*64
$GPGGA,162653.00,,,,,1,00, Inf,,M,0.0,M,0.0,0000*2D
$GPRMC,162653.00,A,,,,,,,270426,,,A*65
$GPGGA,162654.00,,,,,1,00, Inf,,M,0.0,M,0.0,0000*2A
$GPRMC,162654.00,A,,,,,,,270426,,,A*62
$GPGGA,162655.00,,,,,1,00, Inf,,M,0.0,M,0.0,0000*2B
$GPRMC,162655.00,A,,,,,,,270426,,,A*63
$GPGGA,162656.00,,,,,1,00, Inf,,M,0.0,M,0.0,0000*28
$GPRMC,162656.00,A,,,,,,,270426,,,A*60
$GPGGA,162657.00,,,,,1,01, Inf,,M,0.0,M,0.0,0000*28
$GPRMC,162657.00,A,,,,,,,270426,,,A*61
$GPGGA,162658.00,,,,,1,00, Inf,,M,0.0,M,0.0,0000*26
$GPRMC,162658.00,A,,,,,,,270426,,,A*6E
$GPGGA,162659.00,,,,,1,00, Inf,,M,0.0,M,0.0,0000*27
$GPRMC,162659.00,A,,,,,,,270426,,,A*6F
$GPGGA,162700.00,,,,,1,00, Inf,,M,0.0,M,0.0,0000*2A
$GPRMC,162700.00,A,,,,,,,270426,,,A*62
$GPGGA,162701.00,,,,,1,00, Inf,,M,0.0,M,0.0,0000*2B
$GPRMC,162701.00,A,,,,,,,270426,,,A*63
$GPGGA,162702.00,,,,,1,00, Inf,,M,0.0,M,0.0,0000*28
$GPRMC,162702.00,A,,,,,,,270426,,,A*60
$GPGGA,162703.00,,,,,1,00, Inf,,M,0.0,M,0.0,0000*29
$GPRMC,162703.00,A,,,,,,,270426,,,A*61
$GPGGA,162704.00,,,,,1,00, Inf,,M,0.0,M,0.0,0000*2E
$GPRMC,162704.00,A,,,,,,,270426,,,A*66
$GPGGA,162705.00,,,,,1,00, Inf,,M,0.0,M,0.0,0000*2F
$GPRMC,162705.00,A,,,,,,,270426,,,A*67
$GPGGA,162706.00,,,,,1,00, Inf,,M,0.0,M,0.0,0000*2C
$GPRMC,162706.00,A,,,,,,,270426,,,A*64
$GPGGA,162707.00,,,,,1,00, Inf,,M,0.0,M,0.0,0000*2D
$GPRMC,162707.00,A,,,,,,,270426,,,A*65
$GPGGA,162708.00,,,,,1,00, Inf,,M,0.0,M,0.0,0000*22
$GPRMC,162708.00,A,,,,,,,270426,,,A*6A
$GPGGA,162709.00,,,,,1,00, Inf,,M,0.0,M,0.0,0000*23
$GPRMC,162709.00,A,,,,,,,270426,,,A*6B
$GPGGA,162710.00,,,,,1,00, Inf,,M,0.0,M,0.0,0000*2B
$GPRMC,162710.00,A,,,,,,,270426,,,A*63
$GPGGA,162711.00,,,,,1,00, Inf,,M,0.0,M,0.0,0000*2A
$GPRMC,162711.00,A,,,,,,,270426,,,A*62
$GPGGA,162712.00,,,,,1,00, Inf,,M,0.0,M,0.0,0000*29
$GPRMC,162712.00,A,,,,,,,270426,,,A*61
$GPGGA,162713.00,,,,,1,00, Inf,,M,0.0,M,0.0,0000*28
$GPRMC,162713.00,A,,,,,,,270426,,,A*60
$GPGGA,162714.00,,,,,1,00, Inf,,M,0.0,M,0.0,0000*2F
$GPRMC,162714.00,A,,,,,,,270426,,,A*67
$GPGGA,162715.00,,,,,1,00, Inf,,M,0.0,M,0.0,0000*2E
$GPRMC,162715.00,A,,,,,,,270426,,,A*66
$GPGGA,162716.00,,,,,1,00, Inf,,M,0.0,M,0.0,0000*2D
$GPRMC,162716.00,A,,,,,,,270426,,,A*65
$GPGGA,162717.00,,,,,1,00, Inf,,M,0.0,M,0.0,0000*2C
$GPRMC,162717.00,A,,,,,,,270426,,,A*64
$GPGGA,162718.00,,,,,1,00, Inf,,M,0.0,M,0.0,0000*23
$GPRMC,162718.00,A,,,,,,,270426,,,A*6B
$GPGGA,162719.00,,,,,1,00, Inf,,M,0.0,M,0.0,0000*22
$GPRMC,162719.00,A,,,,,,,270426,,,A*6A
$GPGGA,162720.00,,,,,1,00, Inf,,M,0.0,M,0.0,0000*28
$GPRMC,162720.00,A,,,,,,,270426,,,A*60
$GPGGA,162721.00,,,,,1,00, Inf,,M,0.0,M,0.0,0000*29
$GPRMC,162721.00,A,,,,,,,270426,,,A*61
$GPGGA,162722.00,,,,,1,00, Inf,,M,0.0,M,0.0,0000*2A
$GPRMC,162722.00,A,,,,,,,270426,,,A*62
$GPGGA,162723.00,,,,,1,00, Inf,,M,0.0,M,0.0,0000*2B
$GPRMC,162723.00,A,,,,,,,270426,,,A*63
$GPGGA,162724.00,,,,,1,00, Inf,,M,0.0,M,0.0,0000*2C
$GPRMC,162724.00,A,,,,,,,270426,,,A*64
$GPGGA,162725.00,,,,,1,00, Inf,,M,0.0,M,0.0,0000*2D
$GPRMC,162725.00,A,,,,,,,270426,,,A*65
$GPGGA,162726.00,,,,,1,00, Inf,,M,0.0,M,0.0,0000*2E
$GPRMC,162726.00,A,,,,,,,270426,,,A*66
$GPGGA,162727.00,,,,,1,00, Inf,,M,0.0,M,0.0,0000*2F
$GPRMC,162727.00,A,,,,,,,270426,,,A*67
$GPGGA,162728.00,,,,,1,00, Inf,,M,0.0,M,0.0,0000*20
$GPRMC,162728.00,A,,,,,,,270426,,,A*68
$GPGGA,162729.00,,,,,1,00, Inf,,M,0.0,M,0.0,0000*21
$GPRMC,162729.00,A,,,,,,,270426,,,A*69
$GPGGA,162730.00,,,,,1,01, Inf,,M,0.0,M,0.0,0000*28
$GPRMC,162730.00,A,,,,,,,270426,,,A*61
$GPGGA,162731.00,,,,,1,01, Inf,,M,0.0,M,0.0,0000*29
$GPRMC,162731.00,A,,,,,,,270426,,,A*60
$GPGGA,162732.00,,,,,1,01, Inf,,M,0.0,M,0.0,0000*2A
$GPRMC,162732.00,A,,,,,,,270426,,,A*63
$GPGGA,162733.00,,,,,1,01, Inf,,M,0.0,M,0.0,0000*2B
$GPRMC,162733.00,A,,,,,,,270426,,,A*62
$GPGGA,162734.00,,,,,1,01, Inf,,M,0.0,M,0.0,0000*2C
$GPRMC,162734.00,A,,,,,,,270426,,,A*65
$GPGGA,162735.00,,,,,1,01, Inf,,M,0.0,M,0.0,0000*2D
$GPRMC,162735.00,A,,,,,,,270426,,,A*64
$GPGGA,162736.00,,,,,1,01, Inf,,M,0.0,M,0.0,0000*2E
$GPRMC,162736.00,A,,,,,,,270426,,,A*67
$GPGGA,162737.00,,,,,1,02, Inf,,M,0.0,M,0.0,0000*2C
$GPRMC,162737.00,A,,,,,,,270426,,,A*66
$GPGGA,162738.00,,,,,1,02, Inf,,M,0.0,M,0.0,0000*23
$GPRMC,162738.00,A,,,,,,,270426,,,A*69
$GPGGA,162739.00,,,,,1,03, Inf,,M,0.0,M,0.0,0000*23
$GPRMC,162739.00,A,,,,,,,270426,,,A*68
$GPGGA,162740.00,,,,,1,03, Inf,,M,0.0,M,0.0,0000*2D
$GPRMC,162740.00,A,,,,,,,270426,,,A*66
$GPGGA,162741.00,,,,,1,03, Inf,,M,0.0,M,0.0,0000*2C
$GPRMC,162741.00,A,,,,,,,270426,,,A*67
$GPGGA,162742.00,,,,,1,03, Inf,,M,0.0,M,0.0,0000*2F
$GPRMC,162742.00,A,,,,,,,270426,,,A*64
$GPGGA,162743.00,,,,,1,03, Inf,,M,0.0,M,0.0,0000*2E
$GPRMC,162743.00,A,,,,,,,270426,,,A*65
$GPGGA,162744.00,,,,,1,03, Inf,,M,0.0,M,0.0,0000*29
$GPRMC,162744.00,A,,,,,,,270426,,,A*62
$GPGGA,162745.00,,,,,1,02, Inf,,M,0.0,M,0.0,0000*29
$GPRMC,162745.00,A,,,,,,,270426,,,A*63
$GPGGA,162746.00,,,,,1,02, Inf,,M,0.0,M,0.0,0000*2A
$GPRMC,162746.00,A,,,,,,,270426,,,A*60
$GPGGA,162747.00,,,,,1,03, Inf,,M,0.0,M,0.0,0000*2A
$GPRMC,162747.00,A,,,,,,,270426,,,A*61
$GPGGA,162748.00,,,,,1,03, Inf,,M,0.0,M,0.0,0000*25
$GPRMC,162748.00,A,,,,,,,270426,,,A*6E
$GPGGA,162749.00,,,,,1,03, Inf,,M,0.0,M,0.0,0000*24
$GPRMC,162749.00,A,,,,,,,270426,,,A*6F
$GPGGA,162750.00,,,,,1,02, Inf,,M,0.0,M,0.0,0000*2D
$GPRMC,162750.00,A,,,,,,,270426,,,A*67
$GPGGA,162751.00,,,,,1,03, Inf,,M,0.0,M,0.0,0000*2D
$GPRMC,162751.00,A,,,,,,,270426,,,A*66
$GPGGA,162752.00,,,,,1,03, Inf,,M,0.0,M,0.0,0000*2E
$GPRMC,162752.00,A,,,,,,,270426,,,A*65
$GPGGA,162753.00,,,,,1,03, Inf,,M,0.0,M,0.0,0000*2F
$GPRMC,162753.00,A,,,,,,,270426,,,A*64
$GPGGA,162754.00,,,,,1,03, Inf,,M,0.0,M,0.0,0000*28
$GPRMC,162754.00,A,,,,,,,270426,,,A*63
$GPGGA,162755.00,,,,,1,03, Inf,,M,0.0,M,0.0,0000*29
$GPRMC,162755.00,A,,,,,,,270426,,,A*62
$GPGGA,162756.00,,,,,1,02, Inf,,M,0.0,M,0.0,0000*2B
$GPRMC,162756.00,A,,,,,,,270426,,,A*61
$GPGGA,162757.00,,,,,1,02, Inf,,M,0.0,M,0.0,0000*2A
$GPRMC,162757.00,A,,,,,,,270426,,,A*60
$GPGGA,162758.00,,,,,1,01, Inf,,M,0.0,M,0.0,0000*26
$GPRMC,162758.00,A,,,,,,,270426,,,A*6F
$GPGGA,162759.00,,,,,1,02, Inf,,M,0.0,M,0.0,0000*24
$GPRMC,162759.00,A,,,,,,,270426,,,A*6E
$GPGGA,162800.00,,,,,1,02, Inf,,M,0.0,M,0.0,0000*27
$GPRMC,162800.00,A,,,,,,,270426,,,A*6D
$GPGGA,162801.00,,,,,1,01, Inf,,M,0.0,M,0.0,0000*25
$GPRMC,162801.00,A,,,,,,,270426,,,A*6C
$GPGGA,162802.00,,,,,1,01, Inf,,M,0.0,M,0.0,0000*26
$GPRMC,162802.00,A,,,,,,,270426,,,A*6F
$GPGGA,162803.00,,,,,1,01, Inf,,M,0.0,M,0.0,0000*27
$GPRMC,162803.00,A,,,,,,,270426,,,A*6E
$GPGGA,162804.00,,,,,1,01, Inf,,M,0.0,M,0.0,0000*20
$GPRMC,162804.00,A,,,,,,,270426,,,A*69
$GPGGA,162805.00,,,,,1,02, Inf,,M,0.0,M,0.0,0000*22
$GPRMC,162805.00,A,,,,,,,270426,,,A*68
$GPGGA,162806.00,,,,,1,02, Inf,,M,0.0,M,0.0,0000*21
$GPRMC,162806.00,A,,,,,,,270426,,,A*6B
$GPGGA,162807.00,,,,,1,02, Inf,,M,0.0,M,0.0,0000*20
$GPRMC,162807.00,A,,,,,,,270426,,,A*6A
$GPGGA,162808.00,,,,,1,01, Inf,,M,0.0,M,0.0,0000*2C
$GPRMC,162808.00,A,,,,,,,270426,,,A*65
$GPGGA,162809.00,,,,,1,01, Inf,,M,0.0,M,0.0,0000*2D
$GPRMC,162809.00,A,,,,,,,270426,,,A*64
$GPGGA,162810.00,,,,,1,02, Inf,,M,0.0,M,0.0,0000*26
$GPRMC,162810.00,A,,,,,,,270426,,,A*6C
$GPGGA,162811.00,,,,,1,01, Inf,,M,0.0,M,0.0,0000*24
$GPRMC,162811.00,A,,,,,,,270426,,,A*6D
$GPGGA,162812.00,,,,,1,02, Inf,,M,0.0,M,0.0,0000*24
$GPRMC,162812.00,A,,,,,,,270426,,,A*6E
$GPGGA,162813.00,,,,,1,01, Inf,,M,0.0,M,0.0,0000*26
$GPRMC,162813.00,A,,,,,,,270426,,,A*6F
$GPGGA,162814.00,,,,,1,00, Inf,,M,0.0,M,0.0,0000*20
$GPRMC,162814.00,A,,,,,,,270426,,,A*68
$GPGGA,162815.00,,,,,1,01, Inf,,M,0.0,M,0.0,0000*20
$GPRMC,162815.00,A,,,,,,,270426,,,A*69
$GPGGA,162816.00,,,,,1,01, Inf,,M,0.0,M,0.0,0000*23
$GPRMC,162816.00,A,,,,,,,270426,,,A*6A
$GPGGA,162817.00,,,,,1,01, Inf,,M,0.0,M,0.0,0000*22
$GPRMC,162817.00,A,,,,,,,270426,,,A*6B
$GPGGA,162818.00,,,,,1,02, Inf,,M,0.0,M,0.0,0000*2E
$GPRMC,162818.00,A,,,,,,,270426,,,A*64
$GPGGA,162819.00,,,,,1,01, Inf,,M,0.0,M,0.0,0000*2C
$GPRMC,162819.00,A,,,,,,,270426,,,A*65
$GPGGA,162820.00,,,,,1,01, Inf,,M,0.0,M,0.0,0000*26
$GPRMC,162820.00,A,,,,,,,270426,,,A*6F
$GPGGA,162821.00,,,,,1,01, Inf,,M,0.0,M,0.0,0000*27
$GPRMC,162821.00,A,,,,,,,270426,,,A*6E
$GPGGA,162822.00,,,,,1,02, Inf,,M,0.0,M,0.0,0000*27
$GPRMC,162822.00,A,,,,,,,270426,,,A*6D
$GPGGA,162823.00,,,,,1,02, Inf,,M,0.0,M,0.0,0000*26
$GPRMC,162823.00,A,,,,,,,270426,,,A*6C
$GPGGA,162824.00,,,,,1,02, Inf,,M,0.0,M,0.0,0000*21
$GPRMC,162824.00,A,,,,,,,270426,,,A*6B
$GPGGA,162825.00,,,,,1,01, Inf,,M,0.0,M,0.0,0000*23
$GPRMC,162825.00,A,,,,,,,270426,,,A*6A
$GPGGA,162826.00,,,,,1,01, Inf,,M,0.0,M,0.0,0000*20
$GPRMC,162826.00,A,,,,,,,270426,,,A*69
$GPGGA,162827.00,,,,,1,01, Inf,,M,0.0,M,0.0,0000*21
$GPRMC,162827.00,A,,,,,,,270426,,,A*68
$GPGGA,162828.00,,,,,1,01, Inf,,M,0.0,M,0.0,0000*2E
$GPRMC,162828.00,A,,,,,,,270426,,,A*67
$GPGGA,162829.00,,,,,1,01, Inf,,M,0.0,M,0.0,0000*2F
$GPRMC,162829.00,A,,,,,,,270426,,,A*66
$GPGGA,162830.00,,,,,1,01, Inf,,M,0.0,M,0.0,0000*27
$GPRMC,162830.00,A,,,,,,,270426,,,A*6E
$GPGGA,162831.00,,,,,1,01, Inf,,M,0.0,M,0.0,0000*26
$GPRMC,162831.00,A,,,,,,,270426,,,A*6F
$GPGGA,162832.00,,,,,1,01, Inf,,M,0.0,M,0.0,0000*25
$GPRMC,162832.00,A,,,,,,,270426,,,A*6C
$GPGGA,162833.00,,,,,1,01, Inf,,M,0.0,M,0.0,0000*24
$GPRMC,162833.00,A,,,,,,,270426,,,A*6D
$GPGGA,162834.00,,,,,1,01, Inf,,M,0.0,M,0.0,0000*23
$GPRMC,162834.00,A,,,,,,,270426,,,A*6A
$GPGGA,162835.00,,,,,1,01, Inf,,M,0.0,M,0.0,0000*22
$GPRMC,162835.00,A,,,,,,,270426,,,A*6B
$GPGGA,162836.00,,,,,1,01, Inf,,M,0.0,M,0.0,0000*21
$GPRMC,162836.00,A,,,,,,,270426,,,A*68
$GPGGA,162837.00,,,,,1,02, Inf,,M,0.0,M,0.0,0000*23
$GPRMC,162837.00,A,,,,,,,270426,,,A*69
$GPGGA,162838.00,,,,,1,01, Inf,,M,0.0,M,0.0,0000*2F
$GPRMC,162838.00,A,,,,,,,270426,,,A*66
$GPGGA,162839.00,,,,,1,01, Inf,,M,0.0,M,0.0,0000*2E
$GPRMC,162839.00,A,,,,,,,270426,,,A*67
$GPGGA,162840.00,,,,,1,01, Inf,,M,0.0,M,0.0,0000*20
$GPRMC,162840.00,A,,,,,,,270426,,,A*69
$GPGGA,162841.00,,,,,1,01, Inf,,M,0.0,M,0.0,0000*21
$GPRMC,162841.00,A,,,,,,,270426,,,A*68
$GPGGA,162842.00,,,,,1,01, Inf,,M,0.0,M,0.0,0000*22
$GPRMC,162842.00,A,,,,,,,270426,,,A*6B
$GPGGA,162843.00,,,,,1,01, Inf,,M,0.0,M,0.0,0000*23
