$GPGGA,143446.00,4124.233579,N,00206.224667,E,1,17,0.71,409.25,M,0.0,M,0.0,0000*75
$GPGSV,3,1,9,1,67,324,33.6,2,67,064,33.6,3,50,238,33.7,8,41,163,30.0*44
$GPGSV,3,2,9,14,22,286,30.7,17,19,315,28.0,22,20,302,31.6,27,12,150,22.7*4D
$GPGSV,3,3,9,32,30,055,33.3*6F
$GLGSV,2,1,8,6,50,047,0.0,7,53,168,23.3,8,06,193,0.0,12,11,262,26.3*65
$GLGSV,2,2,8,13,14,307,32.4,21,45,090,34.3,22,53,334,0.0,23,17,310,0.0*53
$GPRMC,143446.00,A,4124.233579,N,00206.224667,E,000.4,,260426,,,A*7D
$GPGGA,143447.00,4124.234724,N,00206.225185,E,1,17,0.71,415.35,M,0.0,M,0.0,0000*7F
$GPGSV,3,1,9,1,67,324,33.7,2,67,064,29.6,3,51,238,35.2,8,41,163,31.5*48
$GPGSV,3,2,9,14,22,286,35.1,17,19,315,28.5,22,20,302,31.8,27,12,150,27.0*47
$GPGSV,3,3,9,32,30,055,32.4*69
$GLGSV,2,1,8,6,50,047,0.0,7,53,168,22.0,8,06,193,0.0,12,11,262,28.0*6A
$GLGSV,2,2,8,13,14,307,27.3,21,45,090,28.1,22,53,334,0.0,23,17,310,0.0*5F
$GPRMC,143447.00,A,4124.234724,N,00206.225185,E,003.6,020.6,260426,,,A*50
$GPGGA,143448.00,4124.233777,N,00206.224559,E,1,17,0.71,412.76,M,0.0,M,0.0,0000*75
$GPGSV,3,1,9,1,67,324,33.7,2,67,064,26.1,3,51,238,39.4,8,41,163,31.6*49
$GPGSV,3,2,9,14,22,286,34.5,17,19,315,31.9,22,20,302,34.4,27,12,150,28.4*44
$GPGSV,3,3,9,32,30,055,33.5*69
$GLGSV,2,1,8,6,50,047,0.0,7,53,168,28.3,8,06,193,0.0,12,11,262,27.0*6C
$GLGSV,2,2,8,13,14,307,31.2,21,45,090,33.2,22,53,334,0.0,23,17,310,0.0*50
$GPRMC,143448.00,A,4124.233777,N,00206.224559,E,000.5,178.2,260426,,,A*52
$GPGGA,143449.00,4124.233358,N,00206.224448,E,1,17,0.71,411.45,M,0.0,M,0.0,0000*7F
$GPGSV,3,1,9,1,67,324,33.7,2,67,064,29.3,3,51,238,39.3,8,41,163,35.0*41
$GPGSV,3,2,9,14,22,286,36.1,17,19,315,30.8,22,20,302,33.0,27,12,150,30.4*48
$GPGSV,3,3,9,32,30,055,31.0*6E
$GLGSV,2,1,8,6,50,047,0.0,7,53,168,26.1,8,06,193,0.0,12,11,262,32.2*66
$GLGSV,2,2,8,13,14,307,27.6,21,45,090,33.2,22,53,334,0.0,23,17,310,0.0*53
$GPRMC,143449.00,A,4124.233358,N,00206.224448,E,001.6,185.9,260426,,,A*50
$GPGGA,143450.00,4124.232904,N,00206.221639,E,1,17,0.71,415.75,M,0.0,M,0.0,0000*73
$GPGSV,3,1,9,1,67,324,33.1,2,67,064,28.8,3,51,238,39.4,8,41,163,32.2*4F
$GPGSV,3,2,9,14,22,286,36.0,17,19,315,32.7,22,20,302,29.8,27,12,150,29.2*49
$GPGSV,3,3,9,32,30,055,27.4*6D
$GLGSV,2,1,8,6,50,047,0.0,7,53,168,26.1,8,06,193,0.0,12,11,262,36.4*64
$GLGSV,2,2,8,13,14,307,26.3,21,45,090,33.3,22,53,334,0.0,23,17,310,0.0*56
$GPRMC,143450.00,A,4124.232904,N,00206.221639,E,000.6,256.4,260426,,,A*5A
$GPGGA,143451.00,4124.234242,N,00206.224648,E,1,17,0.71,413.71,M,0.0,M,0.0,0000*7C
$GPGSV,3,1,9,1,67,324,33.2,2,67,064,31.0,3,51,238,36.1,8,41,163,29.1*4F
$GPGSV,3,2,9,14,22,286,36.0,17,19,315,30.0,22,20,302,30.5,27,12,150,30.5*46
$GPGSV,3,3,9,32,30,055,30.1*6E
$GLGSV,2,1,8,6,50,047,0.0,7,53,168,26.6,8,06,193,0.0,12,10,262,32.3*61
$GLGSV,2,2,8,13,14,307,29.9,21,45,090,37.1,22,53,334,0.0,23,17,310,0.0*55
$GPRMC,143451.00,A,4124.234242,N,00206.224648,E,000.4,,260426,,,A*7E
$GPGGA,143452.00,4124.234335,N,00206.223743,E,1,17,0.71,413.57,M,0.0,M,0.0,0000*77
$GPGSV,3,1,9,1,67,324,32.0,2,67,064,33.2,3,51,238,36.2,8,41,163,37.0*41
$GPGSV,3,2,9,14,22,286,35.9,17,19,315,25.6,22,20,302,27.2,27,12,150,27.7*4B
$GPGSV,3,3,9,32,30,055,35.1*6B
$GLGSV,2,1,8,6,50,047,0.0,7,53,168,23.7,8,06,193,0.0,12,10,262,24.9*68
$GLGSV,2,2,8,13,14,307,32.8,21,45,090,37.2,22,53,334,0.0,23,17,310,0.0*5D
$GPRMC,143452.00,A,4124.234335,N,00206.223743,E,000.7,074.4,260426,,,A*5B
$GPGGA,143453.00,4124.234029,N,00206.223949,E,1,17,0.71,413.17,M,0.0,M,0.0,0000*78
$GPGSV,3,1,9,1,67,324,34.3,2,67,064,32.1,3,51,238,36.2,8,41,163,36.4*43
$GPGSV,3,2,9,14,22,286,35.9,17,19,315,25.6,22,20,302,30.3,27,12,150,28.5*41
$GPGSV,3,3,9,32,30,055,36.0*69
$GLGSV,2,1,8,6,50,047,0.0,7,53,168,23.2,8,06,193,0.0,12,10,262,29.5*6C
$GLGSV,2,2,8,13,14,307,32.3,21,45,090,37.1,22,53,334,0.0,23,17,310,0.0*55
$GPRMC,143453.00,A,4124.234029,N,00206.223949,E,000.9,173.7,260426,,,A*5B
$GPGGA,143454.00,4124.234061,N,00206.224416,E,1,17,0.71,413.02,M,0.0,M,0.0,0000*77
$GPGSV,3,1,9,1,67,324,32.7,2,67,064,32.0,3,51,238,33.6,8,41,163,29.5*4E
$GPGSV,3,2,9,14,22,286,36.0,17,19,315,26.1,22,20,302,32.8,27,12,150,29.7*45
$GPGSV,3,3,9,32,30,055,36.0*69
$GLGSV,2,1,8,6,50,047,0.0,7,53,168,24.9,8,06,193,0.0,12,10,262,29.4*61
$GLGSV,2,2,8,13,14,307,31.6,21,45,090,37.1,22,53,334,0.0,23,17,310,0.0*53
$GPRMC,143454.00,A,4124.234061,N,00206.224416,E,000.5,314.2,260426,,,A*5A
$GPGGA,143455.00,4124.233933,N,00206.223996,E,1,17,0.71,416.31,M,0.0,M,0.0,0000*78
$GPGSV,3,1,9,1,67,324,32.7,2,67,064,33.3,3,51,238,33.7,8,41,163,26.4*43
$GPGSV,3,2,9,14,22,286,36.1,17,19,315,29.0,22,20,302,33.5,27,12,150,29.1*40
$GPGSV,3,3,9,32,30,055,36.0*69
$GLGSV,2,1,8,6,50,047,0.0,7,53,168,28.1,8,06,193,0.0,12,10,262,34.8*65
$GLGSV,2,2,8,13,14,307,31.7,21,45,090,37.0,22,53,334,0.0,23,17,310,0.0*53
$GPRMC,143455.00,A,4124.233933,N,00206.223996,E,000.6,261.8,260426,,,A*5A
$GPGGA,143456.00,4124.232768,N,00206.222617,E,1,17,0.71,415.95,M,0.0,M,0.0,0000*70
$GPGSV,3,1,9,1,67,324,35.8,2,67,064,27.5,3,51,238,39.6,8,41,163,29.3*4B
$GPGSV,3,2,9,14,22,286,36.1,17,19,315,29.8,22,20,302,31.1,27,12,150,30.3*44
$GPGSV,3,3,9,32,30,055,35.9*63
$GLGSV,2,1,8,6,50,047,0.0,7,53,168,24.8,8,06,193,0.0,12,10,262,37.8*63
$GLGSV,2,2,8,13,14,307,29.0,21,45,090,37.1,22,53,334,0.0,23,17,310,0.0*5C
$GPRMC,143456.00,A,4124.232768,N,00206.222617,E,001.8,071.9,260426,,,A*52
$GPGGA,143457.00,4124.233760,N,00206.224681,E,1,17,0.71,415.52,M,0.0,M,0.0,0000*7A
$GPGSV,3,1,9,1,67,324,35.7,2,67,064,26.8,3,51,238,39.5,8,41,163,27.9*4F
$GPGSV,3,2,9,14,22,286,36.2,17,19,315,29.3,22,20,302,30.6,27,12,150,33.0*4A
$GPGSV,3,3,9,32,30,055,34.3*68
$GLGSV,2,1,8,6,50,047,0.0,7,53,168,27.6,8,06,193,0.0,12,10,262,37.7*61
$GLGSV,2,2,8,13,14,307,29.1,21,45,090,37.2,22,53,334,0.0,23,17,310,0.0*5E
$GPRMC,143457.00,A,4124.233760,N,00206.224681,E,000.4,,260426,,,A*7F
$GPGGA,143458.00,4124.234208,N,00206.223511,E,1,17,0.71,415.06,M,0.0,M,0.0,0000*75
$GPGSV,3,1,9,1,67,324,35.7,2,67,064,32.3,3,51,238,39.4,8,41,163,29.3*44
$GPGSV,3,2,9,14,22,286,36.2,17,19,315,25.7,22,20,302,33.9,27,12,150,30.9*44
$GPGSV,3,3,9,32,30,055,33.4*68
$GLGSV,2,1,8,6,50,047,0.0,7,53,168,26.2,8,06,193,0.0,12,10,262,27.6*64
$GLGSV,2,2,8,13,14,307,29.1,21,45,090,37.2,22,53,334,0.0,23,17,310,0.0*5E
$GPRMC,143458.00,A,4124.234208,N,00206.223511,E,000.1,,260426,,,A*74
$GPGGA,143459.00,4124.233892,N,00206.223759,E,1,17,0.71,417.73,M,0.0,M,0.0,0000*74
$GPGSV,3,1,9,1,67,324,35.6,2,67,064,32.6,3,51,238,39.3,8,41,163,33.4*4B
$GPGSV,3,2,9,14,22,286,36.2,17,19,315,25.5,22,20,302,32.5,27,12,150,27.4*40
$GPGSV,3,3,9,32,30,055,33.4*68
$GLGSV,2,1,8,6,50,047,0.0,7,53,168,24.8,8,06,193,0.0,12,10,262,27.7*6D
$GLGSV,2,2,8,13,14,307,29.1,21,45,090,37.2,22,53,334,0.0,23,17,310,0.0*5E
$GPRMC,143459.00,A,4124.233892,N,00206.223759,E,000.5,,260426,,,A*71
$GPGGA,143500.00,4124.233751,N,00206.223473,E,1,17,0.71,417.18,M,0.0,M,0.0,0000*7F
$GPGSV,3,1,9,1,67,324,35.5,2,67,064,33.4,3,51,238,39.3,8,41,163,34.1*49
$GPGSV,3,2,9,14,22,286,36.2,17,19,315,25.4,22,20,302,33.4,27,12,150,26.9*4D
$GPGSV,3,3,9,32,30,055,32.9*64
$GLGSV,2,1,8,6,50,047,0.0,7,53,168,22.6,8,06,193,0.0,12,10,262,27.8*6A
$GLGSV,2,2,8,13,14,307,29.2,21,45,090,37.1,22,53,334,0.0,23,17,310,0.0*5E
$GPRMC,143500.00,A,4124.233751,N,00206.223473,E,000.7,262.7,260426,,,A*5A
$GPGGA,143501.00,4124.233530,N,00206.223687,E,1,17,0.71,417.09,M,0.0,M,0.0,0000*72
$GPGSV,3,1,9,1,67,324,32.8,2,67,064,33.2,3,51,238,39.4,8,41,163,35.0*42
$GPGSV,3,2,9,14,22,286,36.2,17,19,315,27.4,22,20,302,33.9,27,12,150,27.0*4A
$GPGSV,3,3,9,32,30,055,33.0*6C
$GLGSV,2,1,8,6,50,047,0.0,7,53,168,19.3,8,06,193,0.0,12,10,262,27.8*67
$GLGSV,2,2,8,13,14,307,33.0,21,45,090,37.1,22,53,334,30.4,23,17,310,0.0*60
$GPRMC,143501.00,A,4124.233530,N,00206.223687,E,000.5,,260426,,,A*7A
$GPGGA,143502.00,4124.233151,N,00206.223005,E,1,17,0.71,416.16,M,0.0,M,0.0,0000*71
$GPGSV,3,1,9,1,67,324,32.8,2,67,064,34.1,3,51,238,39.5,8,41,163,33.3*42
$GPGSV,3,2,9,14,22,286,36.3,17,19,315,27.4,22,20,302,33.9,27,12,150,28.8*4C
$GPGSV,3,3,9,32,30,055,32.7*6A
$GLGSV,2,1,8,6,50,047,0.0,7,53,168,20.8,8,07,193,0.0,12,10,262,27.8*67
$GLGSV,2,2,8,13,14,307,32.9,21,45,090,37.1,22,53,334,30.4,23,17,310,0.0*68
$GPRMC,143502.00,A,4124.233151,N,00206.223005,E,000.2,,260426,,,A*71
$GPGGA,143503.00,4124.234165,N,00206.223546,E,1,17,0.71,415.83,M,0.0,M,0.0,0000*7D
$GPGSV,3,1,9,1,67,324,32.8,2,67,064,34.1,3,51,238,39.5,8,41,163,33.3*42
$GPGSV,3,2,9,14,22,286,36.3,17,19,315,25.0,22,20,302,31.1,27,12,150,28.0*48
$GPGSV,3,3,9,32,30,055,33.9*65
$GLGSV,2,1,8,6,50,047,0.0,7,53,168,22.7,8,07,193,0.0,12,10,262,27.9*6B
$GLGSV,2,2,8,13,14,307,32.8,21,45,090,37.1,22,53,334,30.4,23,17,310,0.0*69
$GPRMC,143503.00,A,4124.234165,N,00206.223546,E,000.3,,260426,,,A*73
$GPGGA,143504.00,4124.233400,N,00206.224458,E,1,17,0.71,417.74,M,0.0,M,0.0,0000*78
$GPGSV,3,1,9,1,67,324,32.8,2,67,064,34.2,3,51,238,39.4,8,41,163,30.2*42
$GPGSV,3,2,9,14,22,286,36.4,17,19,315,24.7,22,20,302,31.2,27,12,150,27.9*4C
$GPGSV,3,3,9,32,30,055,33.9*65
$GLGSV,2,1,8,6,50,047,0.0,7,53,168,19.9,8,07,193,0.0,12,10,262,28.8*63
$GLGSV,2,2,8,13,14,307,30.0,21,45,090,37.1,22,53,334,29.5,23,17,310,0.0*6A
$GPRMC,143504.00,A,4124.233400,N,00206.224458,E,000.4,,260426,,,A*7B
$GPGGA,143505.00,4124.233237,N,00206.224862,E,1,17,0.71,416.73,M,0.0,M,0.0,0000*78
$GPGSV,3,1,9,1,67,324,32.8,2,67,064,34.1,3,51,238,39.5,8,41,163,32.2*42
$GPGSV,3,2,9,14,22,286,36.4,17,19,315,27.0,22,20,302,31.2,27,12,150,27.2*43
$GPGSV,3,3,9,32,30,055,33.8*64
$GLGSV,2,1,8,6,50,047,0.0,7,53,168,19.9,8,07,193,0.0,12,10,262,29.6*6C
$GLGSV,2,2,8,13,14,307,30.0,21,45,090,37.1,22,53,334,31.3,23,17,310,0.0*65
$GPRMC,143505.00,A,4124.233237,N,00206.224862,E,000.3,,260426,,,A*7A
$GPGGA,143506.00,4124.233110,N,00206.224945,E,1,17,0.71,415.28,M,0.0,M,0.0,0000*74
$GPGSV,3,1,9,1,67,324,32.8,2,67,064,34.1,3,51,238,39.5,8,41,163,33.1*40
$GPGSV,3,2,9,14,22,286,36.5,17,19,315,27.9,22,20,302,31.3,27,12,150,27.4*4C
$GPGSV,3,3,9,32,30,055,33.8*64
$GLGSV,2,1,8,6,50,047,0.0,7,53,168,20.0,8,07,193,0.0,12,10,262,28.6*6E
$GLGSV,2,2,8,13,14,307,30.1,21,45,090,37.0,22,53,334,0.0,23,17,310,0.0*54
$GPRMC,143506.00,A,4124.233110,N,00206.224945,E,000.3,,260426,,,A*7B
$GPGGA,143507.00,4124.232370,N,00206.224168,E,1,17,0.71,415.59,M,0.0,M,0.0,0000*71
$GPGSV,3,1,9,1,67,324,32.8,2,67,064,34.0,3,51,238,39.6,8,41,163,34.5*41
$GPGSV,3,2,9,14,22,286,36.6,17,19,315,28.4,22,20,302,31.4,27,12,150,29.8*48
$GPGSV,3,3,9,32,30,055,33.7*6B
$GLGSV,2,1,8,6,50,047,0.0,7,53,168,20.2,8,07,193,0.0,12,10,262,33.4*64
$GLGSV,2,2,8,13,14,307,30.0,21,45,090,37.0,22,53,334,0.0,23,17,310,0.0*55
$GPRMC,143507.00,A,4124.232370,N,00206.224168,E,000.3,,260426,,,A*78
$GPGGA,143508.00,4124.234050,N,00206.225422,E,1,17,0.71,416.67,M,0.0,M,0.0,0000*7D
$GPGSV,3,1,9,1,67,324,32.8,2,67,064,30.6,3,51,238,39.7,8,41,163,34.0*47
$GPGSV,3,2,9,14,22,286,36.6,17,19,315,28.2,22,20,302,31.4,27,12,150,27.5*4D
$GPGSV,3,3,9,32,30,055,33.6*6A
$GLGSV,2,1,8,6,50,047,0.0,7,53,168,23.8,8,07,193,0.0,12,10,262,32.5*6D
$GLGSV,2,2,8,13,14,307,29.4,21,45,090,36.9,22,53,334,0.0,23,17,310,0.0*51
$GPRMC,143508.00,A,4124.234050,N,00206.225422,E,000.7,224.3,260426,,,A*57
$GPGGA,143509.00,4124.234477,N,00206.224917,E,1,17,0.71,415.97,M,0.0,M,0.0,0000*7B
$GPGSV,3,1,9,1,67,324,32.7,2,67,064,30.7,3,51,238,39.8,8,41,163,32.3*43
$GPGSV,3,2,9,14,22,286,36.8,17,19,315,29.5,22,20,302,31.5,27,12,150,27.5*44
$GPGSV,3,3,9,32,30,055,33.6*6A
$GLGSV,2,1,8,6,50,047,0.0,7,53,168,23.8,8,07,193,0.0,12,10,262,29.1*63
$GLGSV,2,2,8,13,14,307,31.4,21,45,090,36.8,22,53,334,0.0,23,17,310,0.0*59
$GPRMC,143509.00,A,4124.234477,N,00206.224917,E,000.5,356.9,260426,,,A*51
$GPGGA,143510.00,4124.233750,N,00206.224653,E,1,17,0.71,420.62,M,0.0,M,0.0,0000*71
$GPGSV,3,1,9,1,67,324,32.6,2,67,064,30.7,3,51,238,39.8,8,41,163,31.8*4A
$GPGSV,3,2,9,14,22,286,36.8,17,19,315,30.2,22,20,302,31.6,27,12,150,26.6*4A
$GPGSV,3,3,9,32,30,055,33.6*6A
$GLGSV,2,1,8,6,50,047,0.0,7,53,168,26.3,8,07,193,0.0,12,10,262,29.1*6D
$GLGSV,2,2,8,13,14,307,32.2,21,45,090,36.9,22,53,334,0.0,23,17,310,0.0*5D
$GPRMC,143510.00,A,4124.233750,N,00206.224653,E,000.1,,260426,,,A*74
$GPGGA,143511.00,4124.234695,N,00206.225393,E,1,17,0.71,420.19,M,0.0,M,0.0,0000*7B
$GPGSV,3,1,9,1,67,324,32.5,2,67,064,30.7,3,51,238,39.9,8,41,163,31.2*42
$GPGSV,3,2,9,14,22,286,36.9,17,19,315,31.6,22,20,302,31.7,27,12,150,26.1*48
$GPGSV,3,3,9,32,30,055,33.6*6A
$GLGSV,2,1,8,6,50,047,0.0,7,53,168,24.7,8,07,193,0.0,12,10,261,32.1*62
$GLGSV,2,2,8,13,14,307,32.3,21,45,090,33.5,22,53,334,31.2,23,17,310,0.0*65
$GPRMC,143511.00,A,4124.234695,N,00206.225393,E,000.4,,260426,,,A*77
$GPGGA,143512.00,4124.234549,N,00206.226091,E,1,16,0.74,419.89,M,0.0,M,0.0,0000*7F
$GPGSV,3,1,9,1,67,324,32.5,2,67,064,30.2,3,51,238,40.0,8,41,163,33.5*45
$GPGSV,3,2,9,14,22,286,37.0,17,19,315,30.2,22,20,302,34.4,27,12,150,26.3*41
$GPGSV,3,3,9,32,30,055,33.5*69
$GLGSV,2,1,7,6,50,047,0.0,7,53,168,24.3,8,07,193,0.0,12,10,261,32.1*69
$GLGSV,2,2,7,13,14,307,32.4,22,53,334,31.3,23,17,310,0.0*4C
$GPRMC,143512.00,A,4124.234549,N,00206.226091,E,000.2,,260426,,,A*72
$GPGGA,143513.00,4124.233921,N,00206.224959,E,1,16,0.74,419.45,M,0.0,M,0.0,0000*74
$GPGSV,3,1,9,1,67,324,32.4,2,67,064,30.3,3,51,238,40.0,8,41,163,33.9*49
$GPGSV,3,2,9,14,22,286,37.0,17,20,315,31.3,22,20,302,34.3,27,12,150,25.9*45
$GPGSV,3,3,9,32,30,055,33.5*69
$GLGSV,2,1,7,6,50,047,0.0,7,53,168,25.0,8,07,193,0.0,12,10,261,32.1*6B
$GLGSV,2,2,7,13,14,307,32.3,22,53,334,31.3,23,17,310,0.0*4B
$GPRMC,143513.00,A,4124.233921,N,00206.224959,E,000.0,,260426,,,A*7B
$GPGGA,143514.00,4124.234360,N,00206.225292,E,1,16,0.74,420.63,M,0.0,M,0.0,0000*78
$GPGSV,3,1,9,1,67,324,32.4,2,67,064,31.1,3,51,238,40.1,8,41,163,33.2*40
$GPGSV,3,2,9,14,22,286,37.1,17,20,315,31.7,22,20,302,34.3,27,12,150,26.5*4F
$GPGSV,3,3,9,32,30,055,33.5*69
$GLGSV,2,1,7,6,50,047,0.0,7,53,168,23.9,8,07,193,0.0,12,10,261,32.1*64
$GLGSV,2,2,7,13,14,307,29.8,22,53,334,31.3,23,17,310,0.0*4A
$GPRMC,143514.00,A,4124.234360,N,00206.225292,E,000.1,,260426,,,A*78
$GPGGA,143515.00,4124.234128,N,00206.224419,E,1,17,0.71,420.17,M,0.0,M,0.0,0000*74
$GPGSV,3,1,9,1,67,324,31.8,2,67,064,31.8,3,51,238,40.1,8,41,163,33.2*46
$GPGSV,3,2,9,14,22,286,37.2,17,20,315,30.3,22,20,302,34.2,27,12,150,27.0*4C
$GPGSV,3,3,9,32,30,055,33.5*69
$GLGSV,2,1,8,6,50,047,0.0,7,53,168,24.5,8,07,193,0.0,12,10,261,31.9*6B
$GLGSV,2,2,8,13,14,307,29.8,21,45,090,36.0,22,53,334,31.4,23,17,310,0.0*62
$GPRMC,143515.00,A,4124.234128,N,00206.224419,E,000.5,061.7,260426,,,A*59
$GPGGA,143516.00,4124.234086,N,00206.223618,E,1,17,0.71,419.64,M,0.0,M,0.0,0000*78
$GPGSV,3,1,9,1,67,324,32.6,2,67,064,32.5,3,51,238,40.2,8,41,163,33.3*47
$GPGSV,3,2,9,14,22,286,37.3,17,20,315,30.3,22,20,302,34.2,27,12,150,25.7*48
$GPGSV,3,3,9,32,30,055,33.6*6A
$GLGSV,2,1,8,6,50,047,0.0,7,54,168,24.5,8,07,193,0.0,12,10,261,31.9*6C
$GLGSV,2,2,8,13,14,307,29.8,21,45,090,36.0,22,53,334,0.0,23,17,310,0.0*54
$GPRMC,143516.00,A,4124.234086,N,00206.223618,E,000.4,,260426,,,A*74
$GPGGA,143517.00,4124.233788,N,00206.223979,E,1,17,0.71,418.43,M,0.0,M,0.0,0000*7B
$GPGSV,3,1,9,1,67,324,33.0,2,67,064,33.3,3,51,238,40.2,8,41,163,33.4*40
$GPGSV,3,2,9,14,22,286,37.4,17,20,315,30.2,22,20,302,34.2,27,12,150,25.7*4E
$GPGSV,3,3,9,32,30,055,33.6*6A
$GLGSV,2,1,8,6,50,047,0.0,7,54,168,24.5,8,07,193,0.0,12,10,261,31.9*6C
$GLGSV,2,2,8,13,14,307,29.9,21,45,090,36.1,22,53,334,34.1,23,17,310,0.0*62
$GPRMC,143517.00,A,4124.233788,N,00206.223979,E,000.5,,260426,,,A*72
$GPGGA,143518.00,4124.233421,N,00206.223563,E,1,17,0.71,419.57,M,0.0,M,0.0,0000*77
$GPGSV,3,1,9,1,67,324,31.7,2,67,064,31.9,3,51,238,40.2,8,41,163,33.4*4D
$GPGSV,3,2,9,14,22,286,37.4,17,20,315,31.7,22,20,302,34.1,27,12,150,26.7*4A
$GPGSV,3,3,9,32,30,055,33.6*6A
$GLGSV,2,1,8,6,50,047,0.0,7,54,168,24.5,8,07,193,0.0,12,10,261,31.9*6C
$GLGSV,2,2,8,13,14,307,29.9,21,45,090,36.1,22,53,334,34.0,23,17,310,0.0*63
$GPRMC,143518.00,A,4124.233421,N,00206.223563,E,000.2,,260426,,,A*7D
$GPGGA,143519.00,4124.233355,N,00206.223518,E,1,17,0.71,417.76,M,0.0,M,0.0,0000*73
$GPGSV,3,1,9,1,67,324,30.0,2,67,064,31.9,3,51,238,40.3,8,41,163,33.4*4A
$GPGSV,3,2,9,14,22,286,37.5,17,20,315,32.8,22,20,302,34.1,27,12,150,26.9*49
$GPGSV,3,3,9,32,30,055,33.6*6A
$GLGSV,2,1,8,6,50,047,0.0,7,54,168,24.5,8,07,193,0.0,12,10,261,31.9*6C
$GLGSV,2,2,8,13,14,307,30.0,21,45,090,36.0,22,53,334,34.0,23,17,310,0.0*63
$GPRMC,143519.00,A,4124.233355,N,00206.223518,E,000.5,,260426,,,A*73
$GPGGA,143520.00,4124.234207,N,00206.223930,E,1,17,0.71,417.23,M,0.0,M,0.0,0000*7E
$GPGSV,3,1,9,1,67,324,31.9,2,67,064,31.9,3,51,238,40.3,8,41,163,33.5*43
$GPGSV,3,2,9,14,22,286,37.5,17,20,315,32.5,22,20,302,34.1,27,12,150,26.2*4F
$GPGSV,3,3,9,32,30,055,33.6*6A
$GLGSV,2,1,8,6,50,047,0.0,7,54,168,24.5,8,07,193,0.0,12,10,261,29.1*6D
$GLGSV,2,2,8,13,14,307,33.7,21,45,090,36.1,22,53,334,34.0,23,17,310,0.0*66
$GPRMC,143520.00,A,4124.234207,N,00206.223930,E,000.2,,260426,,,A*79
$GPGGA,143521.00,4124.234360,N,00206.223798,E,1,17,0.71,418.47,M,0.0,M,0.0,0000*7E
$GPGSV,3,1,9,1,67,324,32.7,2,67,064,32.0,3,51,238,40.4,8,41,163,33.6*40
$GPGSV,3,2,9,14,22,286,37.6,17,20,315,34.5,22,20,302,34.1,27,12,150,26.9*41
$GPGSV,3,3,9,32,30,055,33.7*6B
$GLGSV,2,1,8,6,50,047,0.0,7,54,168,24.5,8,07,193,0.0,12,10,261,29.1*6D
$GLGSV,2,2,8,13,14,307,33.8,21,45,090,36.1,22,53,334,33.9,23,17,310,0.0*67
$GPRMC,143521.00,A,4124.234360,N,00206.223798,E,000.2,,260426,,,A*74
$GPGGA,143522.00,4124.234616,N,00206.224261,E,1,17,0.71,418.64,M,0.0,M,0.0,0000*7C
$GPGSV,3,1,9,1,67,324,32.2,2,67,064,32.0,3,51,238,40.4,8,41,163,33.6*45
$GPGSV,3,2,9,14,22,286,37.7,17,20,315,33.2,22,20,302,34.1,27,12,150,27.5*4D
$GPGSV,3,3,9,32,30,055,33.7*6B
$GLGSV,2,1,8,6,50,047,0.0,7,54,168,24.4,8,07,193,0.0,12,10,261,29.2*6F
$GLGSV,2,2,8,13,14,307,33.8,21,45,090,36.0,22,53,334,0.0,23,17,310,0.0*5F
$GPRMC,143522.00,A,4124.234616,N,00206.224261,E,000.2,,260426,,,A*77
$GPGGA,143523.00,4124.234127,N,00206.223894,E,1,17,0.71,418.90,M,0.0,M,0.0,0000*74
$GPGSV,3,1,9,1,67,324,31.7,2,67,064,32.1,3,51,238,40.5,8,41,163,33.7*42
$GPGSV,3,2,9,14,22,286,37.7,17,20,315,33.3,22,20,302,34.1,27,12,150,29.6*41
$GPGSV,3,3,9,32,30,055,33.8*64
$GLGSV,2,1,8,6,50,047,0.0,7,54,168,24.4,8,07,193,0.0,12,10,261,29.2*6F
$GLGSV,2,2,8,13,14,307,33.8,21,45,090,36.0,22,53,334,0.0,23,17,310,0.0*5F
$GPRMC,143523.00,A,4124.234127,N,00206.223894,E,000.6,165.4,260426,,,A*58
$GPGGA,143524.00,4124.234228,N,00206.223518,E,1,17,0.71,419.28,M,0.0,M,0.0,0000*74
$GPGSV,3,1,9,1,67,324,30.2,2,67,064,32.2,3,51,238,40.5,8,41,163,33.7*45
$GPGSV,3,2,9,14,22,286,37.8,17,20,315,33.2,22,20,302,34.0,27,12,150,28.5*4C
$GPGSV,3,3,9,32,30,055,33.9*65
$GLGSV,2,1,8,6,50,047,0.0,7,54,168,24.3,8,07,193,0.0,12,10,261,32.2*62
$GLGSV,2,2,8,13,14,307,33.8,21,45,090,36.0,22,53,334,0.0,23,17,310,0.0*5F
$GPRMC,143524.00,A,4124.234228,N,00206.223518,E,000.2,,260426,,,A*76
$GPGGA,143525.00,4124.234512,N,00206.222979,E,1,17,0.71,419.22,M,0.0,M,0.0,0000*7B
$GPGSV,3,1,9,1,67,324,31.7,2,67,064,32.2,3,51,238,40.5,8,41,163,33.7*41
$GPGSV,3,2,9,14,22,286,37.9,17,20,315,32.5,22,20,302,34.0,27,12,150,26.9*49
$GPGSV,3,3,9,32,30,055,33.9*65
$GLGSV,2,1,8,6,50,047,0.0,7,54,168,24.3,8,07,193,0.0,12,10,261,32.1*61
$GLGSV,2,2,8,13,14,307,33.8,21,45,090,36.0,22,53,334,0.0,23,17,310,0.0*5F
$GPRMC,143525.00,A,4124.234512,N,00206.222979,E,000.4,,260426,,,A*75
$GPGGA,143526.00,4124.234069,N,00206.224298,E,1,17,0.71,418.00,M,0.0,M,0.0,0000*72
$GPGSV,3,1,9,1,67,324,31.7,2,67,064,35.5,3,51,238,40.5,8,41,163,28.1*4D
$GPGSV,3,2,9,14,22,286,37.9,17,20,315,31.2,22,20,302,33.9,27,12,150,26.5*4F
$GPGSV,3,3,9,32,30,055,34.0*6B
$GLGSV,2,1,8,6,50,047,0.0,7,54,168,24.3,8,07,193,0.0,12,10,261,29.2*68
$GLGSV,2,2,8,13,14,307,33.7,21,45,090,35.9,22,53,334,0.0,23,17,310,0.0*5A
$GPRMC,143526.00,A,4124.234069,N,00206.224298,E,000.2,,260426,,,A*7B
$GPGGA,143527.00,4124.234077,N,00206.224106,E,1,17,0.71,416.40,M,0.0,M,0.0,0000*72
$GPGSV,3,1,9,1,67,324,31.3,2,67,064,35.5,3,51,238,40.4,8,41,163,23.7*45
$GPGSV,3,2,9,14,22,286,38.0,17,20,315,30.1,22,20,302,33.8,27,12,150,27.4*4A
$GPGSV,3,3,9,32,30,055,34.1*6A
$GLGSV,2,1,8,6,50,047,0.0,7,54,168,24.4,8,07,193,0.0,12,10,261,26.1*63
$GLGSV,2,2,8,13,14,307,33.6,21,45,090,35.8,22,53,334,0.0,23,17,310,0.0*5A
$GPRMC,143527.00,A,4124.234077,N,00206.224106,E,000.1,,260426,,,A*72
$GPGGA,143528.00,4124.233931,N,00206.225191,E,1,17,0.71,413.35,M,0.0,M,0.0,0000*79
$GPGSV,3,1,9,1,67,324,32.4,2,67,064,35.5,3,51,238,36.8,8,41,163,22.6*4C
$GPGSV,3,2,9,14,22,286,38.0,17,20,315,28.5,22,20,302,33.7,27,12,150,26.8*45
$GPGSV,3,3,9,32,30,055,34.2*69
$GLGSV,2,1,8,6,50,047,0.0,7,54,168,24.5,8,07,193,0.0,12,10,261,22.7*60
$GLGSV,2,2,8,13,14,307,33.6,21,45,090,35.7,22,53,334,0.0,23,17,310,0.0*55
$GPRMC,143528.00,A,4124.233931,N,00206.225191,E,000.1,,260426,,,A*7E
$GPGGA,143529.00,4124.233576,N,00206.224477,E,1,17,0.71,415.12,M,0.0,M,0.0,0000*78
$GPGSV,3,1,9,1,67,324,31.6,2,67,064,35.6,3,51,238,36.9,8,41,163,24.2*4D
$GPGSV,3,2,9,14,22,286,38.0,17,20,315,31.6,22,20,302,33.7,27,12,150,27.0*47
$GPGSV,3,3,9,32,30,055,34.2*69
$GLGSV,2,1,8,6,50,047,0.0,7,54,168,25.3,8,07,193,0.0,12,10,261,24.3*65
$GLGSV,2,2,8,13,14,307,33.6,21,45,090,35.6,22,53,334,0.0,23,17,310,0.0*54
$GPRMC,143529.00,A,4124.233576,N,00206.224477,E,000.2,,260426,,,A*7F
$GPGGA,143530.00,4124.234181,N,00206.224247,E,1,17,0.71,413.82,M,0.0,M,0.0,0000*71
$GPGSV,3,1,9,1,67,324,32.1,2,67,064,35.6,3,51,238,36.9,8,41,163,21.1*4F
$GPGSV,3,2,9,14,22,286,38.0,17,20,315,31.3,22,20,302,33.7,27,12,150,27.4*46
$GPGSV,3,3,9,32,30,055,34.3*68
$GLGSV,2,1,8,6,50,047,0.0,7,54,168,26.7,8,07,193,0.0,12,10,261,22.9*6E
$GLGSV,2,2,8,13,14,307,33.6,21,45,090,35.6,22,53,334,33.8,23,17,310,0.0*6C
$GPRMC,143530.00,A,4124.234181,N,00206.224247,E,000.2,,260426,,,A*79
$GPGGA,143531.00,4124.234251,N,00206.225556,E,1,17,0.71,411.20,M,0.0,M,0.0,0000*72
$GPGSV,3,1,9,1,67,324,30.3,2,67,064,32.0,3,51,238,40.9,8,41,163,33.5*48
$GPGSV,3,2,9,14,22,285,38.0,17,20,315,30.9,22,20,302,33.7,27,12,150,31.1*4C
$GPGSV,3,3,9,32,30,055,34.3*68
$GLGSV,2,1,8,6,50,047,0.0,7,54,168,24.8,8,07,193,0.0,12,10,261,31.2*6A
$GLGSV,2,2,8,13,14,307,33.6,21,45,090,35.6,22,53,334,29.2,23,17,310,0.0*6D
$GPRMC,143531.00,A,4124.234251,N,00206.225556,E,000.3,,260426,,,A*71
$GPGGA,143532.00,4124.234682,N,00206.223522,E,1,17,0.71,416.71,M,0.0,M,0.0,0000*7D
$GPGSV,3,1,9,1,67,324,32.8,2,67,064,32.0,3,51,238,38.3,8,41,163,29.0*4A
$GPGSV,3,2,9,14,22,285,37.9,17,20,315,28.0,22,20,302,33.8,27,12,150,28.3*4F
$GPGSV,3,3,9,32,30,055,34.2*69
$GLGSV,2,1,8,6,50,047,0.0,7,54,168,28.3,8,07,193,0.0,12,10,261,31.2*6D
$GLGSV,2,2,8,13,14,307,30.6,21,45,090,35.8,22,53,334,29.2,23,17,310,0.0*60
$GPRMC,143532.00,A,4124.234682,N,00206.223522,E,000.1,,260426,,,A*7F
$GPGGA,143533.00,4124.235722,N,00206.224337,E,1,17,0.71,413.90,M,0.0,M,0.0,0000*79
$GPGSV,3,1,9,1,67,324,30.5,2,67,064,32.0,3,51,238,41.1,8,41,163,29.7*4E
$GPGSV,3,2,9,14,22,285,37.8,17,20,315,26.0,22,20,302,33.8,27,12,150,26.0*4D
$GPGSV,3,3,9,32,30,055,37.1*69
$GLGSV,2,1,8,6,50,047,0.0,7,54,168,23.1,8,07,193,0.0,12,10,261,33.9*6D
$GLGSV,2,2,8,13,14,307,36.1,21,45,090,38.3,22,53,334,29.1,23,17,310,0.0*64
$GPRMC,143533.00,A,4124.235722,N,00206.224337,E,000.3,,260426,,,A*73
$GPGGA,143534.00,4124.235656,N,00206.223425,E,1,17,0.71,412.20,M,0.0,M,0.0,0000*75
$GPGSV,3,1,9,1,67,324,30.5,2,67,064,31.5,3,51,238,41.1,8,41,163,25.7*44
$GPGSV,3,2,9,14,22,285,37.8,17,20,315,25.5,22,20,302,32.3,27,12,150,28.9*46
$GPGSV,3,3,9,32,30,055,37.1*69
$GLGSV,2,1,8,6,50,047,0.0,7,54,168,22.6,8,07,193,0.0,12,10,261,33.9*6B
$GLGSV,2,2,8,13,14,307,32.3,21,45,090,38.3,22,53,334,29.1,23,17,310,0.0*62
$GPRMC,143534.00,A,4124.235656,N,00206.223425,E,000.2,,260426,,,A*74
$GPGGA,143535.00,4124.235025,N,00206.223956,E,1,17,0.71,412.85,M,0.0,M,0.0,0000*70
$GPGSV,3,1,9,1,67,324,30.6,2,67,064,30.5,3,51,238,41.0,8,41,163,27.0*42
$GPGSV,3,2,9,14,22,285,37.7,17,20,315,24.0,22,20,302,33.6,27,12,150,27.4*4B
$GPGSV,3,3,9,32,30,055,37.1*69
$GLGSV,2,1,8,6,50,047,0.0,7,54,168,24.0,8,07,193,0.0,12,10,261,31.1*61
$GLGSV,2,2,8,13,14,307,35.1,21,45,090,38.4,22,53,334,0.0,23,17,310,0.0*5A
$GPRMC,143535.00,A,4124.235025,N,00206.223956,E,000.5,,260426,,,A*79
$GPGGA,143536.00,4124.235030,N,00206.224374,E,1,17,0.71,414.02,M,0.0,M,0.0,0000*73
$GPGSV,3,1,9,1,67,324,31.3,2,67,064,30.1,3,51,238,41.0,8,41,163,27.2*40
$GPGSV,3,2,9,14,22,285,37.7,17,20,315,29.1,22,20,302,34.4,27,12,150,26.6*41
$GPGSV,3,3,9,32,30,055,37.0*68
$GLGSV,2,1,8,6,50,047,0.0,7,54,168,24.0,8,07,193,0.0,12,10,261,31.0*60
$GLGSV,2,2,8,13,14,307,35.1,21,45,090,38.4,22,53,334,26.1,23,17,310,0.0*6F
$GPRMC,143536.00,A,4124.235030,N,00206.224374,E,000.4,,260426,,,A*72
$GPGGA,143537.00,4124.234020,N,00206.225002,E,1,17,0.71,415.18,M,0.0,M,0.0,0000*7B
$GPGSV,3,1,9,1,67,324,33.2,2,67,064,32.4,3,51,238,41.1,8,41,163,31.4*44
$GPGSV,3,2,9,14,22,285,37.6,17,20,315,29.4,22,20,302,35.0,27,12,150,24.9*4D
$GPGSV,3,3,9,32,30,055,37.0*68
$GLGSV,2,1,8,6,50,047,0.0,7,54,168,24.1,8,07,193,0.0,12,10,261,31.0*61
$GLGSV,2,2,8,13,14,307,35.1,21,45,090,38.4,22,53,334,29.2,23,17,310,0.0*63
$GPRMC,143537.00,A,4124.234020,N,00206.225002,E,000.4,,260426,,,A*70
$GPGGA,143538.00,4124.233970,N,00206.225777,E,1,17,0.71,415.61,M,0.0,M,0.0,0000*74
$GPGSV,3,1,9,1,67,324,33.0,2,67,064,30.6,3,51,238,41.1,8,41,163,30.3*40
$GPGSV,3,2,9,14,22,285,37.5,17,20,315,28.6,22,20,302,35.5,27,12,150,24.2*43
$GPGSV,3,3,9,32,30,055,36.9*60
$GLGSV,2,1,8,6,50,047,0.0,7,54,168,24.9,8,07,193,0.0,12,10,261,31.0*69
$GLGSV,2,2,8,13,14,307,35.2,21,45,090,38.4,22,53,334,29.2,23,17,310,0.0*60
$GPRMC,143538.00,A,4124.233970,N,00206.225777,E,000.9,035.6,260426,,,A*52
$GPGGA,143539.00,4124.234807,N,00206.225482,E,1,17,0.71,415.24,M,0.0,M,0.0,0000*7B
$GPGSV,3,1,9,1,67,324,31.7,2,67,064,29.0,3,51,238,41.0,8,41,163,30.0*49
$GPGSV,3,2,9,14,22,285,37.5,17,20,315,28.6,22,20,302,32.7,27,12,150,27.6*41
$GPGSV,3,3,9,32,30,055,36.8*61
$GLGSV,2,1,8,6,50,047,0.0,7,54,168,24.3,8,07,193,0.0,12,10,261,31.1*62
$GLGSV,2,2,8,13,14,307,35.2,21,45,090,38.2,22,53,334,29.1,23,17,310,0.0*65
$GPRMC,143539.00,A,4124.234807,N,00206.225482,E,001.6,026.7,260426,,,A*51
$GPGGA,143540.00,4124.235275,N,00206.224091,E,1,17,0.71,416.73,M,0.0,M,0.0,0000*7D
$GPGSV,3,1,9,1,67,324,30.4,2,67,064,32.7,3,51,238,41.0,8,41,163,27.3*43
$GPGSV,3,2,9,14,22,285,37.5,17,20,315,28.3,22,20,302,35.7,27,12,150,25.7*40
$GPGSV,3,3,9,32,30,055,36.7*6E
$GLGSV,2,1,8,6,50,047,0.0,7,54,168,21.9,8,07,193,0.0,12,10,261,35.6*6E
$GLGSV,2,2,8,13,14,307,35.1,21,45,090,38.2,22,53,334,29.1,23,17,310,0.0*66
$GPRMC,143540.00,A,4124.235275,N,00206.224091,E,000.9,224.6,260426,,,A*59
$GPGGA,143541.00,4124.235378,N,00206.223549,E,1,17,0.71,417.43,M,0.0,M,0.0,0000*75
$GPGSV,3,1,9,1,67,324,31.7,2,67,064,33.8,3,51,238,41.0,8,41,163,24.7*48
$GPGSV,3,2,9,14,22,285,37.4,17,20,315,27.2,22,20,302,35.7,27,12,150,25.1*49
$GPGSV,3,3,9,32,30,055,36.7*6E
$GLGSV,2,1,8,6,50,047,0.0,7,54,168,24.7,8,07,193,0.0,12,10,261,35.6*65
$GLGSV,2,2,8,13,14,307,35.1,21,45,090,38.2,22,53,334,0.0,23,17,310,0.0*5C
$GPRMC,143541.00,A,4124.235378,N,00206.223549,E,000.3,,260426,,,A*75
$GPGGA,143542.00,4124.235219,N,00206.222480,E,1,17,0.71,415.42,M,0.0,M,0.0,0000*76
$GPGSV,3,1,9,1,67,324,30.3,2,67,064,29.1,3,51,238,41.0,8,41,163,24.6*4E
$GPGSV,3,2,9,14,22,285,37.5,17,20,315,25.7,22,20,302,35.7,27,12,150,27.7*4B
$GPGSV,3,3,9,32,30,055,36.6*6F
$GLGSV,2,1,8,6,50,047,0.0,7,54,168,25.9,8,07,193,0.0,12,10,261,35.6*6A
$GLGSV,2,2,8,13,14,307,35.1,21,45,090,38.2,22,53,334,0.0,23,17,310,0.0*5C
$GPRMC,143542.00,A,4124.235219,N,00206.222480,E,000.5,,260426,,,A*73
$GPGGA,143543.00,4124.235465,N,00206.222993,E,1,17,0.71,417.54,M,0.0,M,0.0,0000*70
$GPGSV,3,1,9,1,67,324,31.5,2,67,065,31.2,3,51,238,41.0,8,41,163,19.1*4B
$GPGSV,3,2,9,14,22,285,37.5,17,20,315,24.0,22,20,302,35.7,27,12,150,26.3*48
$GPGSV,3,3,9,32,30,055,36.6*6F
$GLGSV,2,1,8,6,50,047,0.0,7,54,168,26.2,8,07,193,0.0,12,10,261,35.5*61
$GLGSV,2,2,8,13,14,307,35.1,21,45,090,38.2,22,53,334,0.0,23,17,310,0.0*5C
$GPRMC,143543.00,A,4124.235465,N,00206.222993,E,000.4,,260426,,,A*71
$GPGGA,143544.00,4124.234930,N,00206.223963,E,1,17,0.71,414.89,M,0.0,M,0.0,0000*76
$GPGSV,3,1,9,1,67,324,32.2,2,67,065,28.4,3,51,238,41.0,8,41,163,25.5*4A
$GPGSV,3,2,9,14,22,285,37.5,17,20,315,24.7,22,20,302,35.7,27,12,150,27.6*4B
$GPGSV,3,3,9,32,30,055,36.6*6F
$GLGSV,2,1,8,6,50,047,0.0,7,54,168,25.9,8,07,193,0.0,12,10,261,29.0*61
$GLGSV,2,2,8,13,14,307,30.0,21,45,090,38.3,22,53,334,0.0,23,17,310,0.0*59
$GPRMC,143544.00,A,4124.234930,N,00206.223963,E,000.2,,260426,,,A*72
$GPGGA,143545.00,4124.235444,N,00206.223712,E,1,17,0.71,417.45,M,0.0,M,0.0,0000*73
$GPGSV,3,1,9,1,67,325,31.4,2,67,065,30.9,3,51,238,41.0,8,41,163,25.3*4C
$GPGSV,3,2,9,14,22,285,37.5,17,20,315,28.3,22,20,302,35.7,27,12,150,24.8*4E
$GPGSV,3,3,9,32,30,055,36.5*6C
$GLGSV,2,1,8,6,50,047,0.0,7,54,168,24.6,8,07,193,0.0,12,10,261,29.1*6E
$GLGSV,2,2,8,13,14,307,30.0,21,45,090,38.3,22,53,334,0.0,23,17,310,0.0*59
$GPRMC,143545.00,A,4124.235444,N,00206.223712,E,000.3,,260426,,,A*75
$GPGGA,143546.00,4124.234914,N,00206.225385,E,1,17,0.71,417.45,M,0.0,M,0.0,0000*75
$GPGSV,3,1,9,1,67,325,34.8,2,67,065,31.7,3,51,238,40.9,8,41,163,36.2*41
$GPGSV,3,2,9,14,22,285,37.4,17,20,315,27.9,22,20,302,35.6,27,12,150,26.9*48
$GPGSV,3,3,9,32,30,055,33.8*64
$GLGSV,2,1,8,6,50,047,0.0,7,54,168,23.2,8,07,193,0.0,12,10,261,29.1*6D
$GLGSV,2,2,8,13,14,307,34.4,21,45,091,38.3,22,53,334,0.0,23,17,310,0.0*58
$GPRMC,143546.00,A,4124.234914,N,00206.225385,E,000.1,,260426,,,A*71
$GPGGA,143547.00,4124.235220,N,00206.225342,E,1,17,0.71,414.94,M,0.0,M,0.0,0000*7D
$GPGSV,3,1,9,1,67,325,32.9,2,67,065,32.6,3,51,238,40.9,8,41,163,32.9*4B
$GPGSV,3,2,9,14,22,285,34.4,17,20,315,32.2,22,20,302,32.5,27,12,150,28.7*40
$GPGSV,3,3,9,32,30,055,30.4*6B
$GLGSV,2,1,8,6,50,047,0.0,7,54,168,21.9,8,07,193,0.0,12,10,261,29.1*64
$GLGSV,2,2,8,13,14,307,30.7,21,45,091,38.3,22,53,334,29.5,23,17,310,0.0*61
$GPRMC,143547.00,A,4124.235220,N,00206.225342,E,000.7,292.9,260426,,,A*5E
$GPGGA,143548.00,4124.234720,N,00206.224889,E,1,17,0.71,417.68,M,0.0,M,0.0,0000*7B
$GPGSV,3,1,9,1,67,325,31.3,2,67,065,29.6,3,51,238,36.8,8,41,163,33.0*40
$GPGSV,3,2,9,14,22,285,34.4,17,20,315,29.4,22,20,302,32.5,27,12,150,28.2*49
$GPGSV,3,3,9,32,30,055,31.1*6F
$GLGSV,2,1,8,6,50,047,0.0,7,54,168,21.5,8,07,193,0.0,12,10,261,33.5*67
$GLGSV,2,2,8,13,14,307,27.7,21,45,091,38.4,22,53,334,23.7,23,17,310,0.0*68
$GPRMC,143548.00,A,4124.234720,N,00206.224889,E,000.3,,260426,,,A*72
$GPGGA,143549.00,4124.234006,N,00206.225459,E,1,17,0.71,415.90,M,0.0,M,0.0,0000*7C
$GPGSV,3,1,9,1,67,325,31.4,2,67,065,27.1,3,51,238,36.8,8,41,163,36.8*43
$GPGSV,3,2,9,14,22,285,31.1,17,20,315,30.5,22,20,302,29.1,27,11,150,36.0*40
$GPGSV,3,3,9,32,30,055,34.5*6E
$GLGSV,2,1,8,6,50,047,0.0,7,54,168,24.2,8,07,193,0.0,12,10,261,33.5*65
$GLGSV,2,2,8,13,14,307,25.5,21,45,091,38.3,22,53,334,29.4,23,17,310,0.0*66
$GPRMC,143549.00,A,4124.234006,N,00206.225459,E,000.3,,260426,,,A*70
$GPGGA,143550.00,4124.234302,N,00206.225530,E,1,17,0.71,416.81,M,0.0,M,0.0,0000*7E
$GPGSV,3,1,9,1,67,325,29.7,2,67,065,24.5,3,51,238,39.4,8,41,163,37.6*42
$GPGSV,3,2,9,14,22,285,34.1,17,20,315,28.5,22,20,302,30.3,27,11,150,36.4*42
$GPGSV,3,3,9,32,30,055,34.7*6C
$GLGSV,2,1,8,6,50,047,0.0,7,54,168,21.4,8,07,193,0.0,12,10,261,33.5*66
$GLGSV,2,2,8,13,14,307,27.5,21,45,091,38.2,22,53,334,29.6,23,17,310,0.0*67
$GPRMC,143550.00,A,4124.234302,N,00206.225530,E,000.3,,260426,,,A*71
$GPGGA,143551.00,4124.234711,N,00206.224896,E,1,17,0.71,414.39,M,0.0,M,0.0,0000*78
$GPGSV,3,1,9,1,67,325,31.4,2,67,065,30.6,3,51,238,39.5,8,41,163,37.5*4C
$GPGSV,3,2,9,14,22,285,34.1,17,20,315,27.2,22,20,302,32.0,27,11,150,31.9*41
$GPGSV,3,3,9,32,30,055,36.2*6B
$GLGSV,2,1,8,6,50,047,0.0,7,54,168,21.5,8,07,193,0.0,12,10,261,33.5*67
$GLGSV,2,2,8,13,14,307,29.7,21,45,091,38.1,22,53,334,28.4,23,17,310,0.0*6B
$GPRMC,143551.00,A,4124.234711,N,00206.224896,E,000.1,,260426,,,A*74
$GPGGA,143552.00,4124.234830,N,00206.223879,E,1,17,0.71,415.21,M,0.0,M,0.0,0000*79
$GPGSV,3,1,9,1,67,325,31.1,2,67,065,31.0,3,51,238,39.6,8,41,163,33.8*44
$GPGSV,3,2,9,14,22,285,34.1,17,20,315,29.7,22,20,302,32.5,27,11,150,30.2*45
$GPGSV,3,3,9,32,30,055,36.1*68
$GLGSV,2,1,8,6,50,047,0.0,7,54,168,21.6,8,07,193,0.0,12,10,261,33.3*62
$GLGSV,2,2,8,13,14,307,30.5,21,45,091,38.1,22,53,334,0.0,23,17,310,0.0*5F
$GPRMC,143552.00,A,4124.234830,N,00206.223879,E,000.3,,260426,,,A*7F
$GPGGA,143553.00,4124.234964,N,00206.224078,E,1,17,0.71,416.57,M,0.0,M,0.0,0000*74
$GPGSV,3,1,9,1,67,325,31.5,2,67,065,31.1,3,51,239,39.7,8,41,163,33.9*40
$GPGSV,3,2,9,14,22,285,34.1,17,20,315,31.5,22,20,302,33.3,27,11,150,30.5*4E
$GPGSV,3,3,9,32,30,055,36.0*69
$GLGSV,2,1,8,6,50,047,0.0,7,54,168,24.3,8,07,193,0.0,12,10,261,33.3*62
$GLGSV,2,2,8,13,14,307,32.7,21,45,091,38.1,22,53,334,31.8,23,17,310,0.0*65
$GPRMC,143553.00,A,4124.234964,N,00206.224078,E,000.3,,260426,,,A*70
$GPGGA,143554.00,4124.235372,N,00206.225151,E,1,17,0.71,414.38,M,0.0,M,0.0,0000*7F
$GPGSV,3,1,9,1,67,325,30.2,2,67,065,27.9,3,51,239,39.8,8,41,163,34.0*48
$GPGSV,3,2,9,14,22,285,34.1,17,20,315,30.3,22,20,302,32.6,27,11,150,31.9*40
$GPGSV,3,3,9,32,30,055,31.1*6F
$GLGSV,2,1,8,6,50,047,0.0,7,54,168,24.2,8,07,193,0.0,12,10,261,36.9*6C
$GLGSV,2,2,8,13,14,307,33.1,21,45,091,38.1,22,53,334,31.2,23,17,310,0.0*68
$GPRMC,143554.00,A,4124.235372,N,00206.225151,E,000.5,170.3,260426,,,A*5D
$GPGGA,143555.00,4124.235318,N,00206.224326,E,1,17,0.71,414.38,M,0.0,M,0.0,0000*71
$GPGSV,3,1,9,1,67,325,30.0,2,67,065,31.1,3,51,239,39.8,8,41,163,34.1*44
$GPGSV,3,2,9,14,22,285,34.1,17,20,315,29.9,22,20,302,31.4,27,11,150,31.3*49
$GPGSV,3,3,9,32,30,055,33.2*6E
$GLGSV,2,1,8,6,50,047,0.0,7,54,168,24.2,8,07,193,0.0,12,10,261,33.6*66
$GLGSV,2,2,8,13,14,307,33.2,21,45,091,38.1,22,53,334,29.8,23,17,310,0.0*68
$GPRMC,143555.00,A,4124.235318,N,00206.224326,E,000.1,,260426,,,A*7C
$GPGGA,143556.00,4124.235828,N,00206.225389,E,1,17,0.71,413.56,M,0.0,M,0.0,0000*71
$GPGSV,3,1,9,1,67,325,29.7,2,67,065,28.3,3,51,239,39.9,8,41,163,34.1*40
$GPGSV,3,2,9,14,22,285,34.2,17,20,315,30.8,22,20,302,32.7,27,11,150,30.5*44
$GPGSV,3,3,9,32,30,055,28.4*62
$GLGSV,2,1,8,6,50,047,0.0,7,54,168,24.2,8,07,193,0.0,12,10,261,33.7*67
$GLGSV,2,2,8,13,14,307,33.1,21,45,091,38.1,22,53,334,32.1,23,17,310,0.0*68
$GPRMC,143556.00,A,4124.235828,N,00206.225389,E,000.4,,260426,,,A*76
$GPGGA,143557.00,4124.235791,N,00206.224859,E,1,17,0.71,412.90,M,0.0,M,0.0,0000*71
$GPGSV,3,1,9,1,67,325,30.2,2,67,065,26.9,3,51,239,40.0,8,41,163,34.2*4D
$GPGSV,3,2,9,14,22,285,34.3,17,20,315,31.9,22,20,302,32.6,27,11,150,31.7*47
$GPGSV,3,3,9,32,30,055,29.7*60
$GLGSV,2,1,8,6,50,047,0.0,7,54,168,24.1,8,07,193,0.0,12,10,261,36.4*62
$GLGSV,2,2,8,13,14,307,29.2,21,45,091,38.1,22,53,334,32.0,23,17,310,0.0*61
$GPRMC,143557.00,A,4124.235791,N,00206.224859,E,000.4,,260426,,,A*7D
$GPGGA,143558.00,4124.233554,N,00206.222321,E,1,16,0.71,413.49,M,0.0,M,0.0,0000*75
$GPGSV,2,1,8,1,67,325,29.2,3,51,239,40.0,8,41,163,34.2,14,22,285,36.9*7E
$GPGSV,2,2,8,17,20,315,32.6,22,20,302,32.6,27,11,150,31.0,32,30,055,25.1*46
$GLGSV,2,1,8,6,50,047,0.0,7,54,168,24.1,8,07,193,0.0,12,10,261,36.4*62
$GLGSV,2,2,8,13,14,307,29.2,21,45,091,38.2,22,53,334,0.0,23,17,310,0.0*53
$GPRMC,143558.00,A,4124.233554,N,00206.222321,E,000.3,,260426,,,A*7A
$GPGGA,143559.00,4124.232920,N,00206.222182,E,1,16,0.71,413.53,M,0.0,M,0.0,0000*7A
$GPGSV,2,1,8,1,67,325,29.6,3,51,239,40.1,8,41,163,34.3,14,22,285,36.9*7A
$GPGSV,2,2,8,17,20,315,30.4,22,20,302,32.7,27,11,150,29.7,32,30,055,25.1*49
$GLGSV,2,1,8,6,50,047,0.0,7,54,168,24.1,8,07,193,0.0,12,10,261,36.3*65
$GLGSV,2,2,8,13,14,307,28.2,21,45,091,38.2,22,53,334,29.3,23,17,310,0.0*6A
$GPRMC,143559.00,A,4124.232920,N,00206.222182,E,000.1,,260426,,,A*7C
$GPGGA,143600.00,4124.235062,N,00206.226237,E,1,16,0.71,412.09,M,0.0,M,0.0,0000*7A
$GPGSV,2,1,8,1,67,325,29.8,3,51,239,40.1,8,41,163,34.3,14,22,285,36.9*74
$GPGSV,2,2,8,17,20,315,32.4,22,20,302,32.7,27,11,150,29.3,32,30,055,23.1*49
$GLGSV,2,1,8,6,50,047,0.0,7,54,168,24.4,8,07,193,0.0,12,10,261,36.3*60
$GLGSV,2,2,8,13,14,307,29.7,21,45,091,38.1,22,53,334,30.9,23,17,310,0.0*6F
$GPRMC,143600.00,A,4124.235062,N,00206.226237,E,000.4,,260426,,,A*77
$GPGGA,143601.00,4124.234441,N,00206.224261,E,1,16,0.71,414.74,M,0.0,M,0.0,0000*72
$GPGSV,2,1,8,1,67,325,30.8,3,51,239,40.1,8,41,163,34.4,14,22,285,37.0*73
$GPGSV,2,2,8,17,20,315,32.1,22,20,302,32.7,27,11,150,29.1,32,30,055,23.1*4E
$GLGSV,2,1,8,6,50,047,0.0,7,54,168,23.8,8,07,193,0.0,12,10,261,36.3*6B
$GLGSV,2,2,8,13,14,307,29.1,21,45,091,38.1,22,53,334,30.7,23,17,310,0.0*67
$GPRMC,143601.00,A,4124.234441,N,00206.224261,E,000.5,010.5,260426,,,A*58
$GPGGA,143602.00,4124.232711,N,00206.222850,E,1,15,0.84,413.02,M,0.0,M,0.0,0000*70
$GPGSV,2,1,7,1,67,325,29.9,3,51,239,40.1,8,41,163,34.4,14,22,285,37.0*75
$GPGSV,2,2,7,17,20,315,32.0,22,20,302,32.7,27,11,150,28.9*65
$GLGSV,2,1,8,6,50,047,0.0,7,54,168,21.8,8,07,193,0.0,12,10,261,36.2*68
$GLGSV,2,2,8,13,14,307,28.2,21,45,091,38.2,22,53,334,30.4,23,17,310,0.0*65
$GPRMC,143602.00,A,4124.232711,N,00206.222850,E,000.1,,260426,,,A*7B
$GPGGA,143603.00,4124.234126,N,00206.225059,E,1,15,0.84,414.75,M,0.0,M,0.0,0000*74
$GPGSV,2,1,7,1,67,325,29.9,3,51,239,40.1,8,41,163,34.4,14,22,285,37.0*75
$GPGSV,2,2,7,17,20,315,31.7,22,20,302,32.6,27,11,150,28.4*6D
$GLGSV,2,1,8,6,50,047,0.0,7,54,168,22.0,8,07,193,0.0,12,10,261,36.1*60
$GLGSV,2,2,8,13,14,307,29.7,21,45,091,38.2,22,53,334,30.7,23,17,310,0.0*62
$GPRMC,143603.00,A,4124.234126,N,00206.225059,E,000.4,,260426,,,A*7D
$GPGGA,143604.00,4124.233396,N,00206.225258,E,1,14,0.94,415.22,M,0.0,M,0.0,0000*7D
$GPGSV,2,1,7,1,67,325,30.1,3,51,239,40.0,8,41,163,34.5,14,22,285,37.0*75
$GPGSV,2,2,7,17,20,315,33.3,22,20,302,32.5,27,11,150,27.6*65
$GLGSV,2,1,7,6,50,047,0.0,7,54,168,22.3,8,07,193,0.0,12,10,261,36.1*6C
$GLGSV,2,2,7,13,14,307,28.3,22,53,334,0.0,23,17,310,0.0*71
$GPRMC,143604.00,A,4124.233396,N,00206.225258,E,000.3,,260426,,,A*70
$GPGGA,143605.00,4124.233359,N,00206.224858,E,1,15,0.84,416.69,M,0.0,M,0.0,0000*78
$GPGSV,2,1,7,1,67,325,30.3,3,51,239,40.0,8,41,163,34.6,14,22,285,37.0*74
$GPGSV,2,2,7,17,20,315,33.3,22,20,302,32.5,27,11,150,28.2*6E
$GLGSV,2,1,8,6,50,047,0.0,7,54,168,20.5,8,07,193,0.0,12,10,261,36.0*66
$GLGSV,2,2,8,13,14,307,30.9,21,45,091,38.2,22,53,334,30.4,23,17,310,0.0*67
$GPRMC,143605.00,A,4124.233359,N,00206.224858,E,000.1,,260426,,,A*7B
$GPGGA,143606.00,4124.233270,N,00206.224318,E,1,15,0.84,417.96,M,0.0,M,0.0,0000*7F
$GPGSV,2,1,7,1,67,325,29.8,3,51,239,39.9,8,41,163,34.7,14,22,285,37.1*70
$GPGSV,2,2,7,17,20,315,33.2,22,20,302,32.5,27,11,150,28.1*6C
$GLGSV,2,1,8,6,50,047,0.0,7,54,168,20.6,8,07,193,0.0,12,10,261,35.9*6F
$GLGSV,2,2,8,13,14,307,30.1,21,45,091,38.2,22,53,334,27.4,23,17,310,0.0*69
$GPRMC,143606.00,A,4124.233270,N,00206.224318,E,000.5,245.7,260426,,,A*53
$GPGGA,143607.00,4124.234219,N,00206.225594,E,1,16,0.71,415.87,M,0.0,M,0.0,0000*7E
$GPGSV,2,1,8,1,67,325,31.1,3,51,239,39.7,8,41,163,34.8,14,22,285,37.1*7E
$GPGSV,2,2,8,17,20,315,29.4,22,20,302,32.4,27,11,150,25.7,32,30,055,21.0*4B
$GLGSV,2,1,8,6,50,047,0.0,7,54,168,20.6,8,07,193,0.0,12,10,261,33.2*62
$GLGSV,2,2,8,13,14,307,29.3,21,45,091,38.3,22,53,334,27.5,23,17,310,0.0*63
$GPRMC,143607.00,A,4124.234219,N,00206.225594,E,001.2,063.2,260426,,,A*5C
$GPGGA,143608.00,4124.232702,N,00206.222179,E,1,16,0.71,422.17,M,0.0,M,0.0,0000*75
$GPGSV,2,1,8,1,67,325,30.9,3,51,239,39.7,8,41,163,34.7,14,22,285,37.1*78
$GPGSV,2,2,8,17,20,315,29.4,22,20,302,32.4,27,11,150,25.5,32,30,055,33.2*48
$GLGSV,2,1,8,6,50,047,0.0,7,54,168,20.7,8,07,193,0.0,12,10,261,30.1*63
$GLGSV,2,2,8,13,14,307,30.6,21,45,091,38.3,22,53,334,28.4,23,17,310,0.0*60
$GPRMC,143608.00,A,4124.232702,N,00206.222179,E,000.2,,260426,,,A*72
$GPGGA,143609.00,4124.232580,N,00206.222123,E,1,17,0.71,420.84,M,0.0,M,0.0,0000*7A
$GPGSV,3,1,9,1,67,325,31.3,2,67,065,35.3,3,51,239,39.7,8,41,163,34.7*49
$GPGSV,3,2,9,14,22,285,37.2,17,20,315,33.4,22,20,302,35.0,27,11,150,25.2*4B
$GPGSV,3,3,9,32,30,055,35.8*62
$GLGSV,2,1,8,6,50,047,0.0,7,54,168,20.8,8,07,193,0.0,12,10,261,30.1*6C
$GLGSV,2,2,8,13,14,307,32.8,21,45,091,35.4,22,53,334,28.7,23,17,310,0.0*65
$GPRMC,143609.00,A,4124.232580,N,00206.222123,E,000.3,,260426,,,A*75
$GPGGA,143610.00,4124.232925,N,00206.222750,E,1,17,0.71,419.40,M,0.0,M,0.0,0000*71
$GPGSV,3,1,9,1,67,325,29.5,2,67,065,33.1,3,51,239,39.7,8,41,163,34.6*43
$GPGSV,3,2,9,14,22,285,37.2,17,20,315,33.2,22,20,302,35.0,27,11,150,27.6*4B
$GPGSV,3,3,9,32,30,055,35.8*62
$GLGSV,2,1,8,6,50,047,0.0,7,54,168,26.1,8,07,193,0.0,12,10,261,34.0*66
$GLGSV,2,2,8,13,14,307,35.2,21,45,091,35.4,22,53,334,0.0,23,17,310,0.0*55
$GPRMC,143610.00,A,4124.232925,N,00206.222750,E,000.2,,260426,,,A*7D
$GPGGA,143611.00,4124.233595,N,00206.222791,E,1,17,0.71,418.94,M,0.0,M,0.0,0000*73
$GPGSV,3,1,9,1,67,325,30.1,2,67,065,35.0,3,51,239,39.7,8,41,163,31.4*4F
$GPGSV,3,2,9,14,22,285,37.2,17,20,315,33.1,22,20,302,35.1,27,11,150,25.7*4A
$GPGSV,3,3,9,32,30,055,35.8*62
$GLGSV,2,1,8,6,50,047,0.0,7,54,168,26.0,8,07,193,0.0,12,10,261,33.9*69
$GLGSV,2,2,8,13,14,307,33.7,21,45,091,35.4,22,53,334,28.8,23,17,310,0.0*64
$GPRMC,143611.00,A,4124.233595,N,00206.222791,E,000.3,,260426,,,A*76
$GPGGA,143612.00,4124.233865,N,00206.222906,E,1,17,0.71,417.82,M,0.0,M,0.0,0000*7A
$GPGSV,3,1,9,1,67,325,28.8,2,67,065,36.0,3,51,239,39.8,8,41,163,29.0*4E
$GPGSV,3,2,9,14,22,285,37.2,17,20,315,33.0,22,20,302,35.1,27,11,150,27.4*4A
$GPGSV,3,3,9,32,30,055,35.8*62
$GLGSV,2,1,8,6,50,047,0.0,7,54,168,26.1,8,07,193,0.0,12,10,261,33.9*68
$GLGSV,2,2,8,13,14,307,33.8,21,45,091,35.3,22,53,334,30.9,23,17,310,0.0*64
$GPRMC,143612.00,A,4124.233865,N,00206.222906,E,000.2,,260426,,,A*76
$GPGGA,143613.00,4124.234201,N,00206.222838,E,1,17,0.71,414.44,M,0.0,M,0.0,0000*71
$GPGSV,3,1,9,1,67,325,29.5,2,67,065,36.7,3,51,239,39.7,8,41,163,26.9*4C
$GPGSV,3,2,9,14,22,285,37.2,17,20,315,33.0,22,20,302,35.2,27,11,150,25.7*48
$GPGSV,3,3,9,32,30,055,35.8*62
$GLGSV,2,1,8,6,50,047,0.0,7,54,168,28.2,8,07,193,0.0,12,10,261,31.2*6C
$GLGSV,2,2,8,13,14,307,33.8,21,45,091,35.4,22,53,334,31.0,23,17,310,0.0*6B
$GPRMC,143613.00,A,4124.234201,N,00206.222838,E,000.2,,260426,,,A*74
$GPGGA,143614.00,4124.234281,N,00206.222799,E,1,17,0.71,417.03,M,0.0,M,0.0,0000*7A
$GPGSV,3,1,9,1,67,325,30.7,2,67,065,36.7,3,51,239,39.7,8,41,163,28.1*40
$GPGSV,3,2,9,14,22,285,37.3,17,20,315,33.0,22,20,302,35.2,27,11,150,26.2*4F
$GPGSV,3,3,9,32,30,055,35.8*62
$GLGSV,2,1,8,6,50,047,0.0,7,54,168,28.3,8,07,194,0.0,12,10,261,28.0*60
$GLGSV,2,2,8,13,14,307,33.7,21,45,091,35.4,22,53,334,31.1,23,17,310,0.0*65
$GPRMC,143614.00,A,4124.234281,N,00206.222799,E,000.2,,260426,,,A*7F
$GPGGA,143615.00,4124.234686,N,00206.222437,E,1,17,0.71,417.06,M,0.0,M,0.0,0000*7A
$GPGSV,3,1,9,1,67,325,31.3,2,67,065,36.6,3,51,239,39.7,8,41,163,25.0*48
$GPGSV,3,2,9,14,22,285,37.3,17,20,315,32.9,22,20,302,35.3,27,11,150,25.8*4F
$GPGSV,3,3,9,32,30,055,35.8*62
$GLGSV,2,1,8,6,50,047,0.0,7,54,168,28.7,8,07,194,0.0,12,10,261,28.0*64
$GLGSV,2,2,8,13,14,307,33.6,21,45,091,35.4,22,53,334,31.2,23,17,310,0.0*67
$GPRMC,143615.00,A,4124.234686,N,00206.222437,E,000.2,,260426,,,A*7A
$GPGGA,143616.00,4124.235147,N,00206.223367,E,1,17,0.71,417.47,M,0.0,M,0.0,0000*74
$GPGSV,3,1,9,1,67,325,32.9,2,67,065,36.5,3,51,239,39.7,8,41,163,22.3*46
$GPGSV,3,2,9,14,22,285,37.3,17,20,315,32.9,22,20,302,35.4,27,11,150,26.1*42
$GPGSV,3,3,9,32,30,055,35.8*62
$GLGSV,2,1,8,6,50,047,0.0,7,54,168,29.3,8,07,194,0.0,12,10,261,31.1*68
$GLGSV,2,2,8,13,14,307,33.7,21,45,091,35.4,22,53,334,0.0,23,17,310,0.0*56
$GPRMC,143616.00,A,4124.235147,N,00206.223367,E,000.2,,260426,,,A*71
$GPGGA,143617.00,4124.234973,N,00206.225291,E,1,17,0.71,418.60,M,0.0,M,0.0,0000*7F
$GPGSV,3,1,9,1,67,325,32.0,2,67,065,29.7,3,51,239,39.7,8,41,163,20.9*4B
$GPGSV,3,2,9,14,22,285,37.3,17,20,315,32.8,22,20,302,35.5,27,11,150,27.1*43
$GPGSV,3,3,9,32,30,055,35.8*62
$GLGSV,2,1,8,6,50,047,0.0,7,54,168,28.8,8,07,194,0.0,12,10,261,31.0*63
$GLGSV,2,2,8,13,14,307,33.8,21,45,091,35.3,22,53,334,0.0,23,17,310,0.0*5E
$GPRMC,143617.00,A,4124.234973,N,00206.225291,E,000.2,,260426,,,A*70
$GPGGA,143618.00,4124.235309,N,00206.224077,E,1,16,0.73,418.53,M,0.0,M,0.0,0000*7E
$GPGSV,2,1,8,1,67,325,29.9,2,67,065,33.3,3,51,239,39.8,14,22,285,37.2*76
$GPGSV,2,2,8,17,20,315,32.8,22,20,302,35.6,27,11,150,24.2,32,30,055,35.9*40
$GLGSV,2,1,8,6,50,047,0.0,7,54,168,29.8,8,07,194,0.0,12,10,261,30.9*6A
$GLGSV,2,2,8,13,13,307,36.6,21,45,091,35.3,22,53,334,0.0,23,17,310,0.0*52
$GPRMC,143618.00,A,4124.235309,N,00206.224077,E,000.2,,260426,,,A*72
$GPGGA,143619.00,4124.235295,N,00206.224089,E,1,17,0.71,420.75,M,0.0,M,0.0,0000*76
$GPGSV,3,1,9,1,67,325,31.1,2,67,065,26.9,3,51,239,39.8,8,41,163,20.8*46
$GPGSV,3,2,9,14,22,285,37.2,17,20,315,32.8,22,20,302,35.7,27,11,150,25.7*44
$GPGSV,3,3,9,32,30,055,36.0*69
$GLGSV,2,1,8,6,50,047,0.0,7,54,168,26.8,8,07,194,0.0,12,10,261,26.5*6E
$GLGSV,2,2,8,13,13,307,36.7,21,45,091,32.3,22,53,335,0.0,23,17,310,0.0*55
$GPRMC,143619.00,A,4124.235295,N,00206.224089,E,000.1,,260426,,,A*75
$GPGGA,143620.00,4124.234911,N,00206.224174,E,1,17,0.71,419.49,M,0.0,M,0.0,0000*7C
$GPGSV,3,1,9,1,67,325,35.4,2,67,065,28.2,3,51,239,39.8,8,41,163,33.3*4B
$GPGSV,3,2,9,14,22,285,37.3,17,20,315,32.8,22,20,302,35.7,27,11,150,29.1*4F
$GPGSV,3,3,9,32,30,055,36.0*69
$GLGSV,2,1,8,6,50,047,0.0,7,54,168,26.8,8,07,194,0.0,12,10,261,31.1*6C
$GLGSV,2,2,8,13,13,307,36.6,21,45,091,32.2,22,53,335,0.0,23,17,310,0.0*55
$GPRMC,143620.00,A,4124.234911,N,00206.224174,E,000.2,,260426,,,A*79
$GPGGA,143621.00,4124.235662,N,00206.223337,E,1,17,0.71,418.40,M,0.0,M,0.0,0000*7D
$GPGSV,3,1,9,1,67,325,32.5,2,67,065,23.2,3,51,239,39.9,8,41,163,29.9*46
$GPGSV,3,2,9,14,22,285,37.2,17,20,315,32.8,22,20,302,35.8,27,11,150,28.4*45
$GPGSV,3,3,9,32,30,055,36.0*69
$GLGSV,2,1,8,6,50,047,0.0,7,54,168,26.5,8,07,194,0.0,12,10,261,31.2*62
$GLGSV,2,2,8,13,13,307,36.6,21,45,091,32.3,22,53,335,0.0,23,17,310,0.0*54
$GPRMC,143621.00,A,4124.235662,N,00206.223337,E,000.3,,260426,,,A*71
$GPGGA,143622.00,4124.235541,N,00206.223475,E,1,17,0.71,421.22,M,0.0,M,0.0,0000*73
$GPGSV,3,1,9,1,67,325,32.8,2,67,065,22.6,3,51,239,39.9,8,41,163,29.6*41
$GPGSV,3,2,9,14,22,285,37.2,17,20,315,32.8,22,20,302,35.9,27,11,150,28.2*42
$GPGSV,3,3,9,32,30,055,36.0*69
$GLGSV,2,1,8,6,50,047,0.0,7,54,168,27.1,8,07,194,0.0,12,10,261,31.1*64
$GLGSV,2,2,8,13,13,307,36.5,21,45,091,32.3,22,53,335,0.0,23,17,310,0.0*57
$GPRMC,143622.00,A,4124.235541,N,00206.223475,E,000.2,,260426,,,A*70
$GPGGA,143623.00,4124.234968,N,00206.223736,E,1,16,0.71,420.75,M,0.0,M,0.0,0000*72
$GPGSV,2,1,8,1,67,325,32.9,3,51,239,39.9,8,41,163,27.9,14,22,285,37.2*7B
$GPGSV,2,2,8,17,20,315,32.8,22,20,302,36.0,27,11,150,28.6,32,30,055,36.0*47
$GLGSV,2,1,8,6,50,047,0.0,7,54,168,27.7,8,07,194,0.0,12,10,261,27.3*67
$GLGSV,2,2,8,13,13,307,36.4,21,45,091,32.2,22,53,335,0.0,23,17,310,0.0*57
$GPRMC,143623.00,A,4124.234968,N,00206.223736,E,000.1,,260426,,,A*70
$GPGGA,143624.00,4124.234493,N,00206.223562,E,1,17,0.71,420.12,M,0.0,M,0.0,0000*7F
$GPGSV,3,1,9,1,67,325,33.9,2,67,065,20.6,3,51,239,39.9,8,41,163,28.5*41
$GPGSV,3,2,9,14,22,285,37.2,17,20,315,32.7,22,20,302,36.1,27,11,150,29.4*41
$GPGSV,3,3,9,32,30,055,36.0*69
$GLGSV,2,1,8,6,50,047,0.0,7,54,168,27.6,8,07,194,0.0,12,10,261,27.2*67
$GLGSV,2,2,8,13,13,307,31.8,21,45,091,32.3,22,53,335,0.0,23,17,310,0.0*5D
$GPRMC,143624.00,A,4124.234493,N,00206.223562,E,000.2,,260426,,,A*7E
$GPGGA,143625.00,4124.234927,N,00206.223005,E,1,17,0.71,414.49,M,0.0,M,0.0,0000*71
$GPGSV,3,1,9,1,67,325,33.9,2,67,065,30.1,3,51,239,40.0,8,41,163,25.7*4F
$GPGSV,3,2,9,14,22,285,37.1,17,20,315,32.7,22,20,302,36.1,27,11,150,25.3*49
$GPGSV,3,3,9,32,30,055,36.1*68
$GLGSV,2,1,8,6,50,047,0.0,7,54,168,28.8,8,07,194,0.0,12,10,261,21.1*63
$GLGSV,2,2,8,13,13,307,31.8,21,45,091,32.4,22,53,335,0.0,23,17,310,0.0*5A
$GPRMC,143625.00,A,4124.234927,N,00206.223005,E,000.4,,260426,,,A*7F
$GPGGA,143626.00,4124.234741,N,00206.223214,E,1,17,0.71,415.44,M,0.0,M,0.0,0000*72
$GPGSV,3,1,9,1,67,325,34.3,2,67,065,35.8,3,51,239,37.4,8,41,163,22.6*4C
$GPGSV,3,2,9,14,22,285,37.2,17,20,315,35.5,22,20,302,38.9,27,11,150,27.9*41
$GPGSV,3,3,9,32,30,055,36.2*6B
$GLGSV,2,1,8,6,50,047,0.0,7,54,168,30.0,8,07,194,0.0,12,10,261,21.2*61
$GLGSV,2,2,8,13,13,307,31.8,21,45,091,32.5,22,53,335,0.0,23,17,310,0.0*5B
$GPRMC,143626.00,A,4124.234741,N,00206.223214,E,000.2,,260426,,,A*76
$GPGGA,143627.00,4124.234584,N,00206.223345,E,1,17,0.71,416.47,M,0.0,M,0.0,0000*7D
$GPGSV,3,1,9,1,67,325,31.8,2,67,065,32.8,3,51,239,37.5,8,40,163,24.8*4D
$GPGSV,3,2,9,14,22,285,37.2,17,20,315,35.4,22,20,302,38.9,27,11,150,27.8*41
$GPGSV,3,3,9,32,30,055,36.2*6B
$GLGSV,2,1,8,6,50,047,0.0,7,54,168,30.0,8,07,194,0.0,12,10,261,21.2*61
$GLGSV,2,2,8,13,13,307,29.0,21,45,091,32.6,22,53,335,0.0,23,18,310,0.0*56
$GPRMC,143627.00,A,4124.234584,N,00206.223345,E,000.3,,260426,,,A*78
$GPGGA,143628.00,4124.235019,N,00206.223709,E,1,17,0.71,420.98,M,0.0,M,0.0,0000*79
$GPGSV,3,1,9,1,67,325,34.4,2,67,065,27.7,3,51,239,37.6,8,40,163,23.2*41
$GPGSV,3,2,9,14,22,285,37.1,17,20,315,32.4,22,20,302,38.8,27,11,150,27.7*4B
$GPGSV,3,3,9,32,30,055,36.3*6A
$GLGSV,2,1,8,6,50,047,0.0,7,54,168,30.1,8,07,194,0.0,12,10,261,27.8*6C
$GLGSV,2,2,8,13,13,307,36.7,21,45,091,35.4,22,53,335,0.0,23,18,310,0.0*5A
$GPRMC,143628.00,A,4124.235019,N,00206.223709,E,000.3,,260426,,,A*7B
$GPGGA,143629.00,4124.235578,N,00206.224921,E,1,17,0.71,422.00,M,0.0,M,0.0,0000*7A
$GPGSV,3,1,9,1,67,325,34.4,2,67,065,33.5,3,51,239,41.8,8,40,163,28.4*44
$GPGSV,3,2,9,14,22,285,37.1,17,20,315,32.5,22,20,302,35.0,27,11,150,27.3*4B
$GPGSV,3,3,9,32,30,055,36.4*6D
$GLGSV,2,1,8,6,50,047,0.0,7,54,168,30.0,8,07,194,0.0,12,10,261,29.5*6E
$GLGSV,2,2,8,13,13,307,36.7,21,45,091,35.4,22,53,335,0.0,23,18,310,0.0*5A
$GPRMC,143629.00,A,4124.235578,N,00206.224921,E,000.4,,260426,,,A*7C
$GPGGA,143630.00,4124.236494,N,00206.224874,E,1,17,0.71,420.24,M,0.0,M,0.0,0000*77
$GPGSV,3,1,9,1,67,325,34.3,2,67,065,33.3,3,51,239,41.6,8,40,163,30.2*44
$GPGSV,3,2,9,14,22,285,37.2,17,20,315,32.5,22,20,302,34.9,27,11,150,24.3*43
$GPGSV,3,3,9,32,30,055,36.3*6A
$GLGSV,2,1,8,6,50,047,0.0,7,54,168,25.4,8,07,194,0.0,12,10,261,29.7*6C
$GLGSV,2,2,8,13,13,307,33.5,21,45,091,35.4,22,53,335,0.0,23,18,310,0.0*5D
$GPRMC,143630.00,A,4124.236494,N,00206.224874,E,000.6,115.1,260426,,,A*5D
$GPGGA,143631.00,4124.236048,N,00206.225624,E,1,17,0.71,419.05,M,0.0,M,0.0,0000*70
$GPGSV,3,1,9,1,67,325,34.2,2,67,065,33.7,3,51,239,41.6,8,40,163,26.8*4C
$GPGSV,3,2,9,14,22,285,37.2,17,20,315,35.8,22,20,302,35.0,27,11,150,22.5*41
$GPGSV,3,3,9,32,30,055,36.2*6B
$GLGSV,2,1,8,6,50,047,0.0,7,54,168,27.5,8,07,194,0.0,12,10,261,30.0*60
$GLGSV,2,2,8,13,13,307,36.6,21,45,091,35.4,22,53,335,0.0,23,18,310,0.0*5B
$GPRMC,143631.00,A,4124.236048,N,00206.225624,E,000.2,,260426,,,A*7D
$GPGGA,143632.00,4124.235685,N,00206.224631,E,1,17,0.71,421.83,M,0.0,M,0.0,0000*77
$GPGSV,3,1,9,1,67,325,30.9,2,67,065,30.1,3,51,239,41.6,8,40,163,23.2*49
$GPGSV,3,2,9,14,22,285,37.1,17,20,315,35.8,22,20,302,35.1,27,11,150,23.6*41
$GPGSV,3,3,9,32,30,055,36.2*6B
$GLGSV,2,1,8,6,50,047,0.0,7,54,168,27.7,8,07,194,0.0,12,10,261,28.8*63
$GLGSV,2,2,8,13,13,307,36.7,21,45,091,35.4,22,53,335,29.4,23,18,310,0.0*65
$GPRMC,143632.00,A,4124.235685,N,00206.224631,E,000.2,,260426,,,A*7F
$GPGGA,143633.00,4124.234958,N,00206.224725,E,1,17,0.71,420.85,M,0.0,M,0.0,0000*7B
$GPGSV,3,1,9,1,67,325,31.0,2,67,065,32.9,3,51,239,41.6,8,40,163,26.3*4F
$GPGSV,3,2,9,14,22,285,37.0,17,20,315,35.8,22,20,302,37.6,27,11,150,25.4*41
$GPGSV,3,3,9,32,30,055,36.2*6B
$GLGSV,2,1,8,6,50,047,0.0,7,54,168,29.8,8,07,194,0.0,12,10,261,26.8*6C
$GLGSV,2,2,8,13,13,307,36.7,21,45,091,35.4,22,53,335,28.6,23,18,310,0.0*66
$GPRMC,143633.00,A,4124.234958,N,00206.224725,E,000.0,,260426,,,A*76
$GPGGA,143634.00,4124.236113,N,00206.224501,E,1,17,0.71,418.22,M,0.0,M,0.0,0000*7B
$GPGSV,3,1,9,1,67,325,33.1,2,67,065,32.9,3,51,239,38.8,8,40,163,31.9*40
$GPGSV,3,2,9,14,22,285,37.1,17,20,315,33.1,22,20,302,33.5,27,11,150,23.3*49
$GPGSV,3,3,9,32,30,055,32.5*68
$GLGSV,2,1,8,6,50,047,0.0,7,54,168,24.6,8,07,194,0.0,12,10,261,27.5*63
$GLGSV,2,2,8,13,13,307,36.7,21,45,091,35.4,22,53,335,27.8,23,18,310,0.0*67
$GPRMC,143634.00,A,4124.236113,N,00206.224501,E,000.3,,260426,,,A*73
$GPGGA,143635.00,4124.235820,N,00206.224382,E,1,17,0.71,415.57,M,0.0,M,0.0,0000*72
$GPGSV,3,1,9,1,67,325,33.0,2,67,065,32.7,3,51,239,38.8,8,40,163,31.5*43
$GPGSV,3,2,9,14,22,285,37.2,17,20,315,33.1,22,20,302,33.5,27,11,150,18.2*43
$GPGSV,3,3,9,32,30,055,30.2*6D
$GLGSV,2,1,8,6,50,047,0.0,7,54,168,24.4,8,07,194,0.0,12,10,261,27.2*66
$GLGSV,2,2,8,13,13,307,33.7,21,45,091,35.4,22,53,335,30.1,23,18,310,0.0*6D
$GPRMC,143635.00,A,4124.235820,N,00206.224382,E,000.1,,260426,,,A*77
$GPGGA,143636.00,4124.235403,N,00206.224401,E,1,16,0.76,416.45,M,0.0,M,0.0,0000*76
$GPGSV,2,1,8,1,67,325,33.1,2,67,065,32.2,3,51,239,38.7,8,40,163,32.2*4C
$GPGSV,2,2,8,14,22,285,37.3,17,20,315,33.2,22,20,302,33.5,32,30,055,30.2*48
$GLGSV,2,1,8,6,50,047,0.0,7,54,168,23.8,8,07,194,0.0,12,10,261,26.2*6C
$GLGSV,2,2,8,13,13,307,33.7,21,45,091,35.4,22,53,335,30.1,23,18,310,0.0*6D
$GPRMC,143636.00,A,4124.235403,N,00206.224401,E,000.3,,260426,,,A*77
$GPGGA,143637.00,4124.234458,N,00206.223694,E,1,16,0.76,417.85,M,0.0,M,0.0,0000*7C
$GPGSV,2,1,8,1,67,325,32.6,2,67,065,29.7,3,51,239,38.6,8,40,163,32.2*44
$GPGSV,2,2,8,14,22,285,37.4,17,20,315,33.2,22,20,302,33.5,32,30,055,32.6*49
$GLGSV,2,1,8,6,50,047,0.0,7,54,168,23.8,8,07,194,0.0,12,10,261,28.1*61
$GLGSV,2,2,8,13,13,306,33.8,21,45,091,35.5,22,53,335,0.0,23,18,310,0.0*50
$GPRMC,143637.00,A,4124.234458,N,00206.223694,E,000.2,,260426,,,A*71
$GPGGA,143638.00,4124.234231,N,00206.223202,E,1,17,0.71,419.95,M,0.0,M,0.0,0000*78
$GPGSV,3,1,9,1,67,325,32.5,2,67,065,29.8,3,51,239,38.5,8,40,163,32.2*4B
$GPGSV,3,2,9,14,22,285,37.5,17,20,315,33.3,22,20,302,33.5,27,11,150,18.3*47
$GPGSV,3,3,9,32,30,055,33.6*6A
$GLGSV,2,1,8,6,50,046,0.0,7,54,168,23.8,8,07,194,0.0,12,10,261,27.9*67
$GLGSV,2,2,8,13,13,306,33.8,21,45,091,35.6,22,53,335,30.3,23,18,310,0.0*63
$GPRMC,143638.00,A,4124.234231,N,00206.223202,E,000.4,,260426,,,A*7A
$GPGGA,143639.00,4124.234489,N,00206.222797,E,1,17,0.71,423.26,M,0.0,M,0.0,0000*75
$GPGSV,3,1,9,1,67,325,32.5,2,67,065,30.0,3,51,239,38.4,8,40,163,31.8*43
$GPGSV,3,2,9,14,22,285,37.6,17,20,315,33.3,22,20,302,33.6,27,11,150,22.1*4C
$GPGSV,3,3,9,32,30,055,34.5*6E
$GLGSV,2,1,8,6,50,046,0.0,7,54,168,23.9,8,07,194,0.0,12,10,261,27.9*66
$GLGSV,2,2,8,13,13,306,33.9,21,45,091,35.7,22,53,335,30.0,23,18,310,0.0*60
$GPRMC,143639.00,A,4124.234489,N,00206.222797,E,000.2,,260426,,,A*70
$GPGGA,143640.00,4124.234195,N,00206.223027,E,1,17,0.71,422.91,M,0.0,M,0.0,0000*73
$GPGSV,3,1,9,1,67,325,32.4,2,67,065,29.0,3,51,239,38.3,8,40,163,32.6*40
$GPGSV,3,2,9,14,22,285,37.7,17,20,315,33.2,22,20,302,33.7,27,11,150,22.2*4E
$GPGSV,3,3,9,32,30,055,33.1*6D
$GLGSV,2,1,8,6,50,046,0.0,7,54,168,23.9,8,07,194,0.0,12,10,261,26.8*66
$GLGSV,2,2,8,13,13,306,33.8,21,45,091,35.7,22,53,335,30.1,23,18,310,0.0*60
$GPRMC,143640.00,A,4124.234195,N,00206.223027,E,000.4,,260426,,,A*7D
$GPGGA,143641.00,4124.233339,N,00206.222966,E,1,17,0.71,424.60,M,0.0,M,0.0,0000*74
$GPGSV,3,1,9,1,67,325,32.4,2,67,065,27.8,3,51,239,38.3,8,40,163,32.9*49
$GPGSV,3,2,9,14,22,285,37.9,17,20,315,33.2,22,20,302,33.7,27,11,150,22.1*43
$GPGSV,3,3,9,32,30,055,33.1*6D
$GLGSV,2,1,8,6,49,046,0.0,7,54,168,25.3,8,07,194,0.0,12,10,261,28.9*6D
$GLGSV,2,2,8,13,13,306,33.8,21,45,091,35.8,22,53,335,30.1,23,18,310,0.0*6F
$GPRMC,143641.00,A,4124.233339,N,00206.222966,E,000.2,,260426,,,A*74
$GPGGA,143642.00,4124.232455,N,00206.222523,E,1,16,0.76,423.33,M,0.0,M,0.0,0000*71
$GPGSV,2,1,8,1,67,325,32.3,2,67,065,28.5,3,51,239,38.2,8,40,163,28.8*47
$GPGSV,2,2,8,14,22,285,40.5,17,20,315,33.2,22,20,302,33.7,32,30,055,33.0*4D
$GLGSV,2,1,8,6,49,046,0.0,7,54,168,24.6,8,07,194,0.0,12,10,261,29.1*60
$GLGSV,2,2,8,13,13,306,33.8,21,45,091,35.8,22,53,335,30.1,23,18,310,0.0*6F
$GPRMC,143642.00,A,4124.232455,N,00206.222523,E,000.3,,260426,,,A*77
$GPGGA,143643.00,4124.232579,N,00206.223484,E,1,17,0.71,424.03,M,0.0,M,0.0,0000*70
$GPGSV,3,1,9,1,67,325,32.3,2,67,065,27.7,3,51,239,38.2,8,40,163,30.4*4F
$GPGSV,3,2,9,14,22,285,40.5,17,20,315,33.3,22,20,302,33.7,27,11,150,19.2*45
$GPGSV,3,3,9,32,30,055,30.3*6C
$GLGSV,2,1,8,6,49,046,0.0,7,54,168,24.5,8,07,194,0.0,12,10,261,29.1*63
$GLGSV,2,2,8,13,13,306,33.7,21,45,091,35.8,22,53,335,0.0,23,18,310,0.0*52
$GPRMC,143643.00,A,4124.232579,N,00206.223484,E,000.3,,260426,,,A*74
$GPGGA,143644.00,4124.232466,N,00206.223624,E,1,16,0.76,423.54,M,0.0,M,0.0,0000*73
$GPGSV,2,1,8,1,67,325,31.4,2,67,066,27.6,3,51,239,38.1,8,40,163,32.2*4E
$GPGSV,2,2,8,14,22,285,40.5,17,20,315,33.3,22,20,302,33.7,32,30,055,30.2*4D
$GLGSV,2,1,8,6,49,046,0.0,7,54,168,24.6,8,07,194,0.0,12,10,261,29.2*63
$GLGSV,2,2,8,13,13,306,30.8,21,45,091,35.9,22,53,335,30.5,23,18,310,0.0*69
$GPRMC,143644.00,A,4124.232466,N,00206.223624,E,000.3,,260426,,,A*74
$GPGGA,143645.00,4124.232989,N,00206.224093,E,1,17,0.71,423.45,M,0.0,M,0.0,0000*75
$GPGSV,3,1,9,1,67,325,31.9,2,67,066,28.9,3,51,239,38.1,8,40,163,33.8*48
$GPGSV,3,2,9,14,22,285,40.5,17,20,315,33.2,22,20,302,33.7,27,11,150,16.2*4B
$GPGSV,3,3,9,32,30,055,32.1*6C
$GLGSV,2,1,8,6,49,046,0.0,7,54,168,24.7,8,07,194,0.0,12,10,261,29.1*61
$GLGSV,2,2,8,13,13,306,34.2,21,45,091,36.0,22,53,335,29.5,23,18,310,0.0*65
$GPRMC,143645.00,A,4124.232989,N,00206.224093,E,000.2,,260426,,,A*75
$GPGGA,143646.00,4124.233235,N,00206.224411,E,1,17,0.71,422.61,M,0.0,M,0.0,0000*72
$GPGSV,3,1,9,1,67,325,32.9,2,67,066,30.1,3,51,239,38.1,8,40,163,32.1*42
$GPGSV,3,2,9,14,22,285,40.5,17,20,315,33.2,22,20,302,33.7,27,11,150,23.9*46
$GPGSV,3,3,9,32,30,055,31.7*69
$GLGSV,2,1,8,6,49,046,0.0,7,54,168,23.7,8,07,194,0.0,12,10,261,25.2*69
$GLGSV,2,2,8,13,13,306,34.1,21,45,091,36.1,22,54,335,30.1,23,18,310,0.0*6C
$GPRMC,143646.00,A,4124.233235,N,00206.224411,E,000.1,,260426,,,A*76
$GPGGA,143647.00,4124.232591,N,00206.224614,E,1,17,0.71,421.29,M,0.0,M,0.0,0000*73
$GPGSV,3,1,9,1,67,325,32.3,2,67,066,28.7,3,51,239,38.0,8,40,163,30.4*41
$GPGSV,3,2,9,14,22,285,40.5,17,20,315,33.2,22,20,302,33.7,27,11,150,21.1*4C
$GPGSV,3,3,9,32,30,055,32.0*6D
$GLGSV,2,1,8,6,49,046,0.0,7,54,168,23.8,8,07,194,0.0,12,10,261,22.7*64
$GLGSV,2,2,8,13,13,306,34.0,21,45,091,36.2,22,54,335,28.7,23,18,310,0.0*61
$GPRMC,143647.00,A,4124.232591,N,00206.224614,E,000.2,,260426,,,A*7B
$GPGGA,143648.00,4124.233228,N,00206.224844,E,1,17,0.71,421.43,M,0.0,M,0.0,0000*7F
$GPGSV,3,1,9,1,67,325,31.2,2,67,066,29.3,3,51,239,38.0,8,40,163,30.4*46
$GPGSV,3,2,9,14,22,285,40.5,17,20,315,33.2,22,20,302,33.7,27,11,150,23.9*46
$GPGSV,3,3,9,32,30,055,32.9*64
$GLGSV,2,1,8,6,49,046,0.0,7,54,168,23.8,8,07,194,0.0,12,10,261,22.2*61
$GLGSV,2,2,8,13,13,306,34.0,21,45,091,36.2,22,54,335,28.8,23,18,310,0.0*6E
$GPRMC,143648.00,A,4124.233228,N,00206.224844,E,000.2,,260426,,,A*7B
$GPGGA,143649.00,4124.233882,N,00206.224099,E,1,17,0.71,429.09,M,0.0,M,0.0,0000*7A
$GPGSV,3,1,9,1,67,325,29.1,2,67,066,29.4,3,51,239,38.0,8,40,163,29.2*45
$GPGSV,3,2,9,14,22,285,40.5,17,20,315,33.2,22,20,302,33.8,27,11,150,26.5*40
$GPGSV,3,3,9,32,30,055,32.8*65
$GLGSV,2,1,8,6,49,046,0.0,7,54,168,23.8,8,07,194,0.0,12,10,261,24.9*6C
$GLGSV,2,2,8,13,13,306,33.9,21,45,091,36.4,22,54,335,0.0,23,18,310,0.0*54
$GPRMC,143649.00,A,4124.233882,N,00206.224099,E,000.2,,260426,,,A*78
$GPGGA,143650.00,4124.233354,N,00206.224714,E,1,17,0.71,421.57,M,0.0,M,0.0,0000*73
$GPGSV,3,1,9,1,67,326,29.9,2,67,066,25.4,3,51,239,38.0,8,40,163,30.2*4A
$GPGSV,3,2,9,14,22,285,40.5,17,20,315,33.3,22,20,302,33.7,27,11,150,22.5*4A
$GPGSV,3,3,9,32,30,055,32.7*6A
$GLGSV,2,1,8,6,49,046,0.0,7,54,168,23.9,8,07,194,0.0,12,10,261,24.0*64
$GLGSV,2,2,8,13,13,306,33.9,21,45,091,36.5,22,54,335,28.8,23,18,310,0.0*67
$GPRMC,143650.00,A,4124.233354,N,00206.224714,E,000.4,,260426,,,A*74
$GPGGA,143651.00,4124.233094,N,00206.223903,E,1,17,0.71,420.50,M,0.0,M,0.0,0000*74
